[{"name":"Villa Alemana","country":"CL","lat":-33.0482,"lng":-71.3729,"pop":97320,"capital":false},{"name":"San Antonio","country":"CL","lat":-33.5947,"lng":-71.6075,"pop":87675,"capital":false},{"name":"Hualpén","country":"CL","lat":-36.7891,"lng":-73.1017,"pop":86639,"capital":false},{"name":"Peñaflor","country":"CL","lat":-33.6063,"lng":-70.8765,"pop":85671,"capital":false},{"name":"Chiguayante","country":"CL","lat":-36.9256,"lng":-73.0284,"pop":84718,"capital":false},{"name":"Ovalle","country":"CL","lat":-30.6011,"lng":-71.199,"pop":77138,"capital":false},{"name":"Padre Las Casas","country":"CL","lat":-38.7608,"lng":-72.5982,"pop":72892,"capital":false},{"name":"Paine","country":"CL","lat":-33.808,"lng":-70.7411,"pop":72759,"capital":false},{"name":"Linares","country":"CL","lat":-35.8467,"lng":-71.5931,"pop":69535,"capital":false},{"name":"Quillota","country":"CL","lat":-32.8834,"lng":-71.2488,"pop":67779,"capital":false},{"name":"Buin","country":"CL","lat":-33.7326,"lng":-70.7428,"pop":63419,"capital":false},{"name":"Padre Hurtado","country":"CL","lat":-33.5684,"lng":-70.8058,"pop":63250,"capital":false},{"name":"Melipilla","country":"CL","lat":-33.6891,"lng":-71.2153,"pop":63100,"capital":false},{"name":"Los Andes","country":"CL","lat":-32.8337,"lng":-70.5983,"pop":63009,"capital":false},{"name":"San Felipe","country":"CL","lat":-32.7498,"lng":-70.7258,"pop":59294,"capital":false},{"name":"Talagante","country":"CL","lat":-33.6639,"lng":-70.9273,"pop":57323,"capital":false},{"name":"Tomé","country":"CL","lat":-36.6176,"lng":-72.9559,"pop":53219,"capital":false},{"name":"La Calera","country":"CL","lat":-32.7868,"lng":-71.198,"pop":50221,"capital":false},{"name":"Villarrica","country":"CL","lat":-39.2857,"lng":-72.2279,"pop":49184,"capital":false},{"name":"Hacienda La Calera","country":"CL","lat":-32.7833,"lng":-71.2167,"pop":49106,"capital":false},{"name":"Lota","country":"CL","lat":-37.0899,"lng":-73.1577,"pop":47339,"capital":false},{"name":"Limache","country":"CL","lat":-33.0133,"lng":-71.2608,"pop":46121,"capital":false},{"name":"Penco","country":"CL","lat":-36.7407,"lng":-72.9953,"pop":46091,"capital":false},{"name":"Angol","country":"CL","lat":-37.7952,"lng":-72.7164,"pop":44856,"capital":false},{"name":"San Vicente de Tagua Tagua","country":"CL","lat":-34.4386,"lng":-71.0775,"pop":44046,"capital":false},{"name":"Machalí","country":"CL","lat":-34.1808,"lng":-70.6493,"pop":42572,"capital":false},{"name":"Concón","country":"CL","lat":-32.922,"lng":-71.5162,"pop":42152,"capital":false},{"name":"Constitución","country":"CL","lat":-35.3332,"lng":-72.4116,"pop":41207,"capital":false},{"name":"Molina","country":"CL","lat":-35.1143,"lng":-71.2823,"pop":40329,"capital":false},{"name":"San Javier","country":"CL","lat":-35.5952,"lng":-71.7292,"pop":40189,"capital":false},{"name":"San Clemente","country":"CL","lat":-35.5378,"lng":-71.487,"pop":39538,"capital":false},{"name":"Placilla","country":"CL","lat":-33.1144,"lng":-71.5681,"pop":39344,"capital":false},{"name":"Cauquenes","country":"CL","lat":-35.9671,"lng":-72.3225,"pop":38522,"capital":false},{"name":"Rengo","country":"CL","lat":-34.4064,"lng":-70.8583,"pop":38100,"capital":false},{"name":"Labranza","country":"CL","lat":-38.7652,"lng":-72.753,"pop":35893,"capital":false},{"name":"Santa Cruz","country":"CL","lat":-34.6388,"lng":-71.3658,"pop":34914,"capital":false},{"name":"Lautaro","country":"CL","lat":-38.5307,"lng":-72.4365,"pop":34268,"capital":false},{"name":"Chimbarongo","country":"CL","lat":-34.7125,"lng":-71.0434,"pop":33446,"capital":false},{"name":"Panguipulli","country":"CL","lat":-39.6435,"lng":-72.3327,"pop":32525,"capital":false},{"name":"Victoria","country":"CL","lat":-38.2329,"lng":-72.3329,"pop":32448,"capital":false},{"name":"La Ligua","country":"CL","lat":-32.4524,"lng":-71.2311,"pop":32131,"capital":false},{"name":"Curanilahue","country":"CL","lat":-37.4779,"lng":-73.3449,"pop":32000,"capital":false},{"name":"Cañete","country":"CL","lat":-37.8,"lng":-73.3833,"pop":31805,"capital":false},{"name":"Zapala","country":"AR","lat":-38.9006,"lng":-70.0667,"pop":31534,"capital":false},{"name":"San Carlos","country":"CL","lat":-36.4248,"lng":-71.958,"pop":31517,"capital":false},{"name":"Las Animas","country":"CL","lat":-39.8087,"lng":-73.2182,"pop":30000,"capital":false},{"name":"Nueva Imperial","country":"CL","lat":-38.7445,"lng":-72.9502,"pop":29366,"capital":false},{"name":"Chillán Viejo","country":"CL","lat":-36.623,"lng":-72.1319,"pop":28735,"capital":false},{"name":"Longaví","country":"CL","lat":-35.965,"lng":-71.6836,"pop":28499,"capital":false},{"name":"Vicuña","country":"CL","lat":-30.0354,"lng":-70.7127,"pop":27771,"capital":false},{"name":"Cabrero","country":"CL","lat":-37.0339,"lng":-72.4047,"pop":27595,"capital":false},{"name":"Mulchén","country":"CL","lat":-37.7189,"lng":-72.241,"pop":27557,"capital":false},{"name":"Pucón","country":"CL","lat":-39.2822,"lng":-71.9543,"pop":26953,"capital":false},{"name":"Parral","country":"CL","lat":-36.1431,"lng":-71.826,"pop":26904,"capital":false},{"name":"Nacimiento","country":"CL","lat":-37.5025,"lng":-72.6731,"pop":26523,"capital":false},{"name":"El Monte","country":"CL","lat":-33.6797,"lng":-70.9848,"pop":26459,"capital":false},{"name":"Coihueco","country":"CL","lat":-36.6278,"lng":-71.8307,"pop":25159,"capital":false},{"name":"Arauco","country":"CL","lat":-37.2463,"lng":-73.3175,"pop":24659,"capital":false},{"name":"Casablanca","country":"CL","lat":-33.3171,"lng":-71.4031,"pop":24537,"capital":false},{"name":"Carahue","country":"CL","lat":-38.7112,"lng":-73.161,"pop":24377,"capital":false},{"name":"Hualqui","country":"CL","lat":-36.9727,"lng":-72.9356,"pop":24333,"capital":false},{"name":"Collipulli","country":"CL","lat":-37.9545,"lng":-72.4344,"pop":23321,"capital":false},{"name":"Graneros","country":"CL","lat":-34.0686,"lng":-70.7275,"pop":23301,"capital":false},{"name":"Illapel","country":"CL","lat":-31.6335,"lng":-71.1697,"pop":22816,"capital":false},{"name":"Llaillay","country":"CL","lat":-32.8404,"lng":-70.9562,"pop":22659,"capital":false},{"name":"San Vicente","country":"CL","lat":-34.4333,"lng":-71.0833,"pop":22572,"capital":false},{"name":"Vilcún","country":"CL","lat":-38.6687,"lng":-72.2256,"pop":22499,"capital":false},{"name":"Freire","country":"CL","lat":-38.9525,"lng":-72.6265,"pop":22390,"capital":false},{"name":"Lebu","country":"CL","lat":-37.6082,"lng":-73.6536,"pop":22345,"capital":false},{"name":"Quintero","country":"CL","lat":-32.7859,"lng":-71.5322,"pop":22174,"capital":false},{"name":"Pitrufquén","country":"CL","lat":-38.9863,"lng":-72.6372,"pop":21981,"capital":false},{"name":"Loncoche","country":"CL","lat":-39.3671,"lng":-72.6309,"pop":21458,"capital":false},{"name":"Cañete","country":"CL","lat":-37.8013,"lng":-73.3962,"pop":20158,"capital":false},{"name":"Los Álamos","country":"CL","lat":-37.628,"lng":-73.4601,"pop":19494,"capital":false},{"name":"Cabildo","country":"CL","lat":-32.4313,"lng":-71.0717,"pop":19315,"capital":false},{"name":"Curacaví","country":"CL","lat":-33.3976,"lng":-71.1271,"pop":18378,"capital":false},{"name":"Los Vilos","country":"CL","lat":-31.9129,"lng":-71.5004,"pop":18275,"capital":false},{"name":"Cartagena","country":"CL","lat":-33.5538,"lng":-71.6076,"pop":17978,"capital":false},{"name":"Colbún","country":"CL","lat":-35.6949,"lng":-71.4057,"pop":17619,"capital":false},{"name":"Sagrada Familia","country":"CL","lat":-34.9992,"lng":-71.3842,"pop":17569,"capital":false},{"name":"Quillón","country":"CL","lat":-36.7455,"lng":-72.4748,"pop":17485,"capital":false},{"name":"La Cruz","country":"CL","lat":-32.8275,"lng":-71.2263,"pop":17310,"capital":false},{"name":"Traiguén","country":"CL","lat":-38.2496,"lng":-72.6703,"pop":17164,"capital":false},{"name":"San Esteban","country":"CL","lat":-32.7987,"lng":-70.5807,"pop":17090,"capital":false},{"name":"El Quisco","country":"CL","lat":-33.3977,"lng":-71.6939,"pop":16967,"capital":false},{"name":"Batuco","country":"CL","lat":-33.2328,"lng":-70.8092,"pop":16784,"capital":false},{"name":"Chicureo","country":"CL","lat":-33.2838,"lng":-70.6533,"pop":16520,"capital":false},{"name":"Coelemu","country":"CL","lat":-36.4874,"lng":-72.7032,"pop":15711,"capital":false},{"name":"Cunco","country":"CL","lat":-38.9318,"lng":-72.0315,"pop":15628,"capital":false},{"name":"Teodoro Schmidt","country":"CL","lat":-38.9944,"lng":-73.0893,"pop":15504,"capital":false},{"name":"Putaendo","country":"CL","lat":-32.6264,"lng":-70.7184,"pop":15361,"capital":false},{"name":"Villa Presidente Frei","country":"CL","lat":-33.4607,"lng":-70.5802,"pop":15000,"capital":false},{"name":"Villa Alegre","country":"CL","lat":-35.673,"lng":-71.7443,"pop":14695,"capital":false},{"name":"Gorbea","country":"CL","lat":-39.1016,"lng":-72.676,"pop":14414,"capital":false},{"name":"Monte Patria","country":"CL","lat":-30.695,"lng":-70.9577,"pop":13945,"capital":false},{"name":"Pichilemu","country":"CL","lat":-34.3833,"lng":-72,"pop":13916,"capital":false},{"name":"La Islita","country":"CL","lat":-33.75,"lng":-70.8667,"pop":13645,"capital":false},{"name":"Combarbalá","country":"CL","lat":-31.1786,"lng":-71.003,"pop":13605,"capital":false},{"name":"Tucapel","country":"CL","lat":-37.2908,"lng":-71.9493,"pop":13427,"capital":false},{"name":"Santa Bárbara","country":"CL","lat":-37.6682,"lng":-72.0225,"pop":13405,"capital":false},{"name":"Calle Larga","country":"CL","lat":-32.8547,"lng":-70.6259,"pop":13366,"capital":false},{"name":"Catemu","country":"CL","lat":-32.6333,"lng":-71.0333,"pop":13285,"capital":false},{"name":"Salamanca","country":"CL","lat":-31.7792,"lng":-70.9639,"pop":13265,"capital":false},{"name":"Santa Juana","country":"CL","lat":-37.1751,"lng":-72.9433,"pop":13228,"capital":false},{"name":"Isla de Maipo","country":"CL","lat":-33.7468,"lng":-70.8977,"pop":13207,"capital":false},{"name":"Curacautín","country":"CL","lat":-38.4406,"lng":-71.8892,"pop":12837,"capital":false},{"name":"Bulnes","country":"CL","lat":-36.7423,"lng":-72.2985,"pop":12715,"capital":false},{"name":"Olmué","country":"CL","lat":-32.9958,"lng":-71.1914,"pop":12499,"capital":false},{"name":"Galvarino","country":"CL","lat":-38.4136,"lng":-72.7815,"pop":12469,"capital":false},{"name":"El Carmen","country":"CL","lat":-36.8983,"lng":-72.0261,"pop":12277,"capital":false},{"name":"El Carmen","country":"CL","lat":-36.2913,"lng":-72.0371,"pop":12277,"capital":false},{"name":"San Francisco de Mostazal","country":"CL","lat":-33.9822,"lng":-70.7104,"pop":12010,"capital":false},{"name":"Purén","country":"CL","lat":-38.0334,"lng":-73.0714,"pop":11815,"capital":false},{"name":"Chos Malal","country":"AR","lat":-37.3781,"lng":-70.2708,"pop":11721,"capital":false},{"name":"Requínoa","country":"CL","lat":-34.2856,"lng":-70.8168,"pop":11452,"capital":false},{"name":"Lumaco","country":"CL","lat":-38.1648,"lng":-72.9055,"pop":11405,"capital":false},{"name":"Saavedra","country":"CL","lat":-38.787,"lng":-73.3971,"pop":11384,"capital":false},{"name":"Yungay","country":"CL","lat":-37.1198,"lng":-72.0198,"pop":11177,"capital":false},{"name":"Laja","country":"CL","lat":-37.2841,"lng":-72.711,"pop":11113,"capital":false},{"name":"Yumbel","country":"CL","lat":-37.0982,"lng":-72.5608,"pop":11111,"capital":false},{"name":"Andacollo","country":"CL","lat":-30.2345,"lng":-71.0853,"pop":11093,"capital":false},{"name":"Pinto","country":"CL","lat":-36.7036,"lng":-71.8923,"pop":10673,"capital":false},{"name":"Junín de los Andes","country":"AR","lat":-39.9493,"lng":-71.0754,"pop":10592,"capital":false},{"name":"Punitaqui","country":"CL","lat":-30.8345,"lng":-71.2586,"pop":10418,"capital":false},{"name":"Algarrobo","country":"CL","lat":-33.3695,"lng":-71.6765,"pop":10217,"capital":false},{"name":"Hijuelas","country":"CL","lat":-32.7983,"lng":-71.1463,"pop":10005,"capital":false},{"name":"San José de la Mariquina","country":"CL","lat":-39.5363,"lng":-72.9657,"pop":9999,"capital":false},{"name":"Rauco","country":"CL","lat":-34.9255,"lng":-71.3172,"pop":9543,"capital":false},{"name":"Negrete","country":"CL","lat":-37.5867,"lng":-72.5283,"pop":9394,"capital":false},{"name":"Los Lagos","country":"CL","lat":-39.8635,"lng":-72.8091,"pop":9277,"capital":false},{"name":"Canela","country":"CL","lat":-31.5833,"lng":-70.85,"pop":9182,"capital":false},{"name":"El Tabo","country":"CL","lat":-33.4555,"lng":-71.6668,"pop":9133,"capital":false},{"name":"Huepil","country":"CL","lat":-37.2394,"lng":-71.9416,"pop":9092,"capital":false},{"name":"Nancagua","country":"CL","lat":-34.6519,"lng":-71.1972,"pop":9007,"capital":false},{"name":"Chanco","country":"CL","lat":-35.7367,"lng":-72.533,"pop":9003,"capital":false},{"name":"Florida","country":"CL","lat":-36.824,"lng":-72.661,"pop":8916,"capital":false},{"name":"Rinconada de Los Andes","country":"CL","lat":-32.8332,"lng":-70.6884,"pop":8839,"capital":false},{"name":"Peumo","country":"CL","lat":-34.3869,"lng":-71.1756,"pop":8667,"capital":false},{"name":"Nogales","country":"CL","lat":-32.7167,"lng":-71.2333,"pop":8547,"capital":false},{"name":"Ercilla","country":"CL","lat":-38.0632,"lng":-72.3742,"pop":8466,"capital":false},{"name":"Las Cabras","country":"CL","lat":-34.2903,"lng":-71.3062,"pop":8374,"capital":false},{"name":"Pemuco","country":"CL","lat":-36.9779,"lng":-72.0961,"pop":8300,"capital":false},{"name":"Romeral","country":"CL","lat":-34.9613,"lng":-71.1235,"pop":8295,"capital":false},{"name":"Quirihue","country":"CL","lat":-36.28,"lng":-72.5412,"pop":8000,"capital":false},{"name":"San Rafael","country":"CL","lat":-35.3062,"lng":-71.5191,"pop":7964,"capital":false},{"name":"Pencahue","country":"CL","lat":-35.3935,"lng":-71.8005,"pop":7924,"capital":false},{"name":"Pelarco","country":"CL","lat":-35.3844,"lng":-71.4451,"pop":7632,"capital":false},{"name":"Quinta de Tilcoco","country":"CL","lat":-34.3555,"lng":-70.9653,"pop":7626,"capital":false},{"name":"Santa María","country":"CL","lat":-32.7473,"lng":-70.6567,"pop":7603,"capital":false},{"name":"Lanco","country":"CL","lat":-39.4525,"lng":-72.7712,"pop":7550,"capital":false},{"name":"Doñihue","country":"CL","lat":-34.2263,"lng":-70.9648,"pop":7525,"capital":false},{"name":"Calera de Tango","country":"CL","lat":-33.6224,"lng":-70.7991,"pop":7448,"capital":false},{"name":"Maule","country":"CL","lat":-35.5225,"lng":-71.6889,"pop":7366,"capital":false},{"name":"Codegua","country":"CL","lat":-34.0356,"lng":-70.6688,"pop":7290,"capital":false},{"name":"Los Sauces","country":"CL","lat":-37.9812,"lng":-72.8339,"pop":7169,"capital":false},{"name":"Teno","country":"CL","lat":-34.8705,"lng":-71.1622,"pop":6858,"capital":false},{"name":"Panquehue","country":"CL","lat":-32.7714,"lng":-70.8361,"pop":6837,"capital":false},{"name":"Santo Domingo","country":"CL","lat":-33.6361,"lng":-71.6272,"pop":6696,"capital":false},{"name":"Curarrehue","country":"CL","lat":-39.3602,"lng":-71.5875,"pop":6624,"capital":false},{"name":"Renaico","country":"CL","lat":-37.6714,"lng":-72.5841,"pop":6576,"capital":false},{"name":"Chépica","country":"CL","lat":-34.7273,"lng":-71.2729,"pop":6237,"capital":false},{"name":"Loncura","country":"CL","lat":-32.7878,"lng":-71.5056,"pop":6174,"capital":false},{"name":"Contulmo","country":"CL","lat":-38.0156,"lng":-73.2299,"pop":5838,"capital":false},{"name":"Coltauco","country":"CL","lat":-34.2885,"lng":-71.0837,"pop":5755,"capital":false},{"name":"San José de Maipo","country":"CL","lat":-33.6391,"lng":-70.3532,"pop":5675,"capital":false},{"name":"Retiro","country":"CL","lat":-36.0517,"lng":-71.7577,"pop":5670,"capital":false},{"name":"Tiltil","country":"CL","lat":-33.0831,"lng":-70.9292,"pop":5632,"capital":false},{"name":"Hualañe","country":"CL","lat":-34.9754,"lng":-71.8025,"pop":5594,"capital":false},{"name":"Puchuncaví","country":"CL","lat":-32.7257,"lng":-71.4151,"pop":5353,"capital":false},{"name":"Ninhue","country":"CL","lat":-36.3942,"lng":-72.3987,"pop":5268,"capital":false},{"name":"Pichidegua","country":"CL","lat":-34.355,"lng":-71.2883,"pop":5227,"capital":false},{"name":"Corral","country":"CL","lat":-39.8873,"lng":-73.431,"pop":5084,"capital":false},{"name":"Cobquecura","country":"CL","lat":-36.1325,"lng":-72.794,"pop":5043,"capital":false},{"name":"Peralillo","country":"CL","lat":-34.478,"lng":-71.4804,"pop":5024,"capital":false}]