[{"name":"Vallenar","country":"CL","lat":-28.5762,"lng":-70.7594,"pop":44895,"capital":false},{"name":"Tocopilla","country":"CL","lat":-22.092,"lng":-70.1979,"pop":25400,"capital":false},{"name":"Caldera","country":"CL","lat":-27.0681,"lng":-70.8192,"pop":16150,"capital":false},{"name":"Mejillones","country":"CL","lat":-23.1,"lng":-70.447,"pop":14084,"capital":false},{"name":"Diego de Almagro","country":"CL","lat":-26.3902,"lng":-70.0456,"pop":13925,"capital":false},{"name":"Tierra Amarilla","country":"CL","lat":-27.4663,"lng":-70.2625,"pop":12898,"capital":false},{"name":"Taltal","country":"CL","lat":-25.4071,"lng":-70.4855,"pop":11132,"capital":false},{"name":"Huasco","country":"CL","lat":-28.466,"lng":-71.2228,"pop":8977,"capital":false},{"name":"Freirina","country":"CL","lat":-28.5092,"lng":-71.0812,"pop":6038,"capital":false},{"name":"Alto del Carmen","country":"CL","lat":-28.7595,"lng":-70.4865,"pop":5034,"capital":false}]