[{"name":"Chosica","country":"PE","lat":-11.9431,"lng":-76.7094,"pop":88606,"capital":false},{"name":"Breña","country":"PE","lat":-12.0561,"lng":-77.0529,"pop":81909,"capital":false},{"name":"Ciudad Satelite","country":"PE","lat":-16.4308,"lng":-71.5292,"pop":76410,"capital":false},{"name":"Chilca","country":"PE","lat":-12.0863,"lng":-75.2083,"pop":73371,"capital":false},{"name":"Selva Alegre","country":"PE","lat":-16.3706,"lng":-71.5272,"pop":72696,"capital":false},{"name":"Abancay","country":"PE","lat":-13.6343,"lng":-72.8838,"pop":72277,"capital":false},{"name":"Moquegua","country":"PE","lat":-17.1975,"lng":-70.9359,"pop":69882,"capital":false},{"name":"San Isidro","country":"PE","lat":-12.0965,"lng":-77.0426,"pop":68309,"capital":false},{"name":"Jesus Maria","country":"PE","lat":-12.0698,"lng":-77.0449,"pop":66171,"capital":false},{"name":"Santiago","country":"PE","lat":-13.5273,"lng":-71.9843,"pop":64075,"capital":false},{"name":"Huaral","country":"PE","lat":-11.495,"lng":-77.2078,"pop":62174,"capital":false},{"name":"Pisco","country":"PE","lat":-13.7103,"lng":-76.2054,"pop":61869,"capital":false},{"name":"Villa Poeta José Gálvez Barrenechea","country":"PE","lat":-12.2131,"lng":-76.9052,"pop":61000,"capital":false},{"name":"San Miguel","country":"PE","lat":-15.478,"lng":-70.125,"pop":60850,"capital":false},{"name":"Wanchaq","country":"PE","lat":-13.5249,"lng":-71.9653,"pop":59134,"capital":false},{"name":"Cerro de Pasco","country":"PE","lat":-10.6658,"lng":-76.2531,"pop":58899,"capital":false},{"name":"Huacho","country":"PE","lat":-11.1172,"lng":-77.6058,"pop":54545,"capital":false},{"name":"Ilo","country":"PE","lat":-17.6318,"lng":-71.3411,"pop":53476,"capital":false},{"name":"Tarma","country":"PE","lat":-11.419,"lng":-75.6899,"pop":51350,"capital":false},{"name":"Huancavelica","country":"PE","lat":-12.7869,"lng":-74.973,"pop":49570,"capital":false},{"name":"Cono Norte","country":"PE","lat":-16.3237,"lng":-71.5815,"pop":47347,"capital":false},{"name":"Barranca","country":"PE","lat":-10.75,"lng":-77.7667,"pop":46290,"capital":false},{"name":"Jacobo Hunter","country":"PE","lat":-16.4408,"lng":-71.5533,"pop":46092,"capital":false},{"name":"Carmen De La Legua Reynoso","country":"PE","lat":-12.0535,"lng":-77.098,"pop":41863,"capital":false},{"name":"Barranco","country":"PE","lat":-12.143,"lng":-77.0186,"pop":37525,"capital":false},{"name":"Sicuani","country":"PE","lat":-14.2694,"lng":-71.2261,"pop":33575,"capital":false},{"name":"La Oroya","country":"PE","lat":-11.5189,"lng":-75.8993,"pop":33345,"capital":false},{"name":"Nuevo Imperial","country":"PE","lat":-13.0754,"lng":-76.3172,"pop":32344,"capital":false},{"name":"Imperial","country":"PE","lat":-13.0593,"lng":-76.3527,"pop":32344,"capital":false},{"name":"Mollendo","country":"PE","lat":-17.0231,"lng":-72.0147,"pop":28953,"capital":false},{"name":"Chaupimarca","country":"PE","lat":-10.407,"lng":-76.4617,"pop":28666,"capital":false},{"name":"Paramonga","country":"PE","lat":-10.6667,"lng":-77.8333,"pop":27631,"capital":false},{"name":"Chancay","country":"PE","lat":-11.5714,"lng":-77.2672,"pop":26958,"capital":false},{"name":"Hualmay","country":"PE","lat":-11.0964,"lng":-77.6139,"pop":26658,"capital":false},{"name":"San Vicente de Cañete","country":"PE","lat":-13.0756,"lng":-76.3853,"pop":25517,"capital":false},{"name":"Quillabamba","country":"PE","lat":-12.8633,"lng":-72.6931,"pop":25300,"capital":false},{"name":"Santa Ana","country":"PE","lat":-12.8667,"lng":-72.7167,"pop":25145,"capital":false},{"name":"Yanacancha","country":"PE","lat":-10.6658,"lng":-76.2552,"pop":24105,"capital":false},{"name":"Yauri","country":"PE","lat":-14.7908,"lng":-71.4099,"pop":23867,"capital":false},{"name":"Nazca","country":"PE","lat":-14.831,"lng":-74.9389,"pop":23556,"capital":false},{"name":"Yanacancha","country":"PE","lat":-10.2411,"lng":-76.6456,"pop":23175,"capital":false},{"name":"Ayaviri","country":"PE","lat":-14.8864,"lng":-70.5889,"pop":22247,"capital":false},{"name":"Jauja","country":"PE","lat":-11.7758,"lng":-75.4966,"pop":21057,"capital":false},{"name":"Huaura","country":"PE","lat":-11.07,"lng":-77.5994,"pop":20723,"capital":false},{"name":"El Pedregal","country":"PE","lat":-16.3631,"lng":-72.1921,"pop":20063,"capital":false},{"name":"Huanta","country":"PE","lat":-12.9333,"lng":-74.25,"pop":18627,"capital":false},{"name":"Santa Rosa","country":"PE","lat":-10.9191,"lng":-74.885,"pop":18057,"capital":false},{"name":"Andahuaylas","country":"PE","lat":-13.6556,"lng":-73.3872,"pop":17444,"capital":false},{"name":"Mala","country":"PE","lat":-12.6581,"lng":-76.6308,"pop":17260,"capital":false},{"name":"Atalaya","country":"PE","lat":-10.7307,"lng":-73.7587,"pop":16700,"capital":false},{"name":"Camaná","country":"PE","lat":-16.6237,"lng":-72.7105,"pop":16434,"capital":false},{"name":"San Martín de Pangoa","country":"PE","lat":-11.4285,"lng":-74.4883,"pop":16262,"capital":false},{"name":"Huarmey","country":"PE","lat":-10.0681,"lng":-78.1522,"pop":16172,"capital":false},{"name":"San Clemente","country":"PE","lat":-13.6667,"lng":-76.15,"pop":15815,"capital":false},{"name":"San Antonio","country":"PE","lat":-17.2172,"lng":-70.9259,"pop":15633,"capital":false},{"name":"Satipo","country":"PE","lat":-11.2522,"lng":-74.6386,"pop":15532,"capital":false},{"name":"Minas de Marcona","country":"PE","lat":-15.2119,"lng":-75.1103,"pop":15478,"capital":false},{"name":"Junín","country":"PE","lat":-11.159,"lng":-75.993,"pop":15320,"capital":false},{"name":"Santa María","country":"PE","lat":-12.0054,"lng":-76.8933,"pop":14853,"capital":false},{"name":"San Ramón","country":"PE","lat":-11.1242,"lng":-75.3573,"pop":14708,"capital":false},{"name":"Cono Norte","country":"PE","lat":-16.3011,"lng":-71.6165,"pop":14542,"capital":false},{"name":"Las Nazarenas","country":"PE","lat":-13.1546,"lng":-74.2155,"pop":14316,"capital":false},{"name":"Supe","country":"PE","lat":-10.7975,"lng":-77.7131,"pop":13719,"capital":false},{"name":"Pativilca","country":"PE","lat":-10.7,"lng":-77.7833,"pop":13583,"capital":false},{"name":"Azángaro","country":"PE","lat":-14.9142,"lng":-70.1985,"pop":13290,"capital":false},{"name":"Chilca","country":"PE","lat":-12.5211,"lng":-76.7372,"pop":12884,"capital":false},{"name":"San Juan","country":"PE","lat":-15.3653,"lng":-75.1622,"pop":12795,"capital":false},{"name":"Atuncolla","country":"PE","lat":-15.6886,"lng":-70.1439,"pop":12654,"capital":false},{"name":"Oxapampa","country":"PE","lat":-10.5775,"lng":-75.4017,"pop":12000,"capital":false},{"name":"Supe Puerto","country":"PE","lat":-10.8013,"lng":-77.7433,"pop":11450,"capital":false},{"name":"Concepción","country":"PE","lat":-11.9176,"lng":-75.314,"pop":11330,"capital":false},{"name":"Santa Rosa de Sacco","country":"PE","lat":-11.5507,"lng":-75.9425,"pop":11257,"capital":false},{"name":"Macusani","country":"PE","lat":-14.0833,"lng":-70.4333,"pop":11242,"capital":false},{"name":"Tupac Amaru","country":"PE","lat":-13.7113,"lng":-76.1498,"pop":11159,"capital":false},{"name":"Pichari","country":"PE","lat":-12.5,"lng":-73.8167,"pop":10655,"capital":false},{"name":"Puquio","country":"PE","lat":-14.7,"lng":-74.1333,"pop":10491,"capital":false},{"name":"Santiago","country":"PE","lat":-14.1847,"lng":-75.7112,"pop":10449,"capital":false},{"name":"Chupaca","country":"PE","lat":-12.0667,"lng":-75.2833,"pop":9877,"capital":false},{"name":"Ilabaya","country":"PE","lat":-17.4207,"lng":-70.5128,"pop":9492,"capital":false},{"name":"Calca","country":"PE","lat":-13.3333,"lng":-71.95,"pop":9179,"capital":false},{"name":"Carhuamayo","country":"PE","lat":-10.9167,"lng":-76.0333,"pop":9122,"capital":false},{"name":"Subtanjalla","country":"PE","lat":-14.0189,"lng":-75.7581,"pop":9096,"capital":false},{"name":"Ascencion","country":"PE","lat":-12.7842,"lng":-74.9806,"pop":9086,"capital":false},{"name":"San Luis","country":"PE","lat":-12.0767,"lng":-76.9943,"pop":8862,"capital":false},{"name":"Cocachacra","country":"PE","lat":-17.0883,"lng":-71.7575,"pop":8799,"capital":false},{"name":"San Jeronimo De Tunan","country":"PE","lat":-11.9559,"lng":-75.2841,"pop":8772,"capital":false},{"name":"San Miguel","country":"PE","lat":-13.0125,"lng":-73.9808,"pop":8400,"capital":false},{"name":"Horacio Zeballos Gamez","country":"PE","lat":-16.4918,"lng":-71.5073,"pop":8365,"capital":false},{"name":"Pilcomayo","country":"PE","lat":-12.0472,"lng":-75.2493,"pop":8169,"capital":false},{"name":"Morococha","country":"PE","lat":-11.5878,"lng":-76.0632,"pop":7890,"capital":false},{"name":"Los Aquijes","country":"PE","lat":-14.0967,"lng":-75.6908,"pop":7848,"capital":false},{"name":"Hacienda Huancane","country":"PE","lat":-15.8224,"lng":-70.8856,"pop":7831,"capital":false},{"name":"Pacocha","country":"PE","lat":-17.646,"lng":-71.3448,"pop":7588,"capital":false},{"name":"Urubamba","country":"PE","lat":-13.3047,"lng":-72.1158,"pop":7540,"capital":false},{"name":"Villa Rica","country":"PE","lat":-10.7394,"lng":-75.2697,"pop":7448,"capital":false},{"name":"Coracora","country":"PE","lat":-15.0333,"lng":-73.7833,"pop":7420,"capital":false},{"name":"Crucero","country":"PE","lat":-14.3612,"lng":-70.0235,"pop":7413,"capital":false},{"name":"Talavera","country":"PE","lat":-13.6531,"lng":-73.4292,"pop":7381,"capital":false},{"name":"Torata","country":"PE","lat":-17.0769,"lng":-70.8433,"pop":7054,"capital":false},{"name":"San Juan Bautista","country":"PE","lat":-14.0108,"lng":-75.7358,"pop":6871,"capital":false},{"name":"Ambo","country":"PE","lat":-10.1308,"lng":-76.2047,"pop":6865,"capital":false},{"name":"Perené","country":"PE","lat":-10.9489,"lng":-75.2264,"pop":6844,"capital":false},{"name":"Sicaya","country":"PE","lat":-12.0152,"lng":-75.2801,"pop":6842,"capital":false},{"name":"Mazamari","country":"PE","lat":-11.3258,"lng":-74.5308,"pop":6826,"capital":false},{"name":"Acolla","country":"PE","lat":-11.7319,"lng":-75.5463,"pop":6805,"capital":false},{"name":"Fonavi","country":"PE","lat":-14.0328,"lng":-75.737,"pop":6654,"capital":false},{"name":"Pangoa","country":"PE","lat":-12.1167,"lng":-73,"pop":6638,"capital":false},{"name":"Quilmaná","country":"PE","lat":-12.9486,"lng":-76.3811,"pop":6442,"capital":false},{"name":"El Triunfo ( El Cruce)","country":"PE","lat":-16.4932,"lng":-71.853,"pop":6386,"capital":false},{"name":"Punta de Bombón","country":"PE","lat":-17.1719,"lng":-71.7924,"pop":6336,"capital":false},{"name":"Paragsha- San Andres - Jose Carlos Mariategui","country":"PE","lat":-10.6715,"lng":-76.271,"pop":6316,"capital":false},{"name":"Oyón","country":"PE","lat":-10.6685,"lng":-76.7716,"pop":6276,"capital":false},{"name":"Végueta","country":"PE","lat":-11.0225,"lng":-77.6438,"pop":6219,"capital":false},{"name":"Sayán","country":"PE","lat":-11.1333,"lng":-77.1946,"pop":6196,"capital":false},{"name":"San Agustin","country":"PE","lat":-11.9902,"lng":-75.2442,"pop":5998,"capital":false},{"name":"Lluta","country":"PE","lat":-16.0147,"lng":-72.0142,"pop":5998,"capital":false},{"name":"Yanahuanca","country":"PE","lat":-10.5167,"lng":-76.4986,"pop":5992,"capital":false},{"name":"Palpa","country":"PE","lat":-14.5336,"lng":-75.1856,"pop":5883,"capital":false},{"name":"Anta","country":"PE","lat":-13.4706,"lng":-72.1483,"pop":5859,"capital":false},{"name":"Huayucachi","country":"PE","lat":-12.1382,"lng":-75.2232,"pop":5827,"capital":false},{"name":"Asentamiento Humano Nicolas de Pierola","country":"PE","lat":-11.9357,"lng":-76.7061,"pop":5800,"capital":false},{"name":"San Pedro de Cajas","country":"PE","lat":-11.2506,"lng":-75.8612,"pop":5758,"capital":false},{"name":"San Bartolo","country":"PE","lat":-12.3833,"lng":-76.7833,"pop":5733,"capital":false},{"name":"Yura","country":"PE","lat":-16.2522,"lng":-71.6797,"pop":5686,"capital":false},{"name":"Orcopampa","country":"PE","lat":-15.2661,"lng":-72.3417,"pop":5643,"capital":false},{"name":"San Jerónimo","country":"PE","lat":-13.6514,"lng":-73.3639,"pop":5609,"capital":false},{"name":"Pampas","country":"PE","lat":-12.3987,"lng":-74.8685,"pop":5521,"capital":false},{"name":"Caleta de Carquín","country":"PE","lat":-11.0925,"lng":-77.6267,"pop":5514,"capital":false},{"name":"Urcos","country":"PE","lat":-13.6861,"lng":-71.6228,"pop":5479,"capital":false},{"name":"San Miguel de Cauri","country":"PE","lat":-10.1382,"lng":-76.6229,"pop":5326,"capital":false},{"name":"Pampa de Tate","country":"PE","lat":-14.1453,"lng":-75.6918,"pop":5180,"capital":false},{"name":"Huasahuasi","country":"PE","lat":-11.2653,"lng":-75.6472,"pop":5146,"capital":false},{"name":"Tinyahuarco","country":"PE","lat":-10.7677,"lng":-76.2752,"pop":5066,"capital":false},{"name":"Tambo","country":"PE","lat":-14.7985,"lng":-73.9244,"pop":5032,"capital":false}]