[{"name":"Santander de Quilichao","country":"CO","lat":3.0095,"lng":-76.4849,"pop":99354,"capital":false},{"name":"Aguachica","country":"CO","lat":8.3084,"lng":-73.6166,"pop":97525,"capital":false},{"name":"Cereté","country":"CO","lat":8.8848,"lng":-75.7905,"pop":94935,"capital":false},{"name":"Rubio","country":"VE","lat":7.7016,"lng":-72.3555,"pop":93197,"capital":false},{"name":"Duitama","country":"CO","lat":5.8245,"lng":-73.0341,"pop":92040,"capital":false},{"name":"Montelíbano","country":"CO","lat":7.9792,"lng":-75.4202,"pop":90450,"capital":false},{"name":"Fusagasugá","country":"CO","lat":4.3365,"lng":-74.3638,"pop":88820,"capital":false},{"name":"Tumaco","country":"CO","lat":1.7911,"lng":-78.7927,"pop":86713,"capital":false},{"name":"Tulcán","country":"EC","lat":0.8124,"lng":-77.7171,"pop":86498,"capital":false},{"name":"Apartadó","country":"CO","lat":7.883,"lng":-76.6259,"pop":86438,"capital":false},{"name":"Chigorodó","country":"CO","lat":7.6664,"lng":-76.6811,"pop":86239,"capital":false},{"name":"Arauca","country":"CO","lat":7.0847,"lng":-70.7591,"pop":85585,"capital":false},{"name":"Sabaneta","country":"CO","lat":6.1515,"lng":-75.6166,"pop":82375,"capital":false},{"name":"Caldas","country":"CO","lat":6.0911,"lng":-75.6357,"pop":82234,"capital":false},{"name":"La Dorada","country":"CO","lat":5.4478,"lng":-74.6631,"pop":81950,"capital":false},{"name":"San Timoteo","country":"VE","lat":9.7901,"lng":-71.0708,"pop":81017,"capital":false},{"name":"Calarcá","country":"CO","lat":4.5295,"lng":-75.6409,"pop":79569,"capital":false},{"name":"Colón","country":"PA","lat":9.3603,"lng":-79.9002,"pop":78000,"capital":false},{"name":"Ipiales","country":"CO","lat":0.825,"lng":-77.6397,"pop":77729,"capital":false},{"name":"Arraiján","country":"PA","lat":8.9398,"lng":-79.6404,"pop":76815,"capital":false},{"name":"Socopó","country":"VE","lat":8.2306,"lng":-70.822,"pop":72352,"capital":false},{"name":"Yumbo","country":"CO","lat":3.5823,"lng":-76.4915,"pop":71436,"capital":false},{"name":"Trujillo","country":"VE","lat":9.3659,"lng":-70.4366,"pop":71362,"capital":false},{"name":"Planeta Rica","country":"CO","lat":8.4115,"lng":-75.5851,"pop":69708,"capital":false},{"name":"Las Cumbres","country":"PA","lat":9.0921,"lng":-79.5389,"pop":69102,"capital":false},{"name":"Boconó","country":"VE","lat":9.2539,"lng":-70.2511,"pop":68990,"capital":false},{"name":"Granada","country":"CO","lat":3.5463,"lng":-73.7069,"pop":68876,"capital":false},{"name":"Chinchiná","country":"CO","lat":4.9825,"lng":-75.6036,"pop":68512,"capital":false},{"name":"San Antonio del Táchira","country":"VE","lat":7.8112,"lng":-72.4444,"pop":66392,"capital":false},{"name":"Villa del Rosario","country":"CO","lat":7.8339,"lng":-72.4742,"pop":64951,"capital":false},{"name":"Guasdualito","country":"VE","lat":7.2424,"lng":-70.7323,"pop":64608,"capital":false},{"name":"Colón","country":"VE","lat":8.0313,"lng":-72.2605,"pop":62513,"capital":false},{"name":"La Fría","country":"VE","lat":8.2152,"lng":-72.2489,"pop":61568,"capital":false},{"name":"La Chorrera","country":"PA","lat":8.8776,"lng":-79.7801,"pop":61232,"capital":false},{"name":"San Marcos","country":"CO","lat":8.6597,"lng":-75.1281,"pop":60735,"capital":false},{"name":"Mene Grande","country":"VE","lat":9.8464,"lng":-70.9266,"pop":60580,"capital":false},{"name":"Pampán","country":"VE","lat":9.4452,"lng":-70.4756,"pop":59657,"capital":false},{"name":"Sahagún","country":"CO","lat":8.9462,"lng":-75.4427,"pop":59188,"capital":false},{"name":"Los Patios","country":"CO","lat":7.8379,"lng":-72.5037,"pop":58661,"capital":false},{"name":"Caucasia","country":"CO","lat":7.9865,"lng":-75.1935,"pop":58034,"capital":false},{"name":"Santa Rosa de Cabal","country":"CO","lat":4.8681,"lng":-75.6214,"pop":57928,"capital":false},{"name":"Orito","country":"CO","lat":0.6675,"lng":-76.873,"pop":57774,"capital":false},{"name":"Marinilla","country":"CO","lat":6.1736,"lng":-75.3362,"pop":57403,"capital":false},{"name":"Ureña","country":"VE","lat":7.9216,"lng":-72.444,"pop":56509,"capital":false},{"name":"Mocoa","country":"CO","lat":1.1528,"lng":-76.6521,"pop":56398,"capital":false},{"name":"Espinal","country":"CO","lat":4.1492,"lng":-74.8843,"pop":56213,"capital":false},{"name":"Ayapel","country":"CO","lat":8.3137,"lng":-75.1398,"pop":56082,"capital":false},{"name":"San Josecito","country":"VE","lat":7.6611,"lng":-72.2201,"pop":54669,"capital":false},{"name":"El Banco","country":"CO","lat":9.0011,"lng":-73.9758,"pop":54522,"capital":false},{"name":"Cajicá","country":"CO","lat":4.9186,"lng":-74.028,"pop":54111,"capital":false},{"name":"Barbosa","country":"CO","lat":6.4381,"lng":-75.3314,"pop":53943,"capital":false},{"name":"Pamplona","country":"CO","lat":7.3757,"lng":-72.6479,"pop":53587,"capital":false},{"name":"San José del Guaviare","country":"CO","lat":2.568,"lng":-72.6397,"pop":52815,"capital":false},{"name":"Ciudad Bolivia","country":"VE","lat":8.353,"lng":-70.5712,"pop":52476,"capital":false},{"name":"Pedregal","country":"PA","lat":9.0661,"lng":-79.4258,"pop":51641,"capital":false},{"name":"Barinitas","country":"VE","lat":8.7617,"lng":-70.412,"pop":51556,"capital":false},{"name":"El Bagre","country":"CO","lat":7.6035,"lng":-74.8095,"pop":51150,"capital":false},{"name":"Puerto Berrío","country":"CO","lat":6.4916,"lng":-74.4033,"pop":51079,"capital":false},{"name":"Cimitarra","country":"CO","lat":6.3142,"lng":-73.9497,"pop":50892,"capital":false},{"name":"Tocumen","country":"PA","lat":9.0894,"lng":-79.3831,"pop":50844,"capital":false},{"name":"Chinú","country":"CO","lat":9.1057,"lng":-75.3981,"pop":50743,"capital":false},{"name":"Turbo","country":"CO","lat":8.0926,"lng":-76.7282,"pop":50508,"capital":false},{"name":"Carmen de Viboral","country":"CO","lat":6.0824,"lng":-75.3351,"pop":49642,"capital":false},{"name":"La Estrella","country":"CO","lat":6.1577,"lng":-75.6432,"pop":49386,"capital":false},{"name":"Copacabana","country":"CO","lat":6.3463,"lng":-75.5089,"pop":49169,"capital":false},{"name":"Samaniego","country":"CO","lat":1.3385,"lng":-77.5957,"pop":49085,"capital":false},{"name":"Plato","country":"CO","lat":9.7903,"lng":-74.7824,"pop":48606,"capital":false},{"name":"Tovar","country":"VE","lat":8.3302,"lng":-71.7528,"pop":48395,"capital":false},{"name":"Palmira","country":"VE","lat":7.8375,"lng":-72.2279,"pop":48087,"capital":false},{"name":"El Carmen de Bolívar","country":"CO","lat":9.7174,"lng":-75.1202,"pop":47957,"capital":false},{"name":"Florida","country":"CO","lat":3.3223,"lng":-76.2348,"pop":47173,"capital":false},{"name":"Puerto Tejada","country":"CO","lat":3.2311,"lng":-76.4167,"pop":46215,"capital":false},{"name":"San Gil","country":"CO","lat":6.5595,"lng":-73.1364,"pop":46152,"capital":false},{"name":"Santa Bárbara","country":"VE","lat":7.8135,"lng":-71.1779,"pop":45808,"capital":false},{"name":"Chiquinquirá","country":"CO","lat":5.6164,"lng":-73.8175,"pop":45294,"capital":false},{"name":"Jamundí","country":"CO","lat":3.2607,"lng":-76.535,"pop":44833,"capital":false},{"name":"Pradera","country":"CO","lat":3.4211,"lng":-76.2447,"pop":44630,"capital":false},{"name":"Piendamo","country":"CO","lat":2.6392,"lng":-76.5305,"pop":44000,"capital":false},{"name":"Sevilla","country":"CO","lat":4.2643,"lng":-75.9309,"pop":43738,"capital":false},{"name":"Miranda","country":"CO","lat":3.2528,"lng":-76.2292,"pop":43333,"capital":false},{"name":"Rosa Zarate","country":"EC","lat":0.3278,"lng":-79.4741,"pop":42121,"capital":false},{"name":"Montenegro","country":"CO","lat":4.5664,"lng":-75.7511,"pop":41996,"capital":false},{"name":"Guaduas","country":"CO","lat":5.0669,"lng":-74.595,"pop":41838,"capital":false},{"name":"Pueblo Nuevo El Chivo","country":"VE","lat":8.9625,"lng":-71.6075,"pop":41740,"capital":false},{"name":"La Unión","country":"CO","lat":4.5328,"lng":-76.1032,"pop":41013,"capital":false},{"name":"Acacías","country":"CO","lat":3.987,"lng":-73.758,"pop":40627,"capital":false},{"name":"Lorica","country":"CO","lat":9.2365,"lng":-75.8135,"pop":40605,"capital":false},{"name":"Bosconia","country":"CO","lat":9.9711,"lng":-73.8882,"pop":40562,"capital":false},{"name":"Capacho Nuevo","country":"VE","lat":7.8247,"lng":-72.3084,"pop":40169,"capital":false},{"name":"Túquerres","country":"CO","lat":1.0865,"lng":-77.6186,"pop":40038,"capital":false},{"name":"Segovia","country":"CO","lat":7.0799,"lng":-74.6989,"pop":39938,"capital":false},{"name":"Corozal","country":"CO","lat":9.3185,"lng":-75.2933,"pop":39800,"capital":false},{"name":"Líbano","country":"CO","lat":4.9218,"lng":-75.0623,"pop":39459,"capital":false},{"name":"El Cerrito","country":"CO","lat":3.6855,"lng":-76.3137,"pop":38390,"capital":false},{"name":"Santa Rosa de Osos","country":"CO","lat":6.6474,"lng":-75.4603,"pop":37864,"capital":false},{"name":"Patía","country":"CO","lat":2.069,"lng":-77.0527,"pop":37781,"capital":false},{"name":"Bosconia","country":"CO","lat":4.8558,"lng":-73.9817,"pop":37676,"capital":false},{"name":"La Grita","country":"VE","lat":8.1332,"lng":-71.9839,"pop":37545,"capital":false},{"name":"Payandé","country":"CO","lat":4.2975,"lng":-75.0967,"pop":37496,"capital":false},{"name":"Parque Lefevre","country":"PA","lat":9.0227,"lng":-79.4786,"pop":36997,"capital":false},{"name":"Belalcázar","country":"CO","lat":2.6464,"lng":-75.9727,"pop":36977,"capital":false},{"name":"La Ceja","country":"CO","lat":6.0313,"lng":-75.4333,"pop":36584,"capital":false},{"name":"Gigante","country":"CO","lat":2.3868,"lng":-75.5474,"pop":36055,"capital":false},{"name":"Pampanito","country":"VE","lat":9.4104,"lng":-70.5012,"pop":35847,"capital":false},{"name":"Santa Ana","country":"VE","lat":7.6429,"lng":-72.2764,"pop":35452,"capital":false},{"name":"Quimbaya","country":"CO","lat":4.6231,"lng":-75.7628,"pop":35350,"capital":false},{"name":"Villamaría","country":"CO","lat":5.0457,"lng":-75.5147,"pop":35302,"capital":false},{"name":"Sabana de Mendoza","country":"VE","lat":9.4349,"lng":-70.7749,"pop":34869,"capital":false},{"name":"Curumaní","country":"CO","lat":9.1999,"lng":-73.5427,"pop":34838,"capital":false},{"name":"Paz de Ariporo","country":"CO","lat":5.8815,"lng":-71.8917,"pop":34446,"capital":false},{"name":"San Antero","country":"CO","lat":9.3741,"lng":-75.7589,"pop":34196,"capital":false},{"name":"Caja Seca","country":"VE","lat":9.1415,"lng":-71.0674,"pop":34165,"capital":false},{"name":"San Juan Nepomuceno","country":"CO","lat":9.9516,"lng":-75.082,"pop":34110,"capital":false},{"name":"Quinchía","country":"CO","lat":5.3396,"lng":-75.7302,"pop":34069,"capital":false},{"name":"Corinto","country":"CO","lat":3.173,"lng":-76.2627,"pop":33846,"capital":false},{"name":"Puerto Rico","country":"CO","lat":1.91,"lng":-75.1593,"pop":33765,"capital":false},{"name":"Sonsón","country":"CO","lat":5.7106,"lng":-75.3107,"pop":33598,"capital":false},{"name":"Chilibre","country":"PA","lat":9.154,"lng":-79.6202,"pop":33536,"capital":false},{"name":"San Sebastián de Mariquita","country":"CO","lat":5.1989,"lng":-74.8929,"pop":33340,"capital":false},{"name":"Anserma","country":"CO","lat":5.3328,"lng":-75.7911,"pop":33146,"capital":false},{"name":"San Onofre","country":"CO","lat":9.7359,"lng":-75.5263,"pop":32957,"capital":false},{"name":"Caicedonia","country":"CO","lat":4.3324,"lng":-75.8266,"pop":32417,"capital":false},{"name":"Otavalo","country":"EC","lat":0.2346,"lng":-78.2625,"pop":32330,"capital":false},{"name":"Villanueva","country":"CO","lat":5.2833,"lng":-71.9667,"pop":31727,"capital":false},{"name":"Puerto Wilches","country":"CO","lat":7.3483,"lng":-73.896,"pop":31698,"capital":false},{"name":"Mompós","country":"CO","lat":9.2419,"lng":-74.4267,"pop":30861,"capital":false},{"name":"San Luis de Sincé","country":"CO","lat":9.2439,"lng":-75.1467,"pop":30768,"capital":false},{"name":"San Pedro de Urabá","country":"CO","lat":8.2752,"lng":-76.3764,"pop":30527,"capital":false},{"name":"Guamo","country":"CO","lat":4.0308,"lng":-74.9701,"pop":30516,"capital":false},{"name":"Chimichagua","country":"CO","lat":9.2578,"lng":-73.8123,"pop":30289,"capital":false},{"name":"Socorro","country":"CO","lat":6.4684,"lng":-73.2602,"pop":29997,"capital":false},{"name":"Mitú","country":"CO","lat":1.2574,"lng":-70.2355,"pop":29850,"capital":false},{"name":"Puerto Asís","country":"CO","lat":0.5051,"lng":-76.4957,"pop":29782,"capital":false},{"name":"Morales","country":"CO","lat":2.7545,"lng":-76.6279,"pop":29737,"capital":false},{"name":"Cativá","country":"PA","lat":9.3622,"lng":-79.8323,"pop":29607,"capital":false},{"name":"Purificación","country":"CO","lat":3.8587,"lng":-74.9313,"pop":29539,"capital":false},{"name":"Garzón","country":"CO","lat":2.1959,"lng":-75.6278,"pop":29451,"capital":false},{"name":"Flandes","country":"CO","lat":4.2901,"lng":-74.8161,"pop":29296,"capital":false},{"name":"Tame","country":"CO","lat":6.4607,"lng":-71.7362,"pop":29099,"capital":false},{"name":"Zarzal","country":"CO","lat":4.3946,"lng":-76.0715,"pop":28761,"capital":false},{"name":"El Charco","country":"CO","lat":2.4808,"lng":-78.1097,"pop":28673,"capital":false},{"name":"Lagunillas","country":"VE","lat":8.5046,"lng":-71.3894,"pop":28176,"capital":false},{"name":"Honda","country":"CO","lat":5.2086,"lng":-74.7358,"pop":28158,"capital":false},{"name":"Sabana de Torres","country":"CO","lat":7.3915,"lng":-73.4957,"pop":27845,"capital":false},{"name":"Roldanillo","country":"CO","lat":4.4126,"lng":-76.1546,"pop":27561,"capital":false},{"name":"Santiago de Tolú","country":"CO","lat":9.5239,"lng":-75.5814,"pop":27390,"capital":false},{"name":"Puerto Boyacá","country":"CO","lat":5.976,"lng":-74.5852,"pop":27310,"capital":false},{"name":"Circasia","country":"CO","lat":4.6189,"lng":-75.6358,"pop":27135,"capital":false},{"name":"La Tebaida","country":"CO","lat":4.4527,"lng":-75.7875,"pop":27098,"capital":false},{"name":"Chiriguaná","country":"CO","lat":9.3624,"lng":-73.6031,"pop":27006,"capital":false},{"name":"La Mesa","country":"CO","lat":5.2667,"lng":-73.9167,"pop":26699,"capital":false},{"name":"Río Abajo","country":"PA","lat":9.024,"lng":-79.4936,"pop":26607,"capital":false},{"name":"Cayambe","country":"EC","lat":0.041,"lng":-78.1464,"pop":26582,"capital":false},{"name":"Supía","country":"CO","lat":5.453,"lng":-75.6507,"pop":26571,"capital":false},{"name":"Tierralta","country":"CO","lat":8.1736,"lng":-76.0592,"pop":26242,"capital":false},{"name":"Encontrados","country":"VE","lat":9.0598,"lng":-72.2346,"pop":26121,"capital":false},{"name":"El Zulia","country":"CO","lat":7.9325,"lng":-72.6012,"pop":26019,"capital":false},{"name":"Melgar","country":"CO","lat":4.2048,"lng":-74.6407,"pop":25980,"capital":false},{"name":"La Virginia","country":"CO","lat":4.8997,"lng":-75.8825,"pop":25900,"capital":false},{"name":"Anaime","country":"CO","lat":4.3964,"lng":-75.445,"pop":25715,"capital":false},{"name":"Motatán","country":"VE","lat":9.3918,"lng":-70.5906,"pop":25437,"capital":false},{"name":"Coloncito","country":"VE","lat":8.3261,"lng":-72.0874,"pop":25352,"capital":false},{"name":"Guamal","country":"CO","lat":9.1433,"lng":-74.2238,"pop":25312,"capital":false},{"name":"Isnos","country":"CO","lat":1.9356,"lng":-76.2406,"pop":24593,"capital":false},{"name":"Casigua El Cubo","country":"VE","lat":8.746,"lng":-72.5189,"pop":24592,"capital":false},{"name":"Barrancas","country":"VE","lat":8.7696,"lng":-70.1109,"pop":24354,"capital":false},{"name":"Nueva Loja","country":"EC","lat":0.086,"lng":-76.8953,"pop":24211,"capital":false},{"name":"Zaragoza","country":"CO","lat":7.4897,"lng":-74.8692,"pop":24067,"capital":false},{"name":"Nechí","country":"CO","lat":8.0942,"lng":-74.7757,"pop":24066,"capital":false},{"name":"Nuevo Belén","country":"PA","lat":9.0893,"lng":-79.3918,"pop":24056,"capital":false},{"name":"Tucaní","country":"VE","lat":8.97,"lng":-71.2728,"pop":24034,"capital":false},{"name":"Candelaria","country":"CO","lat":3.4067,"lng":-76.3482,"pop":23989,"capital":false},{"name":"Ituango","country":"CO","lat":7.1712,"lng":-75.764,"pop":23784,"capital":false},{"name":"San Jacinto","country":"CO","lat":9.8277,"lng":-75.1217,"pop":23576,"capital":false},{"name":"Tabay","country":"VE","lat":8.6317,"lng":-71.0783,"pop":23539,"capital":false},{"name":"San Carlos","country":"CO","lat":8.7958,"lng":-75.6995,"pop":23532,"capital":false},{"name":"María la Baja","country":"CO","lat":9.9832,"lng":-75.3016,"pop":23401,"capital":false},{"name":"Ciudad Bolívar","country":"CO","lat":5.8539,"lng":-76.0253,"pop":23361,"capital":false},{"name":"Pinillos","country":"CO","lat":8.9193,"lng":-74.4677,"pop":23349,"capital":false},{"name":"Santa Fe de Antioquia","country":"CO","lat":6.5569,"lng":-75.8281,"pop":23216,"capital":false},{"name":"Sucre","country":"CO","lat":8.8114,"lng":-74.7208,"pop":23210,"capital":false},{"name":"Sibaté","country":"CO","lat":4.4915,"lng":-74.2596,"pop":23208,"capital":false},{"name":"Rivera","country":"CO","lat":2.7772,"lng":-75.2564,"pop":22877,"capital":false},{"name":"Dabeiba","country":"CO","lat":7.0002,"lng":-76.2691,"pop":22717,"capital":false},{"name":"Campoalegre","country":"CO","lat":2.6849,"lng":-75.3231,"pop":22568,"capital":false},{"name":"Natagaima","country":"CO","lat":3.6206,"lng":-75.0941,"pop":22455,"capital":false},{"name":"Yarumal","country":"CO","lat":6.9632,"lng":-75.4174,"pop":22368,"capital":false},{"name":"San Martín","country":"CO","lat":3.6964,"lng":-73.6996,"pop":22281,"capital":false},{"name":"Tauramena","country":"CO","lat":5.0179,"lng":-72.7467,"pop":21709,"capital":false},{"name":"Timbiquí","country":"CO","lat":2.7717,"lng":-77.6654,"pop":21618,"capital":false},{"name":"Planadas","country":"CO","lat":3.197,"lng":-75.6451,"pop":21557,"capital":false},{"name":"Belén de Umbría","country":"CO","lat":5.2009,"lng":-75.8686,"pop":21450,"capital":false},{"name":"La Jagua de Ibirico","country":"CO","lat":9.5623,"lng":-73.334,"pop":21386,"capital":false},{"name":"Santa Cruz de Mora","country":"VE","lat":8.3993,"lng":-71.6408,"pop":21209,"capital":false},{"name":"Sampués","country":"CO","lat":9.1836,"lng":-75.3817,"pop":21204,"capital":false},{"name":"Moniquirá","country":"CO","lat":5.8764,"lng":-73.5728,"pop":20848,"capital":false},{"name":"La Unión","country":"CO","lat":5.9743,"lng":-75.3619,"pop":20769,"capital":false},{"name":"Aguadas","country":"CO","lat":5.6116,"lng":-75.4562,"pop":20712,"capital":false},{"name":"Ancón","country":"PA","lat":8.9602,"lng":-79.5514,"pop":20706,"capital":false},{"name":"Retiro","country":"CO","lat":6.0586,"lng":-75.5031,"pop":20700,"capital":false},{"name":"Villeta","country":"CO","lat":5.0089,"lng":-74.4723,"pop":20689,"capital":false},{"name":"Carepa","country":"CO","lat":7.7585,"lng":-76.6525,"pop":20627,"capital":false},{"name":"Silvania","country":"CO","lat":4.4037,"lng":-74.3867,"pop":20581,"capital":false},{"name":"Michelena","country":"VE","lat":7.9564,"lng":-72.2423,"pop":20539,"capital":false},{"name":"Neira","country":"CO","lat":5.1665,"lng":-75.52,"pop":20495,"capital":false},{"name":"Villa de San Diego de Ubaté","country":"CO","lat":5.3093,"lng":-73.8157,"pop":20485,"capital":false},{"name":"Becerril","country":"CO","lat":9.7041,"lng":-73.2793,"pop":20477,"capital":false},{"name":"Cota","country":"CO","lat":4.8094,"lng":-74.098,"pop":20462,"capital":false},{"name":"Rovira","country":"CO","lat":4.2392,"lng":-75.24,"pop":20452,"capital":false},{"name":"San Martín","country":"CO","lat":8.0018,"lng":-73.5114,"pop":20452,"capital":false},{"name":"Barbosa","country":"CO","lat":5.9317,"lng":-73.6151,"pop":20372,"capital":false},{"name":"Alcalde Díaz","country":"PA","lat":9.1227,"lng":-79.5567,"pop":20285,"capital":false},{"name":"Galeras","country":"CO","lat":9.161,"lng":-75.0481,"pop":20239,"capital":false},{"name":"San Lorenzo de Esmeraldas","country":"EC","lat":1.2863,"lng":-78.8351,"pop":20209,"capital":false},{"name":"Frontino","country":"CO","lat":6.7713,"lng":-76.1332,"pop":20156,"capital":false},{"name":"Bailadores","country":"VE","lat":8.2535,"lng":-71.8282,"pop":20113,"capital":false},{"name":"Timotes","country":"VE","lat":8.9822,"lng":-70.7393,"pop":20098,"capital":false},{"name":"Tolú Viejo","country":"CO","lat":9.4508,"lng":-75.4386,"pop":20033,"capital":false},{"name":"San Juan de Urabá","country":"CO","lat":8.7592,"lng":-76.5297,"pop":19992,"capital":false},{"name":"Chaparral","country":"CO","lat":3.7232,"lng":-75.4832,"pop":19982,"capital":false},{"name":"Buesaco","country":"CO","lat":1.3836,"lng":-77.1562,"pop":19951,"capital":false},{"name":"Nueva Bolivia","country":"VE","lat":9.1401,"lng":-71.0914,"pop":19885,"capital":false},{"name":"Málaga","country":"CO","lat":6.699,"lng":-72.7323,"pop":19884,"capital":false},{"name":"Suárez","country":"CO","lat":2.954,"lng":-76.6964,"pop":19690,"capital":false},{"name":"Guacarí","country":"CO","lat":3.7638,"lng":-76.3329,"pop":19637,"capital":false},{"name":"Vélez","country":"CO","lat":6.0134,"lng":-73.6735,"pop":19376,"capital":false},{"name":"Padua","country":"CO","lat":5.1343,"lng":-75.14,"pop":19311,"capital":false},{"name":"La Plata","country":"CO","lat":2.3934,"lng":-75.8923,"pop":19275,"capital":false},{"name":"El Dividive","country":"VE","lat":9.4751,"lng":-70.7349,"pop":19243,"capital":false},{"name":"Rioblanco","country":"CO","lat":3.5297,"lng":-75.6452,"pop":19090,"capital":false},{"name":"Riosucio","country":"CO","lat":5.4216,"lng":-75.7032,"pop":18950,"capital":false},{"name":"Balboa","country":"CO","lat":2.0418,"lng":-77.2165,"pop":18910,"capital":false},{"name":"Urrao","country":"CO","lat":6.317,"lng":-76.1342,"pop":18846,"capital":false},{"name":"Fredonia","country":"CO","lat":5.9258,"lng":-75.6706,"pop":18790,"capital":false},{"name":"Villa Rica","country":"CO","lat":2.5142,"lng":-76.8494,"pop":18761,"capital":false},{"name":"Morales","country":"CO","lat":8.2762,"lng":-73.868,"pop":18678,"capital":false},{"name":"Pizarro","country":"CO","lat":4.9533,"lng":-77.366,"pop":18561,"capital":false},{"name":"Astrea","country":"CO","lat":9.4983,"lng":-73.9759,"pop":18434,"capital":false},{"name":"El Chorrillo","country":"PA","lat":8.9496,"lng":-79.5471,"pop":18302,"capital":false},{"name":"San Benito Abad","country":"CO","lat":8.929,"lng":-75.0271,"pop":18181,"capital":false},{"name":"Andalucía","country":"CO","lat":4.1706,"lng":-76.1664,"pop":18132,"capital":false},{"name":"Escuque","country":"VE","lat":9.2969,"lng":-70.6719,"pop":18128,"capital":false},{"name":"Salamina","country":"CO","lat":5.4073,"lng":-75.4875,"pop":18076,"capital":false},{"name":"San Vicente","country":"CO","lat":6.2854,"lng":-75.3338,"pop":18051,"capital":false},{"name":"La Cabima","country":"PA","lat":9.118,"lng":-79.5332,"pop":17975,"capital":false},{"name":"Tiquisio","country":"CO","lat":8.5567,"lng":-74.2635,"pop":17939,"capital":false},{"name":"El Doncello","country":"CO","lat":1.6782,"lng":-75.2847,"pop":17775,"capital":false},{"name":"Santuario","country":"CO","lat":6.1383,"lng":-75.2642,"pop":17722,"capital":false},{"name":"Fresno","country":"CO","lat":5.1526,"lng":-75.0362,"pop":17668,"capital":false},{"name":"El Carmen de Chucurí","country":"CO","lat":6.6974,"lng":-73.5112,"pop":17638,"capital":false},{"name":"Ciénaga de Oro","country":"CO","lat":8.8744,"lng":-75.6203,"pop":17623,"capital":false},{"name":"Restrepo","country":"CO","lat":4.2583,"lng":-73.5614,"pop":17610,"capital":false},{"name":"Abejorral","country":"CO","lat":5.7893,"lng":-75.4272,"pop":17599,"capital":false},{"name":"Yondó","country":"CO","lat":7.0062,"lng":-73.9097,"pop":17597,"capital":false},{"name":"Nueva Granada","country":"CO","lat":9.8017,"lng":-74.393,"pop":17470,"capital":false},{"name":"Atuntaqui","country":"EC","lat":0.3276,"lng":-78.2191,"pop":17456,"capital":false},{"name":"Obispos","country":"VE","lat":8.607,"lng":-70.1049,"pop":17440,"capital":false},{"name":"Puerto Triunfo","country":"CO","lat":5.8726,"lng":-74.6405,"pop":17231,"capital":false},{"name":"Lérida","country":"CO","lat":4.8624,"lng":-74.9098,"pop":17197,"capital":false},{"name":"Veracruz","country":"PA","lat":8.8932,"lng":-79.6234,"pop":17144,"capital":false},{"name":"La Azulita","country":"VE","lat":8.7136,"lng":-71.4442,"pop":17111,"capital":false},{"name":"Tadó","country":"CO","lat":5.266,"lng":-76.5649,"pop":17000,"capital":false},{"name":"Pailitas","country":"CO","lat":8.9567,"lng":-73.6238,"pop":16800,"capital":false},{"name":"Pacho","country":"CO","lat":5.1328,"lng":-74.1598,"pop":16698,"capital":false},{"name":"Puerto López","country":"CO","lat":4.0991,"lng":-72.9565,"pop":16678,"capital":false},{"name":"San Lorenzo","country":"CO","lat":1.5029,"lng":-77.2154,"pop":16653,"capital":false},{"name":"Manzanares","country":"CO","lat":5.254,"lng":-75.154,"pop":16532,"capital":false},{"name":"Pupiales","country":"CO","lat":0.8714,"lng":-77.6403,"pop":16431,"capital":false},{"name":"Andes","country":"CO","lat":5.6561,"lng":-75.8788,"pop":16419,"capital":false},{"name":"Curundú","country":"PA","lat":8.9709,"lng":-79.5461,"pop":16361,"capital":false},{"name":"Puerto Santander","country":"CO","lat":8.3636,"lng":-72.4063,"pop":16275,"capital":false},{"name":"Momil","country":"CO","lat":9.2377,"lng":-75.6749,"pop":16264,"capital":false},{"name":"Cotorra","country":"CO","lat":9.0389,"lng":-75.7897,"pop":16215,"capital":false},{"name":"Tarqui","country":"CO","lat":2.1125,"lng":-75.8242,"pop":16108,"capital":false},{"name":"Concordia","country":"CO","lat":6.0464,"lng":-75.907,"pop":16095,"capital":false},{"name":"Guadalupe","country":"CO","lat":2.0248,"lng":-75.7559,"pop":15913,"capital":false},{"name":"Salgar","country":"CO","lat":5.965,"lng":-75.9654,"pop":15782,"capital":false},{"name":"Darien","country":"CO","lat":3.9314,"lng":-76.4848,"pop":15763,"capital":false},{"name":"Aguazul","country":"CO","lat":5.1728,"lng":-72.5471,"pop":15669,"capital":false},{"name":"Sabanitas","country":"PA","lat":9.3452,"lng":-79.8054,"pop":15577,"capital":false},{"name":"Marsella","country":"CO","lat":4.9372,"lng":-75.7378,"pop":15455,"capital":false},{"name":"Tocancipá","country":"CO","lat":4.9653,"lng":-73.913,"pop":15355,"capital":false},{"name":"Simití","country":"CO","lat":7.9579,"lng":-73.9436,"pop":15353,"capital":false},{"name":"Betulia","country":"CO","lat":6.1128,"lng":-75.9838,"pop":15097,"capital":false},{"name":"La Unión","country":"CO","lat":1.6045,"lng":-77.1315,"pop":15061,"capital":false},{"name":"Puerto Salgar","country":"CO","lat":5.463,"lng":-74.6544,"pop":15019,"capital":false},{"name":"La Gloria","country":"CO","lat":8.6195,"lng":-73.8021,"pop":14989,"capital":false},{"name":"Nuevo Arraiján","country":"PA","lat":8.9264,"lng":-79.7202,"pop":14920,"capital":false},{"name":"Villa Unida","country":"PA","lat":9.1918,"lng":-79.6237,"pop":14854,"capital":false},{"name":"Canalete","country":"CO","lat":8.6761,"lng":-76.2042,"pop":14831,"capital":false},{"name":"Monterrey","country":"CO","lat":4.878,"lng":-72.8958,"pop":14828,"capital":false},{"name":"Mercaderes","country":"CO","lat":1.8018,"lng":-77.1703,"pop":14824,"capital":false},{"name":"Cocorná","country":"CO","lat":6.0573,"lng":-75.1852,"pop":14743,"capital":false},{"name":"Purísima de la Concepción","country":"CO","lat":9.2366,"lng":-75.7219,"pop":14705,"capital":false},{"name":"Chicoral","country":"CO","lat":4.2154,"lng":-74.9819,"pop":14686,"capital":false},{"name":"San Gabriel","country":"EC","lat":0.5935,"lng":-77.8307,"pop":14487,"capital":false},{"name":"San Carlos","country":"CO","lat":7.7918,"lng":-74.7732,"pop":14480,"capital":false},{"name":"Pueblo Rico","country":"CO","lat":5.2226,"lng":-76.0303,"pop":14429,"capital":false},{"name":"Río de Oro","country":"CO","lat":8.2922,"lng":-73.3849,"pop":14408,"capital":false},{"name":"Los Palmitos","country":"CO","lat":9.379,"lng":-75.2677,"pop":14385,"capital":false},{"name":"Guarne","country":"CO","lat":6.2805,"lng":-75.4435,"pop":14270,"capital":false},{"name":"Donmatías","country":"CO","lat":6.4857,"lng":-75.395,"pop":14208,"capital":false},{"name":"San Vicente","country":"PA","lat":9.1154,"lng":-79.5993,"pop":14109,"capital":false},{"name":"Lobatera","country":"VE","lat":7.9301,"lng":-72.2468,"pop":14041,"capital":false},{"name":"Santa Ana","country":"CO","lat":9.3212,"lng":-74.5685,"pop":13950,"capital":false},{"name":"Guamal","country":"CO","lat":3.8804,"lng":-73.7657,"pop":13857,"capital":false},{"name":"Guapí","country":"CO","lat":2.5708,"lng":-77.8854,"pop":13853,"capital":false},{"name":"Istmina","country":"CO","lat":5.1605,"lng":-76.684,"pop":13788,"capital":false},{"name":"Toro","country":"CO","lat":4.6117,"lng":-76.0814,"pop":13764,"capital":false},{"name":"Tocaima","country":"CO","lat":4.4582,"lng":-74.6343,"pop":13649,"capital":false},{"name":"Cañasgordas","country":"CO","lat":6.7499,"lng":-76.0254,"pop":13595,"capital":false},{"name":"Tibú","country":"CO","lat":8.639,"lng":-72.7358,"pop":13565,"capital":false},{"name":"Palestina","country":"CO","lat":5.0161,"lng":-75.6285,"pop":13560,"capital":false},{"name":"Paipa","country":"CO","lat":5.7801,"lng":-73.1171,"pop":13554,"capital":false},{"name":"Chimá","country":"CO","lat":9.1489,"lng":-75.6284,"pop":13492,"capital":false},{"name":"Montecristo","country":"CO","lat":8.2971,"lng":-74.4733,"pop":13470,"capital":false},{"name":"Ataco","country":"CO","lat":3.5915,"lng":-75.3818,"pop":13470,"capital":false},{"name":"Maní","country":"CO","lat":4.8164,"lng":-72.2795,"pop":13291,"capital":false},{"name":"Ovejas","country":"CO","lat":9.5272,"lng":-75.2287,"pop":13284,"capital":false},{"name":"Pácora","country":"CO","lat":5.5271,"lng":-75.4593,"pop":13214,"capital":false},{"name":"San Jerónimo","country":"CO","lat":6.4434,"lng":-75.7281,"pop":13158,"capital":false},{"name":"El Playón","country":"CO","lat":7.4713,"lng":-73.2031,"pop":12966,"capital":false},{"name":"Chepo","country":"PA","lat":9.1702,"lng":-79.1008,"pop":12912,"capital":false},{"name":"Santa Bárbara","country":"CO","lat":5.8746,"lng":-75.5671,"pop":12743,"capital":false},{"name":"Mutatá","country":"CO","lat":7.2441,"lng":-76.4356,"pop":12607,"capital":false},{"name":"Viotá","country":"CO","lat":4.4371,"lng":-74.5216,"pop":12589,"capital":false},{"name":"Puente Nacional","country":"CO","lat":5.8774,"lng":-73.6781,"pop":12586,"capital":false},{"name":"San Rafael","country":"CO","lat":6.2944,"lng":-75.0259,"pop":12578,"capital":false},{"name":"El Tambo","country":"CO","lat":1.4079,"lng":-77.3922,"pop":12457,"capital":false},{"name":"Gamarra","country":"CO","lat":8.3229,"lng":-73.7423,"pop":12444,"capital":false},{"name":"Viterbo","country":"CO","lat":5.0624,"lng":-75.8716,"pop":12432,"capital":false},{"name":"Bugalagrande","country":"CO","lat":4.2121,"lng":-76.1556,"pop":12418,"capital":false},{"name":"Santo Domingo","country":"CO","lat":6.4728,"lng":-75.1655,"pop":12394,"capital":false},{"name":"Ansermanuevo","country":"CO","lat":4.7972,"lng":-75.995,"pop":12332,"capital":false},{"name":"Dagua","country":"CO","lat":3.6569,"lng":-76.6886,"pop":12320,"capital":false},{"name":"Pital","country":"CO","lat":2.2665,"lng":-75.8044,"pop":12246,"capital":false},{"name":"Anolaima","country":"CO","lat":4.7633,"lng":-74.4647,"pop":12204,"capital":false},{"name":"Unguía","country":"CO","lat":8.0436,"lng":-77.0914,"pop":12192,"capital":false},{"name":"Amagá","country":"CO","lat":6.04,"lng":-75.7031,"pop":12170,"capital":false},{"name":"Marquetalia","country":"CO","lat":5.2966,"lng":-75.055,"pop":12146,"capital":false},{"name":"El Bordo","country":"CO","lat":2.117,"lng":-76.9821,"pop":12072,"capital":false},{"name":"El Carmen","country":"CO","lat":8.5112,"lng":-73.4476,"pop":12001,"capital":false},{"name":"El Coco","country":"PA","lat":8.8769,"lng":-79.8081,"pop":11935,"capital":false},{"name":"Santuario","country":"CO","lat":5.0742,"lng":-75.9642,"pop":11787,"capital":false},{"name":"Trinidad","country":"CO","lat":5.4085,"lng":-71.662,"pop":11734,"capital":false},{"name":"Armero-Guyabal","country":"CO","lat":4.967,"lng":-74.9029,"pop":11720,"capital":false},{"name":"Curití","country":"CO","lat":6.6052,"lng":-73.0681,"pop":11653,"capital":false},{"name":"San Carlos de Guaroa","country":"CO","lat":3.7116,"lng":-73.2434,"pop":11512,"capital":false},{"name":"Valdivia","country":"CO","lat":7.2938,"lng":-75.3919,"pop":11511,"capital":false},{"name":"San Pedro","country":"CO","lat":9.3956,"lng":-75.0648,"pop":11489,"capital":false},{"name":"Valdez","country":"EC","lat":1.2492,"lng":-78.9831,"pop":11441,"capital":false},{"name":"Municipio Hato Corozal","country":"CO","lat":6.1568,"lng":-71.7637,"pop":11431,"capital":false},{"name":"El Retorno","country":"CO","lat":2.3302,"lng":-72.6276,"pop":11340,"capital":false},{"name":"Santa Rosa de Viterbo","country":"CO","lat":5.874,"lng":-72.9822,"pop":11329,"capital":false},{"name":"Venadillo","country":"CO","lat":4.7193,"lng":-74.9292,"pop":11310,"capital":false},{"name":"Pelaya","country":"CO","lat":8.6882,"lng":-73.6645,"pop":11306,"capital":false},{"name":"San Vicente de Chucurí","country":"CO","lat":6.881,"lng":-73.4098,"pop":11265,"capital":false},{"name":"Cumaral","country":"CO","lat":4.2708,"lng":-73.4867,"pop":11263,"capital":false},{"name":"Gachancipá","country":"CO","lat":4.9911,"lng":-73.8715,"pop":11252,"capital":false},{"name":"Junín","country":"CO","lat":4.7833,"lng":-75.0167,"pop":11158,"capital":false},{"name":"Majagual","country":"CO","lat":8.5412,"lng":-74.6294,"pop":11139,"capital":false},{"name":"Oporapa","country":"CO","lat":2.0238,"lng":-75.9959,"pop":11111,"capital":false},{"name":"Garagoa","country":"CO","lat":5.0824,"lng":-73.3633,"pop":11102,"capital":false},{"name":"Pijiño del Carmen","country":"CO","lat":9.3291,"lng":-74.453,"pop":11071,"capital":false},{"name":"La Victoria","country":"CO","lat":4.5248,"lng":-76.0392,"pop":11064,"capital":false},{"name":"Gaitania","country":"CO","lat":3.15,"lng":-75.8167,"pop":11000,"capital":false},{"name":"Obando","country":"CO","lat":4.5758,"lng":-75.9739,"pop":10970,"capital":false},{"name":"Soatá","country":"CO","lat":6.3337,"lng":-72.6828,"pop":10945,"capital":false},{"name":"Yacopí","country":"CO","lat":5.4595,"lng":-74.3382,"pop":10887,"capital":false},{"name":"Necoclí","country":"CO","lat":8.4263,"lng":-76.7893,"pop":10835,"capital":false},{"name":"Abrego","country":"CO","lat":8.082,"lng":-73.2213,"pop":10822,"capital":false},{"name":"Icononzo","country":"CO","lat":4.177,"lng":-74.5325,"pop":10801,"capital":false},{"name":"Algeciras","country":"CO","lat":2.5239,"lng":-75.3173,"pop":10792,"capital":false},{"name":"Ricaurte","country":"CO","lat":4.2808,"lng":-74.7647,"pop":10788,"capital":false},{"name":"Agua de Dios","country":"CO","lat":4.3765,"lng":-74.6699,"pop":10742,"capital":false},{"name":"Valencia","country":"CO","lat":8.258,"lng":-76.1493,"pop":10652,"capital":false},{"name":"San Alberto","country":"CO","lat":7.7611,"lng":-73.3922,"pop":10627,"capital":false},{"name":"Yacuanquer","country":"CO","lat":1.1158,"lng":-77.4017,"pop":10579,"capital":false},{"name":"Lejanías","country":"CO","lat":3.5276,"lng":-74.0233,"pop":10576,"capital":false},{"name":"Nilo","country":"CO","lat":4.306,"lng":-74.6208,"pop":10555,"capital":false},{"name":"Palestina","country":"CO","lat":1.7236,"lng":-76.134,"pop":10454,"capital":false},{"name":"Sandoná","country":"CO","lat":1.2863,"lng":-77.4692,"pop":10401,"capital":false},{"name":"Ebéjico","country":"CO","lat":6.326,"lng":-75.7683,"pop":10338,"capital":false},{"name":"Solano","country":"CO","lat":0.6994,"lng":-75.2535,"pop":10331,"capital":false},{"name":"Caparrapí","country":"CO","lat":5.3464,"lng":-74.4915,"pop":10301,"capital":false},{"name":"Venecia","country":"CO","lat":5.9628,"lng":-75.7381,"pop":10280,"capital":false},{"name":"Tello","country":"CO","lat":3.0669,"lng":-75.1378,"pop":10273,"capital":false},{"name":"Mosquera","country":"CO","lat":2.5086,"lng":-78.4511,"pop":10203,"capital":false},{"name":"Potosí","country":"CO","lat":0.8074,"lng":-77.5722,"pop":10186,"capital":false},{"name":"La Calera","country":"CO","lat":4.7207,"lng":-73.9693,"pop":10175,"capital":false},{"name":"Mogotes","country":"CO","lat":6.4756,"lng":-72.9705,"pop":10165,"capital":false},{"name":"Saladoblanco","country":"CO","lat":1.9924,"lng":-76.0433,"pop":10076,"capital":false},{"name":"Valle del Guamuez","country":"CO","lat":0.4525,"lng":-76.9192,"pop":9969,"capital":false},{"name":"Arauquita","country":"CO","lat":7.0292,"lng":-71.4281,"pop":9950,"capital":false},{"name":"La Sierra","country":"CO","lat":2.1784,"lng":-76.7626,"pop":9935,"capital":false},{"name":"Condoto","country":"CO","lat":5.0935,"lng":-76.6497,"pop":9897,"capital":false},{"name":"Palermo","country":"CO","lat":2.8917,"lng":-75.4375,"pop":9896,"capital":false},{"name":"Coello","country":"CO","lat":4.4031,"lng":-75.2942,"pop":9887,"capital":false},{"name":"Aranzazu","country":"CO","lat":5.2712,"lng":-75.4904,"pop":9854,"capital":false},{"name":"Olaya Herrera","country":"CO","lat":1.248,"lng":-77.4908,"pop":9820,"capital":false},{"name":"Sasaima","country":"CO","lat":4.9671,"lng":-74.4351,"pop":9807,"capital":false},{"name":"Mesetas","country":"CO","lat":3.3846,"lng":-74.0442,"pop":9751,"capital":false},{"name":"Hacarí","country":"CO","lat":8.321,"lng":-73.1458,"pop":9745,"capital":false},{"name":"Amalfi","country":"CO","lat":6.9102,"lng":-75.0776,"pop":9733,"capital":false},{"name":"Margarita","country":"CO","lat":9.156,"lng":-74.2662,"pop":9720,"capital":false},{"name":"La Primavera","country":"CO","lat":5.4906,"lng":-70.4092,"pop":9690,"capital":false},{"name":"Belalcázar","country":"CO","lat":4.9953,"lng":-75.8128,"pop":9690,"capital":false},{"name":"Chinácota","country":"CO","lat":7.6073,"lng":-72.6011,"pop":9667,"capital":false},{"name":"Filadelfia","country":"CO","lat":5.2961,"lng":-75.5612,"pop":9630,"capital":false},{"name":"Vegachí","country":"CO","lat":6.7614,"lng":-74.7947,"pop":9618,"capital":false},{"name":"Bolívar","country":"CO","lat":5.9893,"lng":-73.7706,"pop":9567,"capital":false},{"name":"Zambrano","country":"CO","lat":9.7474,"lng":-74.8157,"pop":9565,"capital":false},{"name":"Restrepo","country":"CO","lat":3.822,"lng":-76.5224,"pop":9545,"capital":false},{"name":"Cunday","country":"CO","lat":4.06,"lng":-74.6921,"pop":9544,"capital":false},{"name":"Curillo","country":"CO","lat":1.0333,"lng":-75.9191,"pop":9539,"capital":false},{"name":"Unión Chocó","country":"PA","lat":8.084,"lng":-77.5351,"pop":9497,"capital":false},{"name":"San Agustín","country":"CO","lat":1.8788,"lng":-76.2672,"pop":9481,"capital":false},{"name":"Sibundoy","country":"CO","lat":1.203,"lng":-76.9227,"pop":9458,"capital":false},{"name":"Bahía Solano","country":"CO","lat":6.2262,"lng":-77.4044,"pop":9400,"capital":false},{"name":"Nueva Esperanza","country":"PA","lat":9.1054,"lng":-79.3326,"pop":9342,"capital":false},{"name":"Rosas","country":"CO","lat":2.2609,"lng":-76.7399,"pop":9336,"capital":false},{"name":"Cajamarca","country":"CO","lat":4.4423,"lng":-75.4287,"pop":9309,"capital":false},{"name":"Landázuri","country":"CO","lat":6.2183,"lng":-73.8112,"pop":9238,"capital":false},{"name":"Saldaña","country":"CO","lat":3.9292,"lng":-75.0152,"pop":9237,"capital":false},{"name":"Riofrío","country":"CO","lat":4.1571,"lng":-76.2885,"pop":9236,"capital":false},{"name":"Granada","country":"CO","lat":6.1435,"lng":-75.1853,"pop":9204,"capital":false},{"name":"Falan","country":"CO","lat":5.1238,"lng":-74.9518,"pop":9204,"capital":false},{"name":"Alcalá","country":"CO","lat":4.6747,"lng":-75.7825,"pop":9135,"capital":false},{"name":"Palocabildo","country":"CO","lat":5.1171,"lng":-75.0173,"pop":9120,"capital":false},{"name":"San Juan de Betulia","country":"CO","lat":9.2735,"lng":-75.241,"pop":9092,"capital":false},{"name":"Pueblo Nuevo","country":"CO","lat":8.2411,"lng":-74.9581,"pop":9075,"capital":false},{"name":"Íquira","country":"CO","lat":2.6487,"lng":-75.6346,"pop":9064,"capital":false},{"name":"Linares","country":"CO","lat":1.3508,"lng":-77.5234,"pop":8974,"capital":false},{"name":"San Bernardo del Viento","country":"CO","lat":9.3533,"lng":-75.9524,"pop":8967,"capital":false},{"name":"Lebrija","country":"CO","lat":7.1132,"lng":-73.2178,"pop":8949,"capital":false},{"name":"Santa Rosa del Sur","country":"CO","lat":7.9644,"lng":-74.0544,"pop":8904,"capital":false},{"name":"Mucuchíes","country":"VE","lat":8.7492,"lng":-70.9198,"pop":8880,"capital":false},{"name":"Entrerríos","country":"CO","lat":6.5654,"lng":-75.5169,"pop":8820,"capital":false},{"name":"San Pedro","country":"CO","lat":6.4614,"lng":-75.5578,"pop":8801,"capital":false},{"name":"Alvarado","country":"CO","lat":4.5683,"lng":-74.9523,"pop":8796,"capital":false},{"name":"Puerto Pilón","country":"PA","lat":9.3632,"lng":-79.7933,"pop":8754,"capital":false},{"name":"La Cruz","country":"CO","lat":1.6022,"lng":-76.9713,"pop":8751,"capital":false},{"name":"Zea","country":"VE","lat":8.3771,"lng":-71.784,"pop":8713,"capital":false},{"name":"Sotomayor","country":"CO","lat":1.4947,"lng":-77.5214,"pop":8703,"capital":false},{"name":"Vista Alegre","country":"PA","lat":8.9292,"lng":-79.6996,"pop":8673,"capital":false},{"name":"San Antonio","country":"CO","lat":9.933,"lng":-74.6935,"pop":8476,"capital":false},{"name":"Achí","country":"CO","lat":8.5695,"lng":-74.5571,"pop":8434,"capital":false},{"name":"Sopó","country":"CO","lat":4.9075,"lng":-73.9384,"pop":8396,"capital":false},{"name":"Arboletes","country":"CO","lat":8.8505,"lng":-76.4269,"pop":8380,"capital":false},{"name":"Yotoco","country":"CO","lat":3.8605,"lng":-76.3836,"pop":8362,"capital":false},{"name":"Titiribí","country":"CO","lat":6.0628,"lng":-75.7937,"pop":8316,"capital":false},{"name":"Miraflores","country":"CO","lat":5.1961,"lng":-73.145,"pop":8274,"capital":false},{"name":"Cotacachi","country":"EC","lat":0.2995,"lng":-78.2656,"pop":8238,"capital":false},{"name":"Gómez Plata","country":"CO","lat":6.6818,"lng":-75.2191,"pop":8235,"capital":false},{"name":"Cisneros","country":"CO","lat":6.5383,"lng":-75.0886,"pop":8204,"capital":false},{"name":"Timaná","country":"CO","lat":1.9714,"lng":-75.9312,"pop":8203,"capital":false},{"name":"Leiva","country":"CO","lat":1.935,"lng":-77.3063,"pop":8201,"capital":false},{"name":"Altos de San Francisco","country":"PA","lat":8.8617,"lng":-79.79,"pop":8189,"capital":false},{"name":"Pensilvania","country":"CO","lat":5.3835,"lng":-75.1612,"pop":8173,"capital":false},{"name":"Policarpa","country":"CO","lat":1.6284,"lng":-77.4596,"pop":8149,"capital":false},{"name":"Río Viejo","country":"CO","lat":8.5886,"lng":-73.8397,"pop":8125,"capital":false},{"name":"Puerto Concordia","country":"CO","lat":2.6221,"lng":-72.7572,"pop":8086,"capital":false},{"name":"Bobures","country":"VE","lat":9.2417,"lng":-71.1751,"pop":8012,"capital":false},{"name":"Muzo","country":"CO","lat":5.5353,"lng":-74.1078,"pop":7977,"capital":false},{"name":"Aipe","country":"CO","lat":3.2222,"lng":-75.2367,"pop":7964,"capital":false},{"name":"Cáqueza","country":"CO","lat":4.4057,"lng":-73.9468,"pop":7958,"capital":false},{"name":"El Dovio","country":"CO","lat":4.5079,"lng":-76.2362,"pop":7942,"capital":false},{"name":"Liborina","country":"CO","lat":6.6779,"lng":-75.8122,"pop":7928,"capital":false},{"name":"Herveo","country":"CO","lat":5.08,"lng":-75.1756,"pop":7893,"capital":false},{"name":"Sardinata","country":"CO","lat":8.0829,"lng":-72.8007,"pop":7872,"capital":false},{"name":"Gonzalillo","country":"PA","lat":9.0978,"lng":-79.5131,"pop":7793,"capital":false},{"name":"La Pesa","country":"PA","lat":8.8537,"lng":-79.8246,"pop":7773,"capital":false},{"name":"Jericó","country":"CO","lat":5.7921,"lng":-75.786,"pop":7750,"capital":false},{"name":"Jardín","country":"CO","lat":5.599,"lng":-75.8198,"pop":7747,"capital":false},{"name":"San Carlos","country":"CO","lat":6.1879,"lng":-74.9931,"pop":7742,"capital":false},{"name":"Cicuco","country":"CO","lat":9.2776,"lng":-74.6431,"pop":7662,"capital":false},{"name":"Barbacoas","country":"CO","lat":1.6715,"lng":-78.1398,"pop":7633,"capital":false},{"name":"El Paujíl","country":"CO","lat":1.5701,"lng":-75.3286,"pop":7618,"capital":false},{"name":"Prado","country":"CO","lat":3.7512,"lng":-74.93,"pop":7607,"capital":false},{"name":"Chocontá","country":"CO","lat":5.1447,"lng":-73.6858,"pop":7592,"capital":false},{"name":"Cartagena del Chairá","country":"CO","lat":1.3349,"lng":-74.8429,"pop":7586,"capital":false},{"name":"Cumbal","country":"CO","lat":0.9088,"lng":-77.7914,"pop":7529,"capital":false},{"name":"Milán","country":"CO","lat":1.2903,"lng":-75.5076,"pop":7507,"capital":false},{"name":"Silvia","country":"CO","lat":2.6156,"lng":-76.3826,"pop":7474,"capital":false},{"name":"Salahonda","country":"CO","lat":2.0406,"lng":-78.6588,"pop":7430,"capital":false},{"name":"Pimampiro","country":"EC","lat":0.3909,"lng":-77.9409,"pop":7408,"capital":false},{"name":"El Águila","country":"CO","lat":4.9135,"lng":-76.04,"pop":7393,"capital":false},{"name":"Medina","country":"CO","lat":4.5101,"lng":-73.3498,"pop":7281,"capital":false},{"name":"El Peñón","country":"CO","lat":8.9889,"lng":-73.949,"pop":7234,"capital":false},{"name":"La Dorada","country":"CO","lat":0.3431,"lng":-76.9112,"pop":7185,"capital":false},{"name":"Riosucio","country":"CO","lat":7.4435,"lng":-77.1196,"pop":7163,"capital":false},{"name":"Peque","country":"CO","lat":7.0212,"lng":-75.9093,"pop":7155,"capital":false},{"name":"Génova","country":"CO","lat":4.3167,"lng":-75.7667,"pop":7140,"capital":false},{"name":"La Chamba","country":"CO","lat":4.0265,"lng":-74.8684,"pop":7075,"capital":false},{"name":"Guateque","country":"CO","lat":5.0062,"lng":-73.4727,"pop":7069,"capital":false},{"name":"Colombia","country":"CO","lat":3.3761,"lng":-74.8015,"pop":7040,"capital":false},{"name":"Villagarzón","country":"CO","lat":1.0375,"lng":-76.6267,"pop":7015,"capital":false},{"name":"Otanche","country":"CO","lat":5.6567,"lng":-74.1825,"pop":6997,"capital":false},{"name":"Apía","country":"CO","lat":5.1066,"lng":-75.9424,"pop":6940,"capital":false},{"name":"Cantagallo","country":"CO","lat":7.3793,"lng":-73.9155,"pop":6874,"capital":false},{"name":"Ortega","country":"CO","lat":3.9361,"lng":-75.2217,"pop":6871,"capital":false},{"name":"Pacora","country":"PA","lat":9.0825,"lng":-79.2896,"pop":6856,"capital":false},{"name":"Filandia","country":"CO","lat":4.6747,"lng":-75.6583,"pop":6851,"capital":false},{"name":"Santiago","country":"CO","lat":1.1484,"lng":-77.0045,"pop":6836,"capital":false},{"name":"Ambalema","country":"CO","lat":4.7841,"lng":-74.7627,"pop":6683,"capital":false},{"name":"Casabianca","country":"CO","lat":5.0796,"lng":-75.1206,"pop":6639,"capital":false},{"name":"Concordia","country":"CO","lat":9.8355,"lng":-74.4555,"pop":6624,"capital":false},{"name":"Córdoba","country":"CO","lat":9.5861,"lng":-74.827,"pop":6597,"capital":false},{"name":"Guadalupe","country":"PA","lat":8.8606,"lng":-79.8118,"pop":6561,"capital":false},{"name":"San Pablo","country":"CO","lat":1.6725,"lng":-77.0139,"pop":6522,"capital":false},{"name":"San Zenón","country":"CO","lat":9.2422,"lng":-74.5004,"pop":6520,"capital":false},{"name":"El Rosario","country":"CO","lat":1.744,"lng":-77.3348,"pop":6498,"capital":false},{"name":"Caloto","country":"CO","lat":3.0359,"lng":-76.4079,"pop":6478,"capital":false},{"name":"Remedios","country":"CO","lat":7.0284,"lng":-74.6938,"pop":6415,"capital":false},{"name":"Támesis","country":"CO","lat":5.6646,"lng":-75.7134,"pop":6406,"capital":false},{"name":"Santa Isabel","country":"CO","lat":3.3494,"lng":-74.9806,"pop":6382,"capital":false},{"name":"El Paso","country":"CO","lat":9.6572,"lng":-73.7468,"pop":6367,"capital":false},{"name":"Pauna","country":"CO","lat":5.6586,"lng":-73.9825,"pop":6355,"capital":false},{"name":"El Tambo","country":"CO","lat":2.452,"lng":-76.8103,"pop":6355,"capital":false},{"name":"Roncesvalles","country":"CO","lat":4.0108,"lng":-75.6049,"pop":6340,"capital":false},{"name":"Guaitarilla","country":"CO","lat":1.131,"lng":-77.5482,"pop":6280,"capital":false},{"name":"La Herradura","country":"PA","lat":8.8518,"lng":-79.8061,"pop":6271,"capital":false},{"name":"Mistrató","country":"CO","lat":5.2962,"lng":-75.8839,"pop":6263,"capital":false},{"name":"Talaigua Viejo","country":"CO","lat":9.3121,"lng":-74.5854,"pop":6217,"capital":false},{"name":"Ginebra","country":"CO","lat":3.7246,"lng":-76.2667,"pop":6088,"capital":false},{"name":"Aldana","country":"CO","lat":0.8828,"lng":-77.701,"pop":6085,"capital":false},{"name":"Valparaíso","country":"CO","lat":1.194,"lng":-75.7075,"pop":6082,"capital":false},{"name":"Zapatoca","country":"CO","lat":6.8153,"lng":-73.2677,"pop":6052,"capital":false},{"name":"Mapiripán","country":"CO","lat":2.8912,"lng":-72.1333,"pop":6036,"capital":false},{"name":"Yolombó","country":"CO","lat":6.5984,"lng":-75.0114,"pop":6033,"capital":false},{"name":"Norcasia","country":"CO","lat":5.5754,"lng":-74.8883,"pop":5976,"capital":false},{"name":"Barranco de Loba","country":"CO","lat":8.946,"lng":-74.1065,"pop":5933,"capital":false},{"name":"Puerto Gaitán","country":"CO","lat":4.3133,"lng":-72.0816,"pop":5928,"capital":false},{"name":"Toledo","country":"CO","lat":7.3098,"lng":-72.4829,"pop":5911,"capital":false},{"name":"Villapinzón","country":"CO","lat":5.2162,"lng":-73.5949,"pop":5874,"capital":false},{"name":"Trujillo","country":"CO","lat":4.2122,"lng":-76.3194,"pop":5874,"capital":false},{"name":"Ancuya","country":"CO","lat":1.2633,"lng":-77.5138,"pop":5852,"capital":false},{"name":"La Tola","country":"CO","lat":2.3995,"lng":-78.1892,"pop":5847,"capital":false},{"name":"San Pablo de Borbur","country":"CO","lat":5.6514,"lng":-74.0699,"pop":5839,"capital":false},{"name":"Yaguará","country":"CO","lat":2.6636,"lng":-75.5175,"pop":5724,"capital":false},{"name":"Aquitania","country":"CO","lat":5.5186,"lng":-72.8839,"pop":5718,"capital":false},{"name":"La Vega","country":"CO","lat":5.0018,"lng":-74.3417,"pop":5706,"capital":false},{"name":"La Mitra","country":"PA","lat":8.8426,"lng":-79.7845,"pop":5699,"capital":false},{"name":"Pijao","country":"CO","lat":4.3335,"lng":-75.7046,"pop":5668,"capital":false},{"name":"Piedras","country":"CO","lat":4.5426,"lng":-74.8782,"pop":5662,"capital":false},{"name":"Carmen de Apicalá","country":"CO","lat":4.1473,"lng":-74.7201,"pop":5640,"capital":false},{"name":"San Pelayo","country":"CO","lat":8.9583,"lng":-75.8363,"pop":5637,"capital":false},{"name":"González","country":"CO","lat":8.3902,"lng":-73.3805,"pop":5634,"capital":false},{"name":"Vigía del Fuerte","country":"CO","lat":6.5893,"lng":-76.896,"pop":5624,"capital":false},{"name":"San Roque","country":"CO","lat":6.4851,"lng":-75.0196,"pop":5576,"capital":false},{"name":"El Rosal","country":"CO","lat":4.8531,"lng":-74.26,"pop":5552,"capital":false},{"name":"San Pedro","country":"CO","lat":3.9945,"lng":-76.2288,"pop":5473,"capital":false},{"name":"Nemocón","country":"CO","lat":5.0677,"lng":-73.8777,"pop":5466,"capital":false},{"name":"Risaralda","country":"CO","lat":5.1665,"lng":-75.7659,"pop":5421,"capital":false},{"name":"Belén","country":"CO","lat":5.9889,"lng":-72.9125,"pop":5411,"capital":false},{"name":"Guatapé","country":"CO","lat":6.2343,"lng":-75.1633,"pop":5389,"capital":false},{"name":"Fómeque","country":"CO","lat":4.488,"lng":-73.8975,"pop":5389,"capital":false},{"name":"Moñitos","country":"CO","lat":8.25,"lng":-76.05,"pop":5385,"capital":false},{"name":"Playarrica","country":"CO","lat":4.0569,"lng":-75.4103,"pop":5381,"capital":false},{"name":"Arenal","country":"CO","lat":8.4589,"lng":-73.9416,"pop":5346,"capital":false},{"name":"Palmito","country":"CO","lat":9.3319,"lng":-75.5417,"pop":5345,"capital":false},{"name":"La Pintada","country":"CO","lat":5.7487,"lng":-75.6063,"pop":5342,"capital":false},{"name":"Guayabal","country":"CO","lat":5.031,"lng":-74.8868,"pop":5339,"capital":false},{"name":"Regidor","country":"CO","lat":8.6663,"lng":-73.8222,"pop":5335,"capital":false},{"name":"Pueblorrico","country":"CO","lat":5.7918,"lng":-75.841,"pop":5327,"capital":false},{"name":"Arbeláez","country":"CO","lat":4.2725,"lng":-74.4151,"pop":5252,"capital":false},{"name":"Altos del Rosario","country":"CO","lat":8.7916,"lng":-74.1656,"pop":5220,"capital":false},{"name":"San Antonio","country":"CO","lat":3.9142,"lng":-75.4801,"pop":5185,"capital":false},{"name":"Pesca","country":"CO","lat":5.55,"lng":-73.05,"pop":5113,"capital":false},{"name":"Villa de Leyva","country":"CO","lat":5.6341,"lng":-73.5244,"pop":5103,"capital":false},{"name":"Cumbitara","country":"CO","lat":1.6479,"lng":-77.5782,"pop":5096,"capital":false},{"name":"Puerto Lleras","country":"CO","lat":3.0223,"lng":-73.4044,"pop":5076,"capital":false},{"name":"Buenavista","country":"CO","lat":9.0496,"lng":-76.0028,"pop":5062,"capital":false},{"name":"Ramiriquí","country":"CO","lat":5.4002,"lng":-73.3354,"pop":5039,"capital":false},{"name":"Puerto Yuca","country":"CO","lat":2.9383,"lng":-73.2083,"pop":5029,"capital":false},{"name":"Miraflores","country":"CO","lat":1.3367,"lng":-71.9511,"pop":5007,"capital":false},{"name":"La Palma","country":"PA","lat":8.405,"lng":-78.1404,"pop":1728,"capital":false},{"name":"El Porvenir","country":"PA","lat":9.5528,"lng":-78.9523,"pop":10,"capital":false}]