[{"name":"Moncton","country":"CA","lat":46.0945,"lng":-64.7965,"pop":86106,"capital":false},{"name":"Saint John","country":"CA","lat":45.2708,"lng":-66.0562,"pop":71808,"capital":false},{"name":"Fredericton","country":"CA","lat":45.9454,"lng":-66.6656,"pop":63116,"capital":false},{"name":"Lower Sackville","country":"CA","lat":44.776,"lng":-63.6786,"pop":51749,"capital":false},{"name":"Rimouski","country":"CA","lat":48.4488,"lng":-68.524,"pop":42240,"capital":false},{"name":"Charlottetown","country":"CA","lat":46.2346,"lng":-63.1256,"pop":38809,"capital":false},{"name":"Bangor","country":"US","lat":44.7988,"lng":-68.7726,"pop":32391,"capital":false},{"name":"Fredericton Northside","country":"CA","lat":45.9759,"lng":-66.6412,"pop":28167,"capital":false},{"name":"Dieppe","country":"CA","lat":46.0784,"lng":-64.6873,"pop":27304,"capital":false},{"name":"Downtown Halifax","country":"CA","lat":44.6483,"lng":-63.5776,"pop":25555,"capital":false},{"name":"Halifax West End","country":"CA","lat":44.6486,"lng":-63.6195,"pop":22664,"capital":false},{"name":"Baie-Comeau","country":"CA","lat":49.2168,"lng":-68.1489,"pop":21536,"capital":false},{"name":"Bedford","country":"CA","lat":44.7255,"lng":-63.6673,"pop":21474,"capital":false},{"name":"Riverview","country":"CA","lat":46.0546,"lng":-64.816,"pop":20584,"capital":false},{"name":"Woodlawn","country":"CA","lat":44.6775,"lng":-63.5273,"pop":20000,"capital":false},{"name":"Halifax South End","country":"CA","lat":44.6293,"lng":-63.5765,"pop":19922,"capital":false},{"name":"Cole Harbour","country":"CA","lat":44.6724,"lng":-63.4751,"pop":19096,"capital":false},{"name":"Augusta","country":"US","lat":44.3106,"lng":-69.7795,"pop":18899,"capital":false},{"name":"Quispamsis","country":"CA","lat":45.4213,"lng":-65.9513,"pop":18768,"capital":false},{"name":"New Glasgow","country":"CA","lat":45.5834,"lng":-62.6486,"pop":18665,"capital":false},{"name":"Rivière-du-Loup","country":"CA","lat":47.827,"lng":-69.5424,"pop":18586,"capital":false},{"name":"Miramichi","country":"CA","lat":47.029,"lng":-65.5019,"pop":17537,"capital":false},{"name":"Edmundston","country":"CA","lat":47.3737,"lng":-68.3251,"pop":16580,"capital":false},{"name":"Clayton Park West","country":"CA","lat":44.6576,"lng":-63.6689,"pop":16550,"capital":false},{"name":"Armdale","country":"CA","lat":44.6359,"lng":-63.6264,"pop":16502,"capital":false},{"name":"Lutes Mountain","country":"CA","lat":46.1354,"lng":-64.905,"pop":16311,"capital":false},{"name":"Waterville","country":"US","lat":44.552,"lng":-69.6317,"pop":16261,"capital":false},{"name":"Saint John West","country":"CA","lat":45.2594,"lng":-66.0778,"pop":15255,"capital":false},{"name":"Brunswick","country":"US","lat":43.9145,"lng":-69.9653,"pop":15175,"capital":false},{"name":"Halifax North End","country":"CA","lat":44.6656,"lng":-63.609,"pop":14893,"capital":false},{"name":"Summerside","country":"CA","lat":46.3912,"lng":-63.7887,"pop":14829,"capital":false},{"name":"Gaspé","country":"CA","lat":48.8334,"lng":-64.4819,"pop":14819,"capital":false},{"name":"Matane","country":"CA","lat":48.8286,"lng":-67.522,"pop":14812,"capital":false},{"name":"Saint John East","country":"CA","lat":45.2878,"lng":-66.0407,"pop":14579,"capital":false},{"name":"Tantramar","country":"CA","lat":45.9337,"lng":-64.3998,"pop":14545,"capital":false},{"name":"Belle-Baie","country":"CA","lat":47.7653,"lng":-65.745,"pop":14335,"capital":false},{"name":"Parkton","country":"CA","lat":46.0855,"lng":-64.7954,"pop":13745,"capital":false},{"name":"Truro","country":"CA","lat":45.3669,"lng":-63.2654,"pop":12954,"capital":false},{"name":"Kentville","country":"CA","lat":45.0771,"lng":-64.496,"pop":12636,"capital":false},{"name":"Sydney Mines","country":"CA","lat":46.2367,"lng":-60.2177,"pop":12353,"capital":false},{"name":"Cap-aux-Meules","country":"CA","lat":47.3821,"lng":-61.8597,"pop":12190,"capital":false},{"name":"Rothesay","country":"CA","lat":45.3805,"lng":-65.9674,"pop":11977,"capital":false},{"name":"Bathurst","country":"CA","lat":47.6181,"lng":-65.6511,"pop":11897,"capital":false},{"name":"Eastern Passage","country":"CA","lat":44.6169,"lng":-63.482,"pop":11738,"capital":false},{"name":"Hauterive","country":"CA","lat":49.1957,"lng":-68.2581,"pop":11549,"capital":false},{"name":"Fall River","country":"CA","lat":44.8169,"lng":-63.6154,"pop":11526,"capital":false},{"name":"Stratford","country":"CA","lat":46.2179,"lng":-63.0795,"pop":10927,"capital":false},{"name":"Spryfield","country":"CA","lat":44.6116,"lng":-63.6177,"pop":10118,"capital":false},{"name":"Rockingham","country":"CA","lat":44.6734,"lng":-63.6449,"pop":10079,"capital":false},{"name":"Nashwaaksis","country":"CA","lat":45.9801,"lng":-66.6579,"pop":9831,"capital":false},{"name":"Maple Hills","country":"CA","lat":46.2133,"lng":-64.8694,"pop":9547,"capital":false},{"name":"Gunningsville","country":"CA","lat":46.0739,"lng":-64.773,"pop":9479,"capital":false},{"name":"Orono","country":"US","lat":44.8831,"lng":-68.672,"pop":9474,"capital":false},{"name":"Amherst","country":"CA","lat":45.8335,"lng":-64.1987,"pop":9404,"capital":false},{"name":"North Bath","country":"US","lat":43.9348,"lng":-69.8159,"pop":9363,"capital":false},{"name":"Brewer","country":"US","lat":44.7967,"lng":-68.7614,"pop":9232,"capital":false},{"name":"Millview","country":"CA","lat":44.7093,"lng":-63.6703,"pop":9189,"capital":false},{"name":"Presque Isle","country":"US","lat":46.6812,"lng":-68.0159,"pop":9171,"capital":false},{"name":"Carleton North","country":"CA","lat":46.499,"lng":-67.5575,"pop":9170,"capital":false},{"name":"Cap-Acadie","country":"CA","lat":46.2014,"lng":-64.3242,"pop":9165,"capital":false},{"name":"Lewisville","country":"CA","lat":46.1044,"lng":-64.7532,"pop":9060,"capital":false},{"name":"Glen Cairn","country":"CA","lat":46.1167,"lng":-64.85,"pop":8960,"capital":false},{"name":"Forest Hills","country":"CA","lat":44.6801,"lng":-63.4882,"pop":8822,"capital":false},{"name":"Oromocto","country":"CA","lat":45.8351,"lng":-66.4792,"pop":8805,"capital":false},{"name":"Bridgewater","country":"CA","lat":44.3786,"lng":-64.5188,"pop":8790,"capital":false},{"name":"Beausoleil","country":"CA","lat":46.2984,"lng":-64.6033,"pop":8620,"capital":false},{"name":"Fairview","country":"CA","lat":44.6528,"lng":-63.6411,"pop":8618,"capital":false},{"name":"Albro Lake","country":"CA","lat":44.6841,"lng":-63.5813,"pop":8503,"capital":false},{"name":"Woodside","country":"CA","lat":44.6501,"lng":-63.5487,"pop":8348,"capital":false},{"name":"Bath","country":"US","lat":43.9106,"lng":-69.8206,"pop":8305,"capital":false},{"name":"Uptown Saint John","country":"CA","lat":45.2728,"lng":-66.0594,"pop":8221,"capital":false},{"name":"Humphrey","country":"CA","lat":46.1199,"lng":-64.778,"pop":8195,"capital":false},{"name":"Central Moncton","country":"CA","lat":46.097,"lng":-64.7962,"pop":8023,"capital":false},{"name":"Chandler","country":"CA","lat":48.3494,"lng":-64.6793,"pop":7914,"capital":false},{"name":"Three Rivers","country":"CA","lat":46.1845,"lng":-62.5679,"pop":7883,"capital":false},{"name":"Membertou","country":"CA","lat":46.1152,"lng":-60.1893,"pop":7859,"capital":false},{"name":"Ellsworth","country":"US","lat":44.5434,"lng":-68.4195,"pop":7857,"capital":false},{"name":"Downtown Moncton","country":"CA","lat":46.0923,"lng":-64.7853,"pop":7837,"capital":false},{"name":"Caribou","country":"US","lat":46.8606,"lng":-68.012,"pop":7816,"capital":false},{"name":"Winslow","country":"US","lat":44.547,"lng":-69.6212,"pop":7794,"capital":false},{"name":"Manor Park","country":"CA","lat":44.6716,"lng":-63.549,"pop":7716,"capital":false},{"name":"Centennial Place","country":"CA","lat":46.0833,"lng":-64.8167,"pop":7698,"capital":false},{"name":"Old Town","country":"US","lat":44.9342,"lng":-68.6453,"pop":7624,"capital":false},{"name":"Shediac","country":"CA","lat":46.2198,"lng":-64.5411,"pop":7535,"capital":false},{"name":"Burnside","country":"CA","lat":44.7017,"lng":-63.6005,"pop":7506,"capital":false},{"name":"Sunbury-York South","country":"CA","lat":45.8378,"lng":-66.6098,"pop":7455,"capital":false},{"name":"Sherwood","country":"CA","lat":46.2682,"lng":-63.1284,"pop":7404,"capital":false},{"name":"Eastern Charlotte","country":"CA","lat":45.103,"lng":-66.7948,"pop":7325,"capital":false},{"name":"Rockland","country":"US","lat":44.1037,"lng":-69.1089,"pop":7237,"capital":false},{"name":"Quinpool District","country":"CA","lat":44.6434,"lng":-63.5985,"pop":7228,"capital":false},{"name":"Port Wallace","country":"CA","lat":44.6988,"lng":-63.5477,"pop":6963,"capital":false},{"name":"Central York","country":"CA","lat":46.0051,"lng":-66.908,"pop":6930,"capital":false},{"name":"Campbellton","country":"CA","lat":48.0075,"lng":-66.6727,"pop":6883,"capital":false},{"name":"Yarmouth","country":"CA","lat":43.8335,"lng":-66.1156,"pop":6829,"capital":false},{"name":"Saint-Anselme","country":"CA","lat":46.064,"lng":-64.7126,"pop":6740,"capital":false},{"name":"New Waterford","country":"CA","lat":46.2501,"lng":-60.0817,"pop":6723,"capital":false},{"name":"Beaubassin East","country":"CA","lat":46.2092,"lng":-64.418,"pop":6718,"capital":false},{"name":"Downtown Dieppe","country":"CA","lat":46.0952,"lng":-64.7437,"pop":6690,"capital":false},{"name":"Belfast","country":"US","lat":44.4259,"lng":-69.0064,"pop":6682,"capital":false},{"name":"Harbourview","country":"CA","lat":44.6772,"lng":-63.5854,"pop":6656,"capital":false},{"name":"Enfield","country":"CA","lat":44.9434,"lng":-63.5361,"pop":6583,"capital":false},{"name":"Cornwall","country":"CA","lat":46.2265,"lng":-63.2181,"pop":6574,"capital":false},{"name":"Mont-Joli","country":"CA","lat":48.5839,"lng":-68.1921,"pop":6568,"capital":false},{"name":"Millidgeville","country":"CA","lat":45.3017,"lng":-66.1032,"pop":6527,"capital":false},{"name":"Westmount","country":"CA","lat":44.6473,"lng":-63.6108,"pop":6388,"capital":false},{"name":"Downtown Dartmouth","country":"CA","lat":44.6668,"lng":-63.5659,"pop":6300,"capital":false},{"name":"Skowhegan","country":"US","lat":44.7651,"lng":-69.7192,"pop":6297,"capital":false},{"name":"Williams Lake","country":"CA","lat":44.6178,"lng":-63.609,"pop":6268,"capital":false},{"name":"Amqui","country":"CA","lat":48.4638,"lng":-67.4313,"pop":6261,"capital":false},{"name":"Hammonds Plains","country":"CA","lat":44.7339,"lng":-63.7755,"pop":6242,"capital":false},{"name":"Beaurivage","country":"CA","lat":46.6821,"lng":-64.9602,"pop":6160,"capital":false},{"name":"Hautes-Terres","country":"CA","lat":47.6288,"lng":-65.0928,"pop":6140,"capital":false},{"name":"Town Plat","country":"CA","lat":45.9612,"lng":-66.6499,"pop":6104,"capital":false},{"name":"Fundy Albert","country":"CA","lat":45.8027,"lng":-64.6598,"pop":6100,"capital":false},{"name":"Beaver Bank","country":"CA","lat":44.8248,"lng":-63.6808,"pop":6000,"capital":false},{"name":"Douglas","country":"CA","lat":45.9783,"lng":-66.7311,"pop":5935,"capital":false},{"name":"Topsham","country":"US","lat":43.9276,"lng":-69.9759,"pop":5931,"capital":false},{"name":"Grand Lake","country":"CA","lat":46.1126,"lng":-65.9568,"pop":5725,"capital":false},{"name":"North Sydney","country":"CA","lat":46.2078,"lng":-60.2549,"pop":5699,"capital":false},{"name":"Timberlea","country":"CA","lat":44.6624,"lng":-63.7462,"pop":5627,"capital":false},{"name":"Île-de-Lamèque","country":"CA","lat":47.8466,"lng":-64.5961,"pop":5627,"capital":false},{"name":"Sainte-Anne-des-Monts","country":"CA","lat":49.124,"lng":-66.4924,"pop":5602,"capital":false},{"name":"Chartersville","country":"CA","lat":46.0849,"lng":-64.7334,"pop":5600,"capital":false},{"name":"Gardiner","country":"US","lat":44.2301,"lng":-69.7753,"pop":5597,"capital":false},{"name":"Convoy Place","country":"CA","lat":44.6679,"lng":-63.6143,"pop":5581,"capital":false},{"name":"Princeville","country":"CA","lat":45.7668,"lng":-61.2985,"pop":5571,"capital":false},{"name":"Woodstock","country":"CA","lat":46.158,"lng":-67.5838,"pop":5553,"capital":false},{"name":"Eastham","country":"US","lat":41.8301,"lng":-69.9739,"pop":5548,"capital":false},{"name":"Willowdale","country":"CA","lat":44.6508,"lng":-63.4778,"pop":5543,"capital":false},{"name":"Heron Bay","country":"CA","lat":48.0219,"lng":-66.396,"pop":5536,"capital":false},{"name":"Downtown Charlottetown","country":"CA","lat":46.2325,"lng":-63.1273,"pop":5517,"capital":false},{"name":"Butternut Valley","country":"CA","lat":45.8333,"lng":-65.5347,"pop":5435,"capital":false},{"name":"North End","country":"CA","lat":45.2702,"lng":-66.0814,"pop":5389,"capital":false},{"name":"Greenwood","country":"CA","lat":44.9741,"lng":-64.9317,"pop":5369,"capital":false},{"name":"Hildegarde","country":"CA","lat":46.123,"lng":-64.8539,"pop":5327,"capital":false},{"name":"Sussex","country":"CA","lat":45.7227,"lng":-65.5066,"pop":5298,"capital":false},{"name":"Harpswell Center","country":"US","lat":43.8018,"lng":-69.9842,"pop":5281,"capital":false},{"name":"Fundy-St. Martins","country":"CA","lat":45.4078,"lng":-65.4391,"pop":5225,"capital":false},{"name":"Grand Falls","country":"CA","lat":47.0461,"lng":-67.7418,"pop":5220,"capital":false},{"name":"Clayton Park","country":"CA","lat":44.6603,"lng":-63.6473,"pop":5201,"capital":false},{"name":"Downtown Fredericton","country":"CA","lat":45.962,"lng":-66.6405,"pop":5193,"capital":false},{"name":"Grand Bay-Westfield","country":"CA","lat":45.3619,"lng":-66.2417,"pop":5162,"capital":false},{"name":"Champdoré","country":"CA","lat":46.386,"lng":-64.7824,"pop":5115,"capital":false},{"name":"Hanwell","country":"CA","lat":45.8831,"lng":-66.769,"pop":5108,"capital":false},{"name":"Imperoyal","country":"CA","lat":44.6362,"lng":-63.5273,"pop":5102,"capital":false},{"name":"Bible Hill","country":"CA","lat":45.375,"lng":-63.238,"pop":5076,"capital":false},{"name":"Fairvale","country":"CA","lat":45.4008,"lng":-65.9717,"pop":5075,"capital":false},{"name":"Memramcook","country":"CA","lat":46.0044,"lng":-64.5516,"pop":5029,"capital":false},{"name":"Lakeburn","country":"CA","lat":46.1001,"lng":-64.682,"pop":5014,"capital":false},{"name":"Antigonish","country":"CA","lat":45.6169,"lng":-61.9986,"pop":5003,"capital":false},{"name":"Houlton","country":"US","lat":46.1262,"lng":-67.8403,"pop":5002,"capital":false}]