[{"name":"Caldas Novas","country":"BR","lat":-17.7443,"lng":-48.6279,"pop":98622,"capital":false},{"name":"São Sebastião","country":"BR","lat":-15.9029,"lng":-47.7761,"pop":98612,"capital":false},{"name":"Pará de Minas","country":"BR","lat":-19.8603,"lng":-44.6083,"pop":97139,"capital":false},{"name":"Vicente Pires","country":"BR","lat":-15.8101,"lng":-48.0308,"pop":96871,"capital":false},{"name":"Aracruz","country":"BR","lat":-19.8203,"lng":-40.2733,"pop":94765,"capital":false},{"name":"Paracatu","country":"BR","lat":-17.2222,"lng":-46.8747,"pop":94023,"capital":false},{"name":"Cidade Ocidental","country":"BR","lat":-16.1097,"lng":-47.9326,"pop":91767,"capital":false},{"name":"Patrocínio","country":"BR","lat":-18.9439,"lng":-46.9925,"pop":91449,"capital":false},{"name":"Caratinga","country":"BR","lat":-19.7897,"lng":-42.1392,"pop":90687,"capital":false},{"name":"Gurupi","country":"BR","lat":-11.7292,"lng":-49.0686,"pop":87545,"capital":false},{"name":"Esmeraldas","country":"BR","lat":-19.7625,"lng":-44.3139,"pop":85598,"capital":false},{"name":"Unaí","country":"BR","lat":-16.3575,"lng":-46.9061,"pop":84930,"capital":false},{"name":"Guanambi","country":"BR","lat":-14.2233,"lng":-42.7814,"pop":84928,"capital":false},{"name":"João Monlevade","country":"BR","lat":-19.81,"lng":-43.1736,"pop":83360,"capital":false},{"name":"Sobradinho II","country":"BR","lat":-15.6336,"lng":-47.8348,"pop":82785,"capital":false},{"name":"Jacobina","country":"BR","lat":-11.1814,"lng":-40.5137,"pop":82590,"capital":false},{"name":"Timóteo","country":"BR","lat":-19.5811,"lng":-42.6495,"pop":81579,"capital":false},{"name":"Lagoa Santa","country":"BR","lat":-19.6301,"lng":-43.9009,"pop":81299,"capital":false},{"name":"Curvelo","country":"BR","lat":-18.7564,"lng":-44.4308,"pop":80665,"capital":false},{"name":"Senhor do Bonfim","country":"BR","lat":-10.4614,"lng":-40.1894,"pop":79424,"capital":false},{"name":"Jardim Botânico","country":"BR","lat":-15.8653,"lng":-47.8148,"pop":77767,"capital":false},{"name":"Itapetinga","country":"BR","lat":-15.2489,"lng":-40.2478,"pop":76795,"capital":false},{"name":"Santo Antônio do Descoberto","country":"BR","lat":-15.9397,"lng":-48.255,"pop":75829,"capital":false},{"name":"Irecê","country":"BR","lat":-11.3042,"lng":-41.8558,"pop":74507,"capital":false},{"name":"Goianésia","country":"BR","lat":-15.3175,"lng":-49.1175,"pop":73707,"capital":false},{"name":"Sobradinho","country":"BR","lat":-15.6471,"lng":-47.7931,"pop":72273,"capital":false},{"name":"Campo Formoso","country":"BR","lat":-10.5075,"lng":-40.3214,"pop":71487,"capital":false},{"name":"Janaúba","country":"BR","lat":-15.8025,"lng":-43.3089,"pop":70699,"capital":false},{"name":"Brumado","country":"BR","lat":-14.2036,"lng":-41.6653,"pop":70268,"capital":false},{"name":"Bom Jesus da Lapa","country":"BR","lat":-13.255,"lng":-43.4181,"pop":65550,"capital":false},{"name":"Itapoã","country":"BR","lat":-15.7494,"lng":-47.7686,"pop":65408,"capital":false},{"name":"Januária","country":"BR","lat":-15.4795,"lng":-44.3652,"pop":65150,"capital":false},{"name":"Itaberaba","country":"BR","lat":-12.5275,"lng":-40.3069,"pop":64646,"capital":false},{"name":"Paranoá","country":"BR","lat":-15.7755,"lng":-47.7812,"pop":63923,"capital":false},{"name":"Pedro Leopoldo","country":"BR","lat":-19.6181,"lng":-44.0431,"pop":62580,"capital":false},{"name":"Cristalina","country":"BR","lat":-16.7677,"lng":-47.6153,"pop":60210,"capital":false},{"name":"Pirapora","country":"BR","lat":-17.345,"lng":-44.9419,"pop":56640,"capital":false},{"name":"São Francisco","country":"BR","lat":-15.9486,"lng":-44.8644,"pop":56477,"capital":false},{"name":"Brazlândia","country":"BR","lat":-15.6794,"lng":-48.1967,"pop":55561,"capital":false},{"name":"Bom Despacho","country":"BR","lat":-19.7364,"lng":-45.2522,"pop":54377,"capital":false},{"name":"Barra","country":"BR","lat":-11.0894,"lng":-43.1417,"pop":53910,"capital":false},{"name":"Porto Nacional","country":"BR","lat":-10.7081,"lng":-48.4172,"pop":53316,"capital":false},{"name":"Paraíso do Tocantins","country":"BR","lat":-10.1761,"lng":-48.8667,"pop":52360,"capital":false},{"name":"Inhumas","country":"BR","lat":-16.3578,"lng":-49.4961,"pop":52204,"capital":false},{"name":"Caetité","country":"BR","lat":-14.0694,"lng":-42.475,"pop":52012,"capital":false},{"name":"Morrinhos","country":"BR","lat":-17.7311,"lng":-49.0994,"pop":51351,"capital":false},{"name":"Macaúbas","country":"BR","lat":-13.0194,"lng":-42.6986,"pop":50161,"capital":false},{"name":"Nova Venécia","country":"BR","lat":-18.7106,"lng":-40.4006,"pop":49065,"capital":false},{"name":"Bocaiúva","country":"BR","lat":-17.1078,"lng":-43.815,"pop":48032,"capital":false},{"name":"Diamantina","country":"BR","lat":-18.2469,"lng":-43.6034,"pop":47702,"capital":false},{"name":"Monte Carmelo","country":"BR","lat":-18.7247,"lng":-47.4986,"pop":47692,"capital":false},{"name":"Poções","country":"BR","lat":-14.5297,"lng":-40.3653,"pop":46879,"capital":false},{"name":"João Pinheiro","country":"BR","lat":-17.7425,"lng":-46.1725,"pop":46801,"capital":false},{"name":"Goianira","country":"BR","lat":-16.4961,"lng":-49.4264,"pop":45296,"capital":false},{"name":"Jaraguá","country":"BR","lat":-15.7569,"lng":-49.3344,"pop":45223,"capital":false},{"name":"Santana do Paraíso","country":"BR","lat":-19.3636,"lng":-42.5686,"pop":44800,"capital":false},{"name":"Xique-Xique","country":"BR","lat":-10.8229,"lng":-42.7281,"pop":44757,"capital":false},{"name":"Itaberaí","country":"BR","lat":-16.0203,"lng":-49.8103,"pop":44734,"capital":false},{"name":"Sudoeste/Octagonal","country":"BR","lat":-15.8015,"lng":-47.9271,"pop":44354,"capital":false},{"name":"Porangatu","country":"BR","lat":-13.4408,"lng":-49.1486,"pop":44317,"capital":false},{"name":"Seabra","country":"BR","lat":-12.4171,"lng":-41.7705,"pop":44234,"capital":false},{"name":"Livramento de Nossa Senhora","country":"BR","lat":-13.6414,"lng":-41.8432,"pop":43903,"capital":false},{"name":"Uruaçu","country":"BR","lat":-14.5247,"lng":-49.1408,"pop":42546,"capital":false},{"name":"Barra de São Francisco","country":"BR","lat":-18.755,"lng":-40.8908,"pop":42498,"capital":false},{"name":"Lago Norte","country":"BR","lat":-15.7395,"lng":-47.8569,"pop":41778,"capital":false},{"name":"São Gotardo","country":"BR","lat":-19.3111,"lng":-46.0489,"pop":40910,"capital":false},{"name":"Almenara","country":"BR","lat":-16.1836,"lng":-40.6944,"pop":40364,"capital":false},{"name":"Salinas","country":"BR","lat":-16.1703,"lng":-42.2903,"pop":40178,"capital":false},{"name":"Capelinha","country":"BR","lat":-17.6914,"lng":-42.5158,"pop":39626,"capital":false},{"name":"Riacho Fundo","country":"BR","lat":-15.8838,"lng":-48.0163,"pop":39552,"capital":false},{"name":"Caeté","country":"BR","lat":-19.88,"lng":-43.6697,"pop":38776,"capital":false},{"name":"Santa Maria da Vitória","country":"BR","lat":-13.3881,"lng":-44.1987,"pop":38604,"capital":false},{"name":"Mateus Leme","country":"BR","lat":-19.9864,"lng":-44.4278,"pop":37841,"capital":false},{"name":"Jaíba","country":"BR","lat":-15.3383,"lng":-43.6744,"pop":37660,"capital":false},{"name":"Matozinhos","country":"BR","lat":-19.5578,"lng":-44.0814,"pop":37618,"capital":false},{"name":"Porteirinha","country":"BR","lat":-15.7433,"lng":-43.0283,"pop":37438,"capital":false},{"name":"Araçuaí","country":"BR","lat":-16.8497,"lng":-42.0703,"pop":36712,"capital":false},{"name":"Setor Complementar de Indústria e Abastecimento","country":"BR","lat":-15.7822,"lng":-47.9882,"pop":36042,"capital":false},{"name":"Goiatuba","country":"BR","lat":-18.0125,"lng":-49.3547,"pop":35664,"capital":false},{"name":"Riacho de Santana","country":"BR","lat":-13.6092,"lng":-42.9389,"pop":35593,"capital":false},{"name":"Pilão Arcado","country":"BR","lat":-10.0005,"lng":-42.4797,"pop":35357,"capital":false},{"name":"Nanuque","country":"BR","lat":-17.8392,"lng":-40.3539,"pop":35038,"capital":false},{"name":"Padre Bernardo","country":"BR","lat":-15.1654,"lng":-48.2842,"pop":34967,"capital":false},{"name":"Niquelândia","country":"BR","lat":-14.4739,"lng":-48.4597,"pop":34964,"capital":false},{"name":"Posse","country":"BR","lat":-14.0931,"lng":-46.3694,"pop":34914,"capital":false},{"name":"Bela Vista de Goiás","country":"BR","lat":-16.9728,"lng":-48.9533,"pop":34445,"capital":false},{"name":"São Desidério","country":"BR","lat":-12.3633,"lng":-44.9733,"pop":34266,"capital":false},{"name":"Serra do Ramalho","country":"BR","lat":-13.5423,"lng":-43.5797,"pop":34222,"capital":false},{"name":"Várzea da Palma","country":"BR","lat":-17.5976,"lng":-44.7337,"pop":33744,"capital":false},{"name":"Morro do Chapéu","country":"BR","lat":-11.5485,"lng":-41.158,"pop":33594,"capital":false},{"name":"Capim Grosso","country":"BR","lat":-11.3811,"lng":-40.0128,"pop":33235,"capital":false},{"name":"Taiobeiras","country":"BR","lat":-15.8078,"lng":-42.2331,"pop":33050,"capital":false},{"name":"Itamarandiba","country":"BR","lat":-17.8572,"lng":-42.8589,"pop":32948,"capital":false},{"name":"Jaguarari","country":"BR","lat":-10.2639,"lng":-40.1958,"pop":32703,"capital":false},{"name":"Correntina","country":"BR","lat":-13.3433,"lng":-44.6367,"pop":32457,"capital":false},{"name":"Pires do Rio","country":"BR","lat":-17.2997,"lng":-48.2794,"pop":32373,"capital":false},{"name":"São Gabriel da Palha","country":"BR","lat":-19.0181,"lng":-40.5373,"pop":32252,"capital":false},{"name":"Guanhães","country":"BR","lat":-18.775,"lng":-42.9325,"pop":32244,"capital":false},{"name":"Brasília de Minas","country":"BR","lat":-16.2064,"lng":-44.4333,"pop":32025,"capital":false},{"name":"Nerópolis","country":"BR","lat":-16.4064,"lng":-49.2186,"pop":31932,"capital":false},{"name":"Palmeiras de Goiás","country":"BR","lat":-16.805,"lng":-49.9258,"pop":31858,"capital":false},{"name":"Barra do Choça","country":"BR","lat":-14.8811,"lng":-40.5794,"pop":31209,"capital":false},{"name":"Pompéu","country":"BR","lat":-19.2244,"lng":-44.9353,"pop":31047,"capital":false},{"name":"Ruy Barbosa","country":"BR","lat":-12.2839,"lng":-40.4939,"pop":30857,"capital":false},{"name":"Barão de Cocais","country":"BR","lat":-19.9458,"lng":-43.4872,"pop":30778,"capital":false},{"name":"Juatuba","country":"BR","lat":-19.9519,"lng":-44.3428,"pop":30716,"capital":false},{"name":"Baixo Guandu","country":"BR","lat":-19.5189,"lng":-41.0158,"pop":30674,"capital":false},{"name":"Vera Cruz","country":"BR","lat":-12.6333,"lng":-41.0333,"pop":30556,"capital":false},{"name":"Santa Bárbara","country":"BR","lat":-19.9594,"lng":-43.4153,"pop":30466,"capital":false},{"name":"Espinosa","country":"BR","lat":-14.9261,"lng":-42.8192,"pop":30443,"capital":false},{"name":"Paratinga","country":"BR","lat":-12.6906,"lng":-43.1842,"pop":29252,"capital":false},{"name":"Carmo do Paranaíba","country":"BR","lat":-19.0008,"lng":-46.3161,"pop":29011,"capital":false},{"name":"Jaguaré","country":"BR","lat":-18.9056,"lng":-40.0761,"pop":28931,"capital":false},{"name":"Três Marias","country":"BR","lat":-18.2064,"lng":-45.2417,"pop":28895,"capital":false},{"name":"Coromandel","country":"BR","lat":-18.4733,"lng":-47.2003,"pop":28894,"capital":false},{"name":"Carinhanha","country":"BR","lat":-14.3047,"lng":-43.765,"pop":28869,"capital":false},{"name":"Conceição das Alagoas","country":"BR","lat":-19.9147,"lng":-48.3883,"pop":28381,"capital":false},{"name":"Prata","country":"BR","lat":-19.3072,"lng":-48.9242,"pop":28342,"capital":false},{"name":"Rio Pardo de Minas","country":"BR","lat":-15.6097,"lng":-42.5397,"pop":28271,"capital":false},{"name":"Hidrolândia","country":"BR","lat":-16.9622,"lng":-49.2281,"pop":27742,"capital":false},{"name":"Mantena","country":"BR","lat":-18.7817,"lng":-40.9803,"pop":27647,"capital":false},{"name":"Mutum","country":"BR","lat":-19.8,"lng":-41.4383,"pop":27635,"capital":false},{"name":"Santa Rita de Cássia","country":"BR","lat":-11.0086,"lng":-44.5194,"pop":27390,"capital":false},{"name":"Corrente","country":"BR","lat":-10.4433,"lng":-45.1622,"pop":27278,"capital":false},{"name":"Lapão","country":"BR","lat":-11.3833,"lng":-41.8319,"pop":27274,"capital":false},{"name":"Minaçu","country":"BR","lat":-13.5331,"lng":-48.22,"pop":27075,"capital":false},{"name":"Alexânia","country":"BR","lat":-16.0822,"lng":-48.5072,"pop":27008,"capital":false},{"name":"Novo Cruzeiro","country":"BR","lat":-17.4681,"lng":-41.8753,"pop":26975,"capital":false},{"name":"Mundo Novo","country":"BR","lat":-11.8589,"lng":-40.4725,"pop":26970,"capital":false},{"name":"Pirenópolis","country":"BR","lat":-15.8507,"lng":-48.9609,"pop":26690,"capital":false},{"name":"Pitangui","country":"BR","lat":-19.6828,"lng":-44.8903,"pop":26685,"capital":false},{"name":"Sacramento","country":"BR","lat":-19.8653,"lng":-47.44,"pop":26670,"capital":false},{"name":"Sooretama","country":"BR","lat":-19.1969,"lng":-40.0978,"pop":26502,"capital":false},{"name":"Ibotirama","country":"BR","lat":-12.1853,"lng":-43.2206,"pop":26309,"capital":false},{"name":"Lago Sul","country":"BR","lat":-15.8458,"lng":-47.8837,"pop":26244,"capital":false},{"name":"Itapuranga","country":"BR","lat":-15.5622,"lng":-49.9486,"pop":26113,"capital":false},{"name":"São José da Lapa","country":"BR","lat":-19.7003,"lng":-43.9602,"pop":26090,"capital":false},{"name":"Formosa do Rio Preto","country":"BR","lat":-11.0483,"lng":-45.1931,"pop":25899,"capital":false},{"name":"Miguel Calmon","country":"BR","lat":-11.4289,"lng":-40.595,"pop":25894,"capital":false},{"name":"Cruzeiro","country":"BR","lat":-15.7907,"lng":-47.9371,"pop":25741,"capital":false},{"name":"Ipameri","country":"BR","lat":-17.7219,"lng":-48.1597,"pop":25548,"capital":false},{"name":"Tupaciguara","country":"BR","lat":-18.5922,"lng":-48.705,"pop":25470,"capital":false},{"name":"Anagé","country":"BR","lat":-14.6122,"lng":-41.1356,"pop":25438,"capital":false},{"name":"Coração de Jesus","country":"BR","lat":-16.6853,"lng":-44.365,"pop":25377,"capital":false},{"name":"Aimorés","country":"BR","lat":-19.4958,"lng":-41.0639,"pop":25269,"capital":false},{"name":"Cândido Sales","country":"BR","lat":-15.505,"lng":-41.2392,"pop":25247,"capital":false},{"name":"Cocalzinho de Goiás","country":"BR","lat":-15.7944,"lng":-48.7758,"pop":25016,"capital":false},{"name":"Piracanjuba","country":"BR","lat":-17.3028,"lng":-49.0167,"pop":24883,"capital":false},{"name":"João Dourado","country":"BR","lat":-11.3448,"lng":-41.6632,"pop":24854,"capital":false},{"name":"Santana","country":"BR","lat":-12.9833,"lng":-44.0511,"pop":24755,"capital":false},{"name":"Iaçu","country":"BR","lat":-12.7672,"lng":-40.2117,"pop":24607,"capital":false},{"name":"Pedra Azul","country":"BR","lat":-16.0053,"lng":-41.2972,"pop":24410,"capital":false},{"name":"Minas Novas","country":"BR","lat":-17.2186,"lng":-42.5903,"pop":24405,"capital":false},{"name":"Itambé","country":"BR","lat":-15.245,"lng":-40.6244,"pop":24394,"capital":false},{"name":"Canarana","country":"BR","lat":-11.6847,"lng":-41.7689,"pop":24206,"capital":false},{"name":"Paraopeba","country":"BR","lat":-19.2744,"lng":-44.4042,"pop":24107,"capital":false},{"name":"Buritis","country":"BR","lat":-15.6178,"lng":-46.4233,"pop":24030,"capital":false},{"name":"Jequitinhonha","country":"BR","lat":-16.4339,"lng":-41.0033,"pop":24007,"capital":false},{"name":"Bom Jesus de Goiás","country":"BR","lat":-18.2205,"lng":-49.7299,"pop":23958,"capital":false},{"name":"São João da Ponte","country":"BR","lat":-15.9292,"lng":-44.0078,"pop":23930,"capital":false},{"name":"Belo Oriente","country":"BR","lat":-19.22,"lng":-42.4836,"pop":23928,"capital":false},{"name":"Pinheiros","country":"BR","lat":-18.3703,"lng":-40.2133,"pop":23915,"capital":false},{"name":"São João do Paraíso","country":"BR","lat":-15.3136,"lng":-42.0144,"pop":23910,"capital":false},{"name":"Buritizeiro","country":"BR","lat":-17.3511,"lng":-44.9622,"pop":23910,"capital":false},{"name":"Iraquara","country":"BR","lat":-12.2486,"lng":-41.6194,"pop":23879,"capital":false},{"name":"Corinto","country":"BR","lat":-18.3808,"lng":-44.4564,"pop":23532,"capital":false},{"name":"Francisco Sá","country":"BR","lat":-16.4758,"lng":-43.4883,"pop":23476,"capital":false},{"name":"Planalto","country":"BR","lat":-14.6697,"lng":-40.4711,"pop":23334,"capital":false},{"name":"Conceição do Mato Dentro","country":"BR","lat":-19.0372,"lng":-43.425,"pop":23163,"capital":false},{"name":"Santa Teresa","country":"BR","lat":-19.9356,"lng":-40.6003,"pop":22808,"capital":false},{"name":"Medeiros Neto","country":"BR","lat":-17.3739,"lng":-40.2206,"pop":22716,"capital":false},{"name":"Inhapim","country":"BR","lat":-19.5492,"lng":-42.12,"pop":22692,"capital":false},{"name":"Abaeté","country":"BR","lat":-19.16,"lng":-45.4458,"pop":22675,"capital":false},{"name":"Caculé","country":"BR","lat":-14.5033,"lng":-42.2222,"pop":22462,"capital":false},{"name":"Park Way","country":"BR","lat":-15.9085,"lng":-47.9405,"pop":22289,"capital":false},{"name":"Silvânia","country":"BR","lat":-16.6666,"lng":-48.6125,"pop":22245,"capital":false},{"name":"Ibiá","country":"BR","lat":-19.4783,"lng":-46.5389,"pop":22229,"capital":false},{"name":"Ceres","country":"BR","lat":-15.3083,"lng":-49.5983,"pop":22046,"capital":false},{"name":"Ecoporanga","country":"BR","lat":-18.3733,"lng":-40.8306,"pop":21992,"capital":false},{"name":"Serro","country":"BR","lat":-18.6047,"lng":-43.3794,"pop":21952,"capital":false},{"name":"Paramirim","country":"BR","lat":-13.4425,"lng":-42.2389,"pop":21695,"capital":false},{"name":"Riachão das Neves","country":"BR","lat":-11.7461,"lng":-44.91,"pop":21642,"capital":false},{"name":"Núcleo Bandeirante","country":"BR","lat":-15.8707,"lng":-47.9689,"pop":21636,"capital":false},{"name":"Macarani","country":"BR","lat":-15.5683,"lng":-40.4231,"pop":21599,"capital":false},{"name":"Pedro Canário","country":"BR","lat":-18.0303,"lng":-40.1506,"pop":21522,"capital":false},{"name":"Boquira","country":"BR","lat":-12.8231,"lng":-42.7306,"pop":21497,"capital":false},{"name":"Iguaí","country":"BR","lat":-14.7564,"lng":-40.0892,"pop":21491,"capital":false},{"name":"Buritirama","country":"BR","lat":-10.7078,"lng":-43.6306,"pop":21276,"capital":false},{"name":"Itapaci","country":"BR","lat":-14.9508,"lng":-49.5494,"pop":21087,"capital":false},{"name":"Itambacuri","country":"BR","lat":-18.0311,"lng":-41.685,"pop":21042,"capital":false},{"name":"Conselheiro Pena","country":"BR","lat":-19.1722,"lng":-41.4722,"pop":20824,"capital":false},{"name":"Ibicoara","country":"BR","lat":-13.4132,"lng":-41.2857,"pop":20785,"capital":false},{"name":"Oliveira dos Brejinhos","country":"BR","lat":-12.3169,"lng":-42.8961,"pop":20715,"capital":false},{"name":"Jaboticatubas","country":"BR","lat":-19.5136,"lng":-43.745,"pop":20406,"capital":false},{"name":"Tanhaçu","country":"BR","lat":-14.0214,"lng":-41.2481,"pop":20393,"capital":false},{"name":"Maracás","country":"BR","lat":-13.4411,"lng":-40.4308,"pop":20393,"capital":false},{"name":"Barra da Estiva","country":"BR","lat":-13.6261,"lng":-41.3269,"pop":20392,"capital":false},{"name":"Monte Azul","country":"BR","lat":-15.155,"lng":-42.8747,"pop":20328,"capital":false},{"name":"Monte Alegre de Minas","country":"BR","lat":-18.8706,"lng":-48.8808,"pop":20170,"capital":false},{"name":"Medina","country":"BR","lat":-16.2225,"lng":-41.4769,"pop":20156,"capital":false},{"name":"Pindobaçu","country":"BR","lat":-10.7417,"lng":-40.3608,"pop":20098,"capital":false},{"name":"Palmas de Monte Alto","country":"BR","lat":-14.2672,"lng":-43.1619,"pop":20078,"capital":false},{"name":"Turmalina","country":"BR","lat":-17.2856,"lng":-42.73,"pop":20000,"capital":false},{"name":"Vazante","country":"BR","lat":-17.9869,"lng":-46.9078,"pop":19975,"capital":false},{"name":"Ponto Novo","country":"BR","lat":-10.8628,"lng":-40.1336,"pop":19938,"capital":false},{"name":"Livramento do Brumado","country":"BR","lat":-13.6514,"lng":-41.8456,"pop":19914,"capital":false},{"name":"Rubiataba","country":"BR","lat":-15.1644,"lng":-49.8033,"pop":19788,"capital":false},{"name":"Caraí","country":"BR","lat":-17.1889,"lng":-41.6947,"pop":19548,"capital":false},{"name":"Guapó","country":"BR","lat":-16.8306,"lng":-49.5319,"pop":19545,"capital":false},{"name":"Ipanema","country":"BR","lat":-19.8008,"lng":-41.7131,"pop":19522,"capital":false},{"name":"Formoso do Araguaia","country":"BR","lat":-11.7967,"lng":-49.5289,"pop":19428,"capital":false},{"name":"Rio Bananal","country":"BR","lat":-19.265,"lng":-40.3333,"pop":19274,"capital":false},{"name":"Utinga","country":"BR","lat":-12.0817,"lng":-41.0944,"pop":19256,"capital":false},{"name":"Ourolândia","country":"BR","lat":-10.9714,"lng":-41.0796,"pop":19243,"capital":false},{"name":"Cocos","country":"BR","lat":-14.1839,"lng":-44.5344,"pop":19151,"capital":false},{"name":"Itaobim","country":"BR","lat":-16.5617,"lng":-41.5033,"pop":19151,"capital":false},{"name":"Abadia de Goiás","country":"BR","lat":-16.7572,"lng":-49.4375,"pop":19128,"capital":false},{"name":"Encruzilhada","country":"BR","lat":-15.5314,"lng":-40.9094,"pop":19107,"capital":false},{"name":"Lagoa Formosa","country":"BR","lat":-18.7786,"lng":-46.4075,"pop":18904,"capital":false},{"name":"Montanha","country":"BR","lat":-18.1269,"lng":-40.3633,"pop":18900,"capital":false},{"name":"Pancas","country":"BR","lat":-19.225,"lng":-40.8514,"pop":18893,"capital":false},{"name":"Manga","country":"BR","lat":-14.7558,"lng":-43.9322,"pop":18886,"capital":false},{"name":"Varzelândia","country":"BR","lat":-15.7014,"lng":-44.0275,"pop":18840,"capital":false},{"name":"Presidente Olegário","country":"BR","lat":-18.4178,"lng":-46.4181,"pop":18765,"capital":false},{"name":"Carlos Chagas","country":"BR","lat":-17.7031,"lng":-40.7664,"pop":18615,"capital":false},{"name":"Mairi","country":"BR","lat":-11.7114,"lng":-40.1489,"pop":18602,"capital":false},{"name":"São Gabriel","country":"BR","lat":-11.2287,"lng":-41.8765,"pop":18600,"capital":false},{"name":"Cafarnaum","country":"BR","lat":-11.6936,"lng":-41.4683,"pop":18513,"capital":false},{"name":"Anicuns","country":"BR","lat":-16.4611,"lng":-49.9617,"pop":18503,"capital":false},{"name":"Mirangaba","country":"BR","lat":-10.9544,"lng":-40.5758,"pop":18474,"capital":false},{"name":"Águas Formosas","country":"BR","lat":-17.0822,"lng":-40.9358,"pop":18448,"capital":false},{"name":"Belo Campo","country":"BR","lat":-15.0383,"lng":-41.2597,"pop":18412,"capital":false},{"name":"Pontalina","country":"BR","lat":-17.525,"lng":-49.4472,"pop":18309,"capital":false},{"name":"Baixa Grande","country":"BR","lat":-11.9597,"lng":-40.1681,"pop":18220,"capital":false},{"name":"Barreiro do Jaíba","country":"BR","lat":-15.6153,"lng":-43.5919,"pop":18167,"capital":false},{"name":"Campos Belos","country":"BR","lat":-13.0367,"lng":-46.7717,"pop":18108,"capital":false},{"name":"Dianópolis","country":"BR","lat":-11.6278,"lng":-46.8206,"pop":18031,"capital":false},{"name":"Fundão","country":"BR","lat":-19.9341,"lng":-40.4047,"pop":18014,"capital":false},{"name":"Campina Verde","country":"BR","lat":-19.5379,"lng":-49.4881,"pop":18011,"capital":false},{"name":"Ituaçu","country":"BR","lat":-13.8133,"lng":-41.2967,"pop":17914,"capital":false},{"name":"Filadélfia","country":"BR","lat":-10.7428,"lng":-40.1319,"pop":17897,"capital":false},{"name":"Luz","country":"BR","lat":-19.8014,"lng":-45.6856,"pop":17875,"capital":false},{"name":"Itanhém","country":"BR","lat":-17.1664,"lng":-40.33,"pop":17813,"capital":false},{"name":"Piritiba","country":"BR","lat":-11.7303,"lng":-40.5553,"pop":17566,"capital":false},{"name":"Malacacheta","country":"BR","lat":-17.8422,"lng":-42.0767,"pop":17516,"capital":false},{"name":"Urucuia","country":"BR","lat":-16.1325,"lng":-45.7422,"pop":17479,"capital":false},{"name":"Peçanha","country":"BR","lat":-18.5486,"lng":-42.5569,"pop":17446,"capital":false},{"name":"Nova Era","country":"BR","lat":-19.75,"lng":-43.0375,"pop":17438,"capital":false},{"name":"São Domingos do Prata","country":"BR","lat":-19.865,"lng":-42.9683,"pop":17392,"capital":false},{"name":"Padre Paraíso","country":"BR","lat":-17.0742,"lng":-41.4844,"pop":17334,"capital":false},{"name":"Arinos","country":"BR","lat":-15.9169,"lng":-46.1056,"pop":17272,"capital":false},{"name":"Resplendor","country":"BR","lat":-19.3256,"lng":-41.2553,"pop":17226,"capital":false},{"name":"Itacarambi","country":"BR","lat":-15.1022,"lng":-44.0919,"pop":17208,"capital":false},{"name":"Tanque Novo","country":"BR","lat":-13.5464,"lng":-42.4914,"pop":17158,"capital":false},{"name":"Perdizes","country":"BR","lat":-19.3528,"lng":-47.2928,"pop":17151,"capital":false},{"name":"Ipaba","country":"BR","lat":-19.4136,"lng":-42.4194,"pop":17136,"capital":false},{"name":"Serra Dourada","country":"BR","lat":-12.7607,"lng":-43.95,"pop":17066,"capital":false},{"name":"Crixás","country":"BR","lat":-14.5489,"lng":-49.9692,"pop":17065,"capital":false},{"name":"Indiara","country":"BR","lat":-17.1381,"lng":-49.9881,"pop":17061,"capital":false},{"name":"Souto Soares","country":"BR","lat":-12.0886,"lng":-41.6378,"pop":17054,"capital":false},{"name":"Condeúba","country":"BR","lat":-14.8953,"lng":-41.9686,"pop":17053,"capital":false},{"name":"Itarantim","country":"BR","lat":-15.6597,"lng":-40.0656,"pop":17052,"capital":false},{"name":"Piatã","country":"BR","lat":-13.1519,"lng":-41.7728,"pop":16984,"capital":false},{"name":"Ibititá","country":"BR","lat":-11.5472,"lng":-41.9775,"pop":16969,"capital":false},{"name":"Boa Vista do Tupim","country":"BR","lat":-12.6623,"lng":-40.6065,"pop":16873,"capital":false},{"name":"Malhada","country":"BR","lat":-14.3361,"lng":-43.7736,"pop":16861,"capital":false},{"name":"Itororó","country":"BR","lat":-15.1169,"lng":-40.0703,"pop":16617,"capital":false},{"name":"Ibipeba","country":"BR","lat":-11.6408,"lng":-42.0111,"pop":16603,"capital":false},{"name":"Orizona","country":"BR","lat":-17.0314,"lng":-48.2958,"pop":16399,"capital":false},{"name":"Jussara","country":"BR","lat":-11.044,"lng":-41.971,"pop":16354,"capital":false},{"name":"Central","country":"BR","lat":-11.1356,"lng":-42.1128,"pop":16348,"capital":false},{"name":"Lagoa da Confusão","country":"BR","lat":-10.7936,"lng":-49.6236,"pop":16312,"capital":false},{"name":"Tremedal","country":"BR","lat":-14.9758,"lng":-41.4108,"pop":16296,"capital":false},{"name":"Pindaí","country":"BR","lat":-14.4925,"lng":-42.6872,"pop":16285,"capital":false},{"name":"Raposos","country":"BR","lat":-19.9672,"lng":-43.8042,"pop":16279,"capital":false},{"name":"Bonito","country":"BR","lat":-11.9694,"lng":-41.2658,"pop":15844,"capital":false},{"name":"Tapiramutá","country":"BR","lat":-11.8472,"lng":-40.7914,"pop":15818,"capital":false},{"name":"Santa Juliana","country":"BR","lat":-19.3086,"lng":-47.5253,"pop":15734,"capital":false},{"name":"Igaporã","country":"BR","lat":-13.7733,"lng":-42.7142,"pop":15527,"capital":false},{"name":"Urandi","country":"BR","lat":-14.7714,"lng":-42.655,"pop":15355,"capital":false},{"name":"São João Evangelista","country":"BR","lat":-18.5478,"lng":-42.7633,"pop":15315,"capital":false},{"name":"São Félix do Coribe","country":"BR","lat":-13.4006,"lng":-44.1947,"pop":15194,"capital":false},{"name":"América Dourada","country":"BR","lat":-11.4553,"lng":-41.4361,"pop":15137,"capital":false},{"name":"Presidente Dutra","country":"BR","lat":-11.2951,"lng":-41.986,"pop":15130,"capital":false},{"name":"Brasilândia de Minas","country":"BR","lat":-17.0104,"lng":-46.0085,"pop":15020,"capital":false},{"name":"Vianópolis","country":"BR","lat":-16.7419,"lng":-48.5164,"pop":14956,"capital":false},{"name":"Tarumirim","country":"BR","lat":-19.2808,"lng":-42.0067,"pop":14709,"capital":false},{"name":"Capinópolis","country":"BR","lat":-18.6819,"lng":-49.5697,"pop":14655,"capital":false},{"name":"Ibitiara","country":"BR","lat":-12.6522,"lng":-42.2178,"pop":14637,"capital":false},{"name":"Rio Piracicaba","country":"BR","lat":-19.9292,"lng":-43.1742,"pop":14631,"capital":false},{"name":"Nova Ponte","country":"BR","lat":-19.1525,"lng":-47.6747,"pop":14598,"capital":false},{"name":"Bom Jesus do Galho","country":"BR","lat":-19.8289,"lng":-42.3161,"pop":14536,"capital":false},{"name":"Rio Paranaíba","country":"BR","lat":-19.1936,"lng":-46.2472,"pop":14532,"capital":false},{"name":"Boninal","country":"BR","lat":-12.7017,"lng":-41.8275,"pop":14446,"capital":false},{"name":"Ladainha","country":"BR","lat":-17.6322,"lng":-41.7375,"pop":14383,"capital":false},{"name":"Sabinópolis","country":"BR","lat":-18.6661,"lng":-43.0839,"pop":14240,"capital":false},{"name":"Barro Alto","country":"BR","lat":-11.7608,"lng":-41.9117,"pop":14172,"capital":false},{"name":"Coribe","country":"BR","lat":-13.8292,"lng":-44.4544,"pop":14149,"capital":false},{"name":"Jacaraci","country":"BR","lat":-14.8497,"lng":-42.4333,"pop":14136,"capital":false},{"name":"Capitão Enéas","country":"BR","lat":-16.3244,"lng":-43.7106,"pop":14108,"capital":false},{"name":"Lagoa Real","country":"BR","lat":-14.0347,"lng":-42.1422,"pop":14105,"capital":false},{"name":"João Neiva","country":"BR","lat":-19.7575,"lng":-40.3856,"pop":14079,"capital":false},{"name":"Montalvânia","country":"BR","lat":-14.4228,"lng":-44.3656,"pop":14060,"capital":false},{"name":"São João d'Aliança","country":"BR","lat":-14.7056,"lng":-47.5247,"pop":14041,"capital":false},{"name":"Candangolândia","country":"BR","lat":-15.852,"lng":-47.9473,"pop":14040,"capital":false},{"name":"Águas Vermelhas","country":"BR","lat":-15.7472,"lng":-41.46,"pop":14037,"capital":false},{"name":"Martinho Campos","country":"BR","lat":-19.3317,"lng":-45.2369,"pop":14003,"capital":false},{"name":"Cristópolis","country":"BR","lat":-12.2356,"lng":-44.4165,"pop":13993,"capital":false},{"name":"Felixlândia","country":"BR","lat":-18.7581,"lng":-44.8989,"pop":13978,"capital":false},{"name":"Goianápolis","country":"BR","lat":-16.5106,"lng":-49.0239,"pop":13967,"capital":false},{"name":"Papagaios","country":"BR","lat":-19.4492,"lng":-44.7478,"pop":13920,"capital":false},{"name":"Grão Mogol","country":"BR","lat":-16.5661,"lng":-42.8933,"pop":13901,"capital":false},{"name":"Joaíma","country":"BR","lat":-16.6542,"lng":-41.0306,"pop":13888,"capital":false},{"name":"Ibipitanga","country":"BR","lat":-12.8822,"lng":-42.4858,"pop":13863,"capital":false},{"name":"Manoel Vitorino","country":"BR","lat":-14.1476,"lng":-40.2414,"pop":13860,"capital":false},{"name":"Barra do Mendes","country":"BR","lat":-11.81,"lng":-42.0586,"pop":13836,"capital":false},{"name":"Itagi","country":"BR","lat":-14.1628,"lng":-40.0061,"pop":13803,"capital":false},{"name":"Várzea da Roça","country":"BR","lat":-11.6067,"lng":-40.1372,"pop":13800,"capital":false},{"name":"Itinga","country":"BR","lat":-16.6131,"lng":-41.7653,"pop":13745,"capital":false},{"name":"Flores de Goiás","country":"BR","lat":-14.4569,"lng":-47.0398,"pop":13744,"capital":false},{"name":"Ataléia","country":"BR","lat":-18.0436,"lng":-41.11,"pop":13736,"capital":false},{"name":"Mansidão","country":"BR","lat":-10.7164,"lng":-44.0344,"pop":13734,"capital":false},{"name":"Angical","country":"BR","lat":-12.0069,"lng":-44.6944,"pop":13732,"capital":false},{"name":"Uruana","country":"BR","lat":-15.5036,"lng":-49.6827,"pop":13729,"capital":false},{"name":"Vila Valério","country":"BR","lat":-18.9978,"lng":-40.3892,"pop":13728,"capital":false},{"name":"Nova Canaã","country":"BR","lat":-14.7942,"lng":-40.1425,"pop":13715,"capital":false},{"name":"Taguatinga","country":"BR","lat":-12.4039,"lng":-46.4361,"pop":13711,"capital":false},{"name":"Itapagipe","country":"BR","lat":-19.9086,"lng":-49.3814,"pop":13690,"capital":false},{"name":"Boa Nova","country":"BR","lat":-14.3625,"lng":-40.2075,"pop":13690,"capital":false},{"name":"Poté","country":"BR","lat":-17.8067,"lng":-41.7864,"pop":13666,"capital":false},{"name":"Mirabela","country":"BR","lat":-16.2628,"lng":-44.1644,"pop":13651,"capital":false},{"name":"Umburanas","country":"BR","lat":-10.7328,"lng":-41.3264,"pop":13642,"capital":false},{"name":"Engenheiro Caldas","country":"BR","lat":-19.2001,"lng":-42.0473,"pop":13622,"capital":false},{"name":"Baianópolis","country":"BR","lat":-12.3075,"lng":-44.5392,"pop":13614,"capital":false},{"name":"Boa Esperança","country":"BR","lat":-18.54,"lng":-40.2958,"pop":13608,"capital":false},{"name":"Itaguaçu","country":"BR","lat":-19.8019,"lng":-40.8556,"pop":13589,"capital":false},{"name":"Itaeté","country":"BR","lat":-12.9864,"lng":-40.9725,"pop":13472,"capital":false},{"name":"Serrolândia","country":"BR","lat":-11.4158,"lng":-40.3017,"pop":13446,"capital":false},{"name":"Uibaí","country":"BR","lat":-11.3369,"lng":-42.1325,"pop":13432,"capital":false},{"name":"Sítio do Mato","country":"BR","lat":-13.0847,"lng":-43.4653,"pop":13408,"capital":false},{"name":"Várzea Nova","country":"BR","lat":-11.2555,"lng":-40.9469,"pop":13377,"capital":false},{"name":"Rio de Contas","country":"BR","lat":-13.5853,"lng":-41.8162,"pop":13184,"capital":false},{"name":"Mulungu do Morro","country":"BR","lat":-11.9661,"lng":-41.6389,"pop":13152,"capital":false},{"name":"Rio do Antônio","country":"BR","lat":-14.4114,"lng":-42.0756,"pop":13146,"capital":false},{"name":"Andaraí","country":"BR","lat":-12.8072,"lng":-41.3314,"pop":13132,"capital":false},{"name":"Caldeirão Grande","country":"BR","lat":-11.02,"lng":-40.3028,"pop":13080,"capital":false},{"name":"Cotegipe","country":"BR","lat":-12.0283,"lng":-44.2578,"pop":13063,"capital":false},{"name":"Aracatu","country":"BR","lat":-14.4275,"lng":-41.4619,"pop":13045,"capital":false},{"name":"Ubaporanga","country":"BR","lat":-19.6353,"lng":-42.1056,"pop":13017,"capital":false},{"name":"Candiba","country":"BR","lat":-14.4108,"lng":-42.8672,"pop":13016,"capital":false},{"name":"Campos Altos","country":"BR","lat":-19.6961,"lng":-46.1714,"pop":12979,"capital":false},{"name":"Wanderley","country":"BR","lat":-12.12,"lng":-43.8875,"pop":12968,"capital":false},{"name":"Santa Maria do Suaçuí","country":"BR","lat":-18.1903,"lng":-42.4142,"pop":12788,"capital":false},{"name":"Mantenópolis","country":"BR","lat":-18.8625,"lng":-41.1228,"pop":12770,"capital":false},{"name":"Rio Vermelho","country":"BR","lat":-18.2936,"lng":-43.0092,"pop":12641,"capital":false},{"name":"Dores do Indaiá","country":"BR","lat":-19.4633,"lng":-45.6017,"pop":12630,"capital":false},{"name":"Santana","country":"BR","lat":-14.4667,"lng":-41.8,"pop":12628,"capital":false},{"name":"Presidente Jânio Quadros","country":"BR","lat":-14.6894,"lng":-41.6783,"pop":12621,"capital":false},{"name":"Água Boa","country":"BR","lat":-17.9961,"lng":-42.3889,"pop":12589,"capital":false},{"name":"Campinorte","country":"BR","lat":-14.3114,"lng":-49.1511,"pop":12510,"capital":false},{"name":"Marilândia","country":"BR","lat":-19.4128,"lng":-40.5417,"pop":12387,"capital":false},{"name":"Chapada Gaúcha","country":"BR","lat":-15.3056,"lng":-45.6183,"pop":12355,"capital":false},{"name":"Itaguaçu da Bahia","country":"BR","lat":-11.013,"lng":-42.3986,"pop":12311,"capital":false},{"name":"Perdigão","country":"BR","lat":-19.9528,"lng":-45.0842,"pop":12268,"capital":false},{"name":"Rialma","country":"BR","lat":-15.315,"lng":-49.5844,"pop":12165,"capital":false},{"name":"Mucugê","country":"BR","lat":-13.0084,"lng":-41.3724,"pop":12137,"capital":false},{"name":"Mortugaba","country":"BR","lat":-15.0233,"lng":-42.3681,"pop":12052,"capital":false},{"name":"Água Doce do Norte","country":"BR","lat":-18.5469,"lng":-40.9786,"pop":12042,"capital":false},{"name":"Mato Verde","country":"BR","lat":-15.3972,"lng":-42.8664,"pop":12038,"capital":false},{"name":"Iapu","country":"BR","lat":-19.4367,"lng":-42.2178,"pop":12030,"capital":false},{"name":"Tabocas do Brejo Velho","country":"BR","lat":-12.7036,"lng":-44.0096,"pop":11979,"capital":false},{"name":"Aragoiânia","country":"BR","lat":-16.9119,"lng":-49.4514,"pop":11890,"capital":false},{"name":"Dom Basílio","country":"BR","lat":-13.7603,"lng":-41.7714,"pop":11884,"capital":false},{"name":"São Gonçalo do Rio Abaixo","country":"BR","lat":-19.8261,"lng":-43.3622,"pop":11850,"capital":false},{"name":"Licínio de Almeida","country":"BR","lat":-14.6822,"lng":-42.5075,"pop":11834,"capital":false},{"name":"Virgem da Lapa","country":"BR","lat":-16.8044,"lng":-42.3431,"pop":11804,"capital":false},{"name":"Serra do Salitre","country":"BR","lat":-19.1114,"lng":-46.6897,"pop":11801,"capital":false},{"name":"São Gonçalo do Pará","country":"BR","lat":-19.9828,"lng":-44.8589,"pop":11770,"capital":false},{"name":"Brotas de Macaúbas","country":"BR","lat":-11.9989,"lng":-42.6258,"pop":11765,"capital":false},{"name":"Edéia","country":"BR","lat":-17.3383,"lng":-49.9314,"pop":11747,"capital":false},{"name":"Ibiraçu","country":"BR","lat":-19.8319,"lng":-40.3697,"pop":11723,"capital":false},{"name":"Ubaí","country":"BR","lat":-16.2853,"lng":-44.7781,"pop":11708,"capital":false},{"name":"Lençóis","country":"BR","lat":-12.5631,"lng":-41.39,"pop":11499,"capital":false},{"name":"Prudente de Morais","country":"BR","lat":-19.4819,"lng":-44.155,"pop":11466,"capital":false},{"name":"Caetanópolis","country":"BR","lat":-19.2953,"lng":-44.4186,"pop":11435,"capital":false},{"name":"Gouveia","country":"BR","lat":-18.4544,"lng":-43.7408,"pop":11331,"capital":false},{"name":"Curimatá","country":"BR","lat":-10.0364,"lng":-44.3061,"pop":11270,"capital":false},{"name":"Caetanos","country":"BR","lat":-14.3375,"lng":-40.9086,"pop":11266,"capital":false},{"name":"Terra Nova","country":"BR","lat":-12.3667,"lng":-40.6667,"pop":11169,"capital":false},{"name":"Novo Horizonte","country":"BR","lat":-12.8083,"lng":-42.1678,"pop":11162,"capital":false},{"name":"Itanhomi","country":"BR","lat":-19.1719,"lng":-41.8653,"pop":11128,"capital":false},{"name":"Iuiu","country":"BR","lat":-14.4139,"lng":-43.5544,"pop":11118,"capital":false},{"name":"Governador Lindenberg","country":"BR","lat":-19.2528,"lng":-40.46,"pop":11099,"capital":false},{"name":"Laranja da Terra","country":"BR","lat":-19.8989,"lng":-41.0567,"pop":11094,"capital":false},{"name":"Jacinto","country":"BR","lat":-16.1444,"lng":-40.2933,"pop":11042,"capital":false},{"name":"Itiruçu","country":"BR","lat":-13.5317,"lng":-40.1503,"pop":10999,"capital":false},{"name":"Gentio do Ouro","country":"BR","lat":-11.4289,"lng":-42.5028,"pop":10884,"capital":false},{"name":"Coroaci","country":"BR","lat":-18.6219,"lng":-42.2858,"pop":10884,"capital":false},{"name":"Ponto dos Volantes","country":"BR","lat":-16.7528,"lng":-41.5042,"pop":10883,"capital":false},{"name":"Avelino Lopes","country":"BR","lat":-10.1367,"lng":-43.9486,"pop":10866,"capital":false},{"name":"Antônio Gonçalves","country":"BR","lat":-10.5715,"lng":-40.2759,"pop":10862,"capital":false},{"name":"Paranã","country":"BR","lat":-12.6153,"lng":-47.8831,"pop":10854,"capital":false},{"name":"Igaratinga","country":"BR","lat":-19.9553,"lng":-44.7092,"pop":10830,"capital":false},{"name":"Iramaia","country":"BR","lat":-13.2856,"lng":-40.9511,"pop":10752,"capital":false},{"name":"Mara Rosa","country":"BR","lat":-14.0164,"lng":-49.1772,"pop":10700,"capital":false},{"name":"Icaraí de Minas","country":"BR","lat":-16.2182,"lng":-44.9027,"pop":10677,"capital":false},{"name":"Capim Branco","country":"BR","lat":-19.5489,"lng":-44.1167,"pop":10663,"capital":false},{"name":"Canápolis","country":"BR","lat":-18.725,"lng":-49.2044,"pop":10608,"capital":false},{"name":"Érico Cardoso","country":"BR","lat":-13.4178,"lng":-42.1403,"pop":10604,"capital":false},{"name":"Itarana","country":"BR","lat":-19.8739,"lng":-40.8753,"pop":10597,"capital":false},{"name":"Ninheira","country":"BR","lat":-15.3211,"lng":-41.7536,"pop":10588,"capital":false},{"name":"Iaciara","country":"BR","lat":-14.0958,"lng":-46.6317,"pop":10584,"capital":false},{"name":"Riolândia","country":"BR","lat":-19.9808,"lng":-49.6819,"pop":10575,"capital":false},{"name":"Corumbá de Goiás","country":"BR","lat":-15.9236,"lng":-48.8086,"pop":10562,"capital":false},{"name":"Arraias","country":"BR","lat":-12.9314,"lng":-46.9383,"pop":10522,"capital":false},{"name":"Rio do Pires","country":"BR","lat":-13.1278,"lng":-42.2919,"pop":10497,"capital":false},{"name":"Buriti Alegre","country":"BR","lat":-18.14,"lng":-49.0403,"pop":10495,"capital":false},{"name":"Delta","country":"BR","lat":-19.9767,"lng":-47.7711,"pop":10494,"capital":false},{"name":"Santa Maria de Itabira","country":"BR","lat":-19.4494,"lng":-43.1125,"pop":10485,"capital":false},{"name":"Saúde","country":"BR","lat":-10.9411,"lng":-40.4189,"pop":10478,"capital":false},{"name":"Itaipé","country":"BR","lat":-17.4019,"lng":-41.6686,"pop":10463,"capital":false},{"name":"Macajuba","country":"BR","lat":-12.1361,"lng":-40.36,"pop":10454,"capital":false},{"name":"Muquém do São Francisco","country":"BR","lat":-12.066,"lng":-43.5493,"pop":10443,"capital":false},{"name":"Pedras de Maria da Cruz","country":"BR","lat":-15.6067,"lng":-44.3914,"pop":10433,"capital":false},{"name":"Ibiassucê","country":"BR","lat":-14.2594,"lng":-42.2569,"pop":10429,"capital":false},{"name":"Itabirinha","country":"BR","lat":-18.5664,"lng":-41.2331,"pop":10362,"capital":false},{"name":"Chapada do Norte","country":"BR","lat":-17.0929,"lng":-42.5413,"pop":10337,"capital":false},{"name":"Matina","country":"BR","lat":-13.9094,"lng":-42.8494,"pop":10330,"capital":false},{"name":"Santo Antônio do Jacinto","country":"BR","lat":-16.5339,"lng":-40.1758,"pop":10327,"capital":false},{"name":"São Romão","country":"BR","lat":-16.3686,"lng":-45.0694,"pop":10315,"capital":false},{"name":"Virginópolis","country":"BR","lat":-18.8228,"lng":-42.7039,"pop":10314,"capital":false},{"name":"Alto Paraíso de Goiás","country":"BR","lat":-14.1363,"lng":-47.5217,"pop":10306,"capital":false},{"name":"Jordânia","country":"BR","lat":-15.9003,"lng":-40.1781,"pop":10304,"capital":false},{"name":"Rubim","country":"BR","lat":-16.3747,"lng":-40.5375,"pop":10298,"capital":false},{"name":"Bonfinópolis","country":"BR","lat":-16.6178,"lng":-48.9633,"pop":10296,"capital":false},{"name":"Novo Oriente de Minas","country":"BR","lat":-17.4153,"lng":-41.2153,"pop":10275,"capital":false},{"name":"Fercal","country":"BR","lat":-15.5913,"lng":-47.8828,"pop":10268,"capital":false},{"name":"Canápolis","country":"BR","lat":-13.0713,"lng":-44.2016,"pop":10225,"capital":false},{"name":"Divisópolis","country":"BR","lat":-15.7256,"lng":-41,"pop":10213,"capital":false},{"name":"Centralina","country":"BR","lat":-18.5839,"lng":-49.1994,"pop":10207,"capital":false},{"name":"Bonito de Minas","country":"BR","lat":-15.3225,"lng":-44.7574,"pop":10204,"capital":false},{"name":"São José do Jacuípe","country":"BR","lat":-11.5039,"lng":-40.0222,"pop":10187,"capital":false},{"name":"Mirante","country":"BR","lat":-14.2419,"lng":-40.7783,"pop":10187,"capital":false},{"name":"Bela Vista de Minas","country":"BR","lat":-19.8303,"lng":-43.0911,"pop":10167,"capital":false},{"name":"Botuporã","country":"BR","lat":-13.3817,"lng":-42.5225,"pop":10129,"capital":false},{"name":"Parnaguá","country":"BR","lat":-10.2275,"lng":-44.6392,"pop":10103,"capital":false},{"name":"São Sebastião do Maranhão","country":"BR","lat":-18.0844,"lng":-42.5714,"pop":10079,"capital":false},{"name":"Caraíbas","country":"BR","lat":-14.7258,"lng":-41.2592,"pop":9940,"capital":false},{"name":"Ipupiara","country":"BR","lat":-11.8203,"lng":-42.6142,"pop":9935,"capital":false},{"name":"Setubinha","country":"BR","lat":-17.6022,"lng":-42.1625,"pop":9917,"capital":false},{"name":"Berilo","country":"BR","lat":-16.9517,"lng":-42.4656,"pop":9826,"capital":false},{"name":"Ribeirão do Largo","country":"BR","lat":-15.4592,"lng":-40.7411,"pop":9740,"capital":false},{"name":"Bom Jesus da Serra","country":"BR","lat":-14.3736,"lng":-40.5053,"pop":9730,"capital":false},{"name":"São Domingos","country":"BR","lat":-13.3983,"lng":-46.3183,"pop":9711,"capital":false},{"name":"Águia Branca","country":"BR","lat":-18.9831,"lng":-40.7403,"pop":9711,"capital":false},{"name":"Carmo do Rio Verde","country":"BR","lat":-15.3536,"lng":-49.7075,"pop":9710,"capital":false},{"name":"Jucuruçu","country":"BR","lat":-16.8428,"lng":-40.1589,"pop":9655,"capital":false},{"name":"Ferros","country":"BR","lat":-19.2319,"lng":-43.0233,"pop":9590,"capital":false},{"name":"Cavalcante","country":"BR","lat":-13.7975,"lng":-47.4583,"pop":9583,"capital":false},{"name":"São Felipe","country":"BR","lat":-14.8401,"lng":-41.3948,"pop":9574,"capital":false},{"name":"Petrolina de Goiás","country":"BR","lat":-16.095,"lng":-49.3381,"pop":9573,"capital":false},{"name":"Wagner","country":"BR","lat":-12.2869,"lng":-41.1683,"pop":9503,"capital":false},{"name":"Nova Veneza","country":"BR","lat":-16.3708,"lng":-49.3231,"pop":9481,"capital":false},{"name":"Quixabeira","country":"BR","lat":-11.4117,"lng":-40.1283,"pop":9461,"capital":false},{"name":"Peixe","country":"BR","lat":-12.025,"lng":-48.5392,"pop":9438,"capital":false},{"name":"Sebastião Laranjeiras","country":"BR","lat":-14.5731,"lng":-42.9403,"pop":9360,"capital":false},{"name":"Jaborandi","country":"BR","lat":-13.6203,"lng":-44.4697,"pop":9275,"capital":false},{"name":"Marcionílio Souza","country":"BR","lat":-13.0031,"lng":-40.5306,"pop":9267,"capital":false},{"name":"Araújos","country":"BR","lat":-19.9481,"lng":-45.1656,"pop":9199,"capital":false},{"name":"Corumbaíba","country":"BR","lat":-18.1425,"lng":-48.5614,"pop":9164,"capital":false},{"name":"Piripá","country":"BR","lat":-14.94,"lng":-41.72,"pop":9152,"capital":false},{"name":"Buenópolis","country":"BR","lat":-17.8733,"lng":-44.18,"pop":9150,"capital":false},{"name":"Antônio Dias","country":"BR","lat":-19.6528,"lng":-42.8722,"pop":9129,"capital":false},{"name":"Mata Verde","country":"BR","lat":-15.6864,"lng":-40.7411,"pop":9112,"capital":false},{"name":"Cachoeira de Pajeú","country":"BR","lat":-15.9665,"lng":-41.4958,"pop":9110,"capital":false},{"name":"Brejolândia","country":"BR","lat":-12.4856,"lng":-43.961,"pop":9108,"capital":false},{"name":"Alvorada","country":"BR","lat":-12.48,"lng":-49.1247,"pop":9094,"capital":false},{"name":"Palmeiras","country":"BR","lat":-12.5289,"lng":-41.5589,"pop":9071,"capital":false},{"name":"Morada Nova de Minas","country":"BR","lat":-18.6044,"lng":-45.3567,"pop":9067,"capital":false},{"name":"Caém","country":"BR","lat":-11.0921,"lng":-40.4352,"pop":9058,"capital":false},{"name":"Lagoa Grande","country":"BR","lat":-17.8353,"lng":-46.5144,"pop":8969,"capital":false},{"name":"Açucena","country":"BR","lat":-19.0731,"lng":-42.5464,"pop":8943,"capital":false},{"name":"Vila Pavão","country":"BR","lat":-18.615,"lng":-40.6114,"pop":8911,"capital":false},{"name":"Ibirapuã","country":"BR","lat":-17.6878,"lng":-40.1092,"pop":8896,"capital":false},{"name":"Matias Cardoso","country":"BR","lat":-14.8547,"lng":-43.9219,"pop":8895,"capital":false},{"name":"Caturama","country":"BR","lat":-13.3294,"lng":-42.2906,"pop":8841,"capital":false},{"name":"Lontra","country":"BR","lat":-15.9033,"lng":-44.305,"pop":8790,"capital":false},{"name":"Vicentinópolis","country":"BR","lat":-17.735,"lng":-49.805,"pop":8768,"capital":false},{"name":"Riacho dos Machados","country":"BR","lat":-16.0061,"lng":-43.0494,"pop":8756,"capital":false},{"name":"Leopoldo de Bulhões","country":"BR","lat":-16.6192,"lng":-48.7436,"pop":8745,"capital":false},{"name":"Maiquinique","country":"BR","lat":-15.6211,"lng":-40.2661,"pop":8731,"capital":false},{"name":"Malhada de Pedras","country":"BR","lat":-14.3881,"lng":-41.8792,"pop":8670,"capital":false},{"name":"Varjão","country":"BR","lat":-15.7099,"lng":-47.8774,"pop":8609,"capital":false},{"name":"São Domingos do Norte","country":"BR","lat":-19.1445,"lng":-40.6221,"pop":8589,"capital":false},{"name":"Piedade de Caratinga","country":"BR","lat":-19.7609,"lng":-42.0757,"pop":8529,"capital":false},{"name":"Carbonita","country":"BR","lat":-17.5269,"lng":-43.0158,"pop":8512,"capital":false},{"name":"Araporã","country":"BR","lat":-18.4361,"lng":-49.185,"pop":8479,"capital":false},{"name":"Guimarânia","country":"BR","lat":-18.8439,"lng":-46.7931,"pop":8478,"capital":false},{"name":"Campo Florido","country":"BR","lat":-19.7606,"lng":-48.5722,"pop":8466,"capital":false},{"name":"Santa Bárbara do Leste","country":"BR","lat":-19.9778,"lng":-42.1426,"pop":8458,"capital":false},{"name":"Alvorada do Norte","country":"BR","lat":-14.4808,"lng":-46.4922,"pop":8446,"capital":false},{"name":"Pocrane","country":"BR","lat":-19.6197,"lng":-41.6369,"pop":8350,"capital":false},{"name":"Nova Glória","country":"BR","lat":-15.1431,"lng":-49.5711,"pop":8310,"capital":false},{"name":"Araguaçu","country":"BR","lat":-12.9306,"lng":-49.8264,"pop":8273,"capital":false},{"name":"Frei Inocêncio","country":"BR","lat":-18.5647,"lng":-41.9144,"pop":8226,"capital":false},{"name":"Coronel Murta","country":"BR","lat":-16.6189,"lng":-42.1822,"pop":8200,"capital":false},{"name":"Nazário","country":"BR","lat":-16.5817,"lng":-49.8817,"pop":8189,"capital":false},{"name":"Coluna","country":"BR","lat":-18.2339,"lng":-42.8403,"pop":8163,"capital":false},{"name":"Japonvar","country":"BR","lat":-15.9947,"lng":-44.27,"pop":8127,"capital":false},{"name":"Mambaí","country":"BR","lat":-14.4878,"lng":-46.1131,"pop":8124,"capital":false},{"name":"Várzea do Poço","country":"BR","lat":-11.5292,"lng":-40.3203,"pop":8101,"capital":false},{"name":"Cezarina","country":"BR","lat":-16.9719,"lng":-49.7758,"pop":8090,"capital":false},{"name":"Campo Limpo de Goiás","country":"BR","lat":-16.2934,"lng":-49.0908,"pop":8081,"capital":false},{"name":"Guajeru","country":"BR","lat":-14.5472,"lng":-41.9403,"pop":8050,"capital":false},{"name":"Pavão","country":"BR","lat":-17.4278,"lng":-40.9989,"pop":8047,"capital":false},{"name":"Florestal","country":"BR","lat":-19.8894,"lng":-44.4325,"pop":8045,"capital":false},{"name":"Planaltino","country":"BR","lat":-13.2589,"lng":-40.3689,"pop":8022,"capital":false},{"name":"Morpará","country":"BR","lat":-11.5586,"lng":-43.2808,"pop":7996,"capital":false},{"name":"Formoso","country":"BR","lat":-14.9467,"lng":-46.2319,"pop":7949,"capital":false},{"name":"Terezópolis de Goias","country":"BR","lat":-16.4811,"lng":-49.0921,"pop":7944,"capital":false},{"name":"Tiros","country":"BR","lat":-19.0039,"lng":-45.9644,"pop":7883,"capital":false},{"name":"Ponte Alta do Tocantins","country":"BR","lat":-10.7439,"lng":-47.5361,"pop":7842,"capital":false},{"name":"Cachoeira Dourada","country":"BR","lat":-18.4917,"lng":-49.475,"pop":7782,"capital":false},{"name":"Nova Itarana","country":"BR","lat":-13.0269,"lng":-40.0686,"pop":7780,"capital":false},{"name":"Itauçu","country":"BR","lat":-16.2006,"lng":-49.6081,"pop":7736,"capital":false},{"name":"Angelândia","country":"BR","lat":-17.7272,"lng":-42.2735,"pop":7718,"capital":false},{"name":"Verdelândia","country":"BR","lat":-15.5892,"lng":-43.6028,"pop":7672,"capital":false},{"name":"Barro Alto","country":"BR","lat":-14.9708,"lng":-48.9158,"pop":7633,"capital":false},{"name":"Cabeceiras","country":"BR","lat":-15.8006,"lng":-46.9267,"pop":7560,"capital":false},{"name":"Moema","country":"BR","lat":-19.8433,"lng":-45.4108,"pop":7548,"capital":false},{"name":"Cordisburgo","country":"BR","lat":-19.125,"lng":-44.3208,"pop":7547,"capital":false},{"name":"Cordeiros","country":"BR","lat":-15.0386,"lng":-41.9347,"pop":7546,"capital":false},{"name":"Nova Redenção","country":"BR","lat":-12.8171,"lng":-41.0708,"pop":7538,"capital":false},{"name":"Lajedo do Tabocal","country":"BR","lat":-13.475,"lng":-40.2231,"pop":7494,"capital":false},{"name":"Baldim","country":"BR","lat":-19.2883,"lng":-43.9569,"pop":7492,"capital":false},{"name":"Alto Rio Novo","country":"BR","lat":-19.0561,"lng":-41.0167,"pop":7434,"capital":false},{"name":"Campo Alegre de Goiás","country":"BR","lat":-17.6331,"lng":-47.7783,"pop":7422,"capital":false},{"name":"Curral de Dentro","country":"BR","lat":-15.9375,"lng":-41.8444,"pop":7406,"capital":false},{"name":"Santo Antônio de Goiás","country":"BR","lat":-16.4836,"lng":-49.3111,"pop":7386,"capital":false},{"name":"Jussiape","country":"BR","lat":-13.5167,"lng":-41.5925,"pop":7379,"capital":false},{"name":"São Gonçalo do Abaeté","country":"BR","lat":-18.3383,"lng":-45.8333,"pop":7375,"capital":false},{"name":"Pium","country":"BR","lat":-10.4425,"lng":-49.1822,"pop":7375,"capital":false},{"name":"Inimutaba","country":"BR","lat":-18.7292,"lng":-44.3606,"pop":7371,"capital":false},{"name":"Francisco Badaró","country":"BR","lat":-16.9925,"lng":-42.3519,"pop":7366,"capital":false},{"name":"Cristalândia do Piauí","country":"BR","lat":-10.6511,"lng":-45.186,"pop":7356,"capital":false},{"name":"Confins","country":"BR","lat":-19.6325,"lng":-43.9828,"pop":7350,"capital":false},{"name":"Maravilhas","country":"BR","lat":-19.5161,"lng":-44.6764,"pop":7333,"capital":false},{"name":"Abaíra","country":"BR","lat":-13.2497,"lng":-41.6636,"pop":7301,"capital":false},{"name":"Cônego Marinho","country":"BR","lat":-15.2942,"lng":-44.4181,"pop":7237,"capital":false},{"name":"Ouvidor","country":"BR","lat":-18.2336,"lng":-47.8389,"pop":7200,"capital":false},{"name":"Iraí de Minas","country":"BR","lat":-18.9839,"lng":-47.4614,"pop":7180,"capital":false},{"name":"Claro dos Poções","country":"BR","lat":-17.0797,"lng":-44.2086,"pop":7166,"capital":false},{"name":"Joviânia","country":"BR","lat":-17.8058,"lng":-49.6128,"pop":7159,"capital":false},{"name":"Lassance","country":"BR","lat":-17.8867,"lng":-44.5775,"pop":7124,"capital":false},{"name":"Palmeirópolis","country":"BR","lat":-13.0439,"lng":-48.4022,"pop":7119,"capital":false},{"name":"Pintópolis","country":"BR","lat":-16.0589,"lng":-45.1556,"pop":7084,"capital":false},{"name":"São João do Oriente","country":"BR","lat":-19.3386,"lng":-42.1578,"pop":7070,"capital":false},{"name":"Abadiânia","country":"BR","lat":-16.2042,"lng":-48.7069,"pop":7062,"capital":false},{"name":"Santana de Pirapama","country":"BR","lat":-19.0061,"lng":-44.0431,"pop":7030,"capital":false},{"name":"Catuji","country":"BR","lat":-17.2994,"lng":-41.5169,"pop":7030,"capital":false},{"name":"Imbé de Minas","country":"BR","lat":-19.5981,"lng":-41.9697,"pop":6986,"capital":false},{"name":"Maetinga","country":"BR","lat":-14.6633,"lng":-41.4917,"pop":6973,"capital":false},{"name":"Varjão de Minas","country":"BR","lat":-18.3778,"lng":-46.0317,"pop":6969,"capital":false},{"name":"Serra dos Aimorés","country":"BR","lat":-17.7825,"lng":-40.2475,"pop":6944,"capital":false},{"name":"Alpercata","country":"BR","lat":-18.9903,"lng":-41.9899,"pop":6903,"capital":false},{"name":"Montezuma","country":"BR","lat":-15.1719,"lng":-42.4972,"pop":6888,"capital":false},{"name":"Riachinho","country":"BR","lat":-16.23,"lng":-45.9917,"pop":6863,"capital":false},{"name":"Dionísio","country":"BR","lat":-19.8412,"lng":-42.7777,"pop":6847,"capital":false},{"name":"Estrela do Sul","country":"BR","lat":-18.7456,"lng":-47.6928,"pop":6840,"capital":false},{"name":"Santa Rita de Minas","country":"BR","lat":-19.8743,"lng":-42.1322,"pop":6773,"capital":false},{"name":"Nova Porteirinha","country":"BR","lat":-15.8025,"lng":-43.3006,"pop":6706,"capital":false},{"name":"Conquista","country":"BR","lat":-19.9372,"lng":-47.5417,"pop":6694,"capital":false},{"name":"Monte Alegre de Goiás","country":"BR","lat":-13.2597,"lng":-46.8884,"pop":6692,"capital":false},{"name":"Comercinho","country":"BR","lat":-16.2961,"lng":-41.7933,"pop":6660,"capital":false},{"name":"Lagamar","country":"BR","lat":-18.1783,"lng":-46.8075,"pop":6631,"capital":false},{"name":"Santo Antônio do Retiro","country":"BR","lat":-15.3428,"lng":-42.6223,"pop":6629,"capital":false},{"name":"Cabeceira Grande","country":"BR","lat":-16.0297,"lng":-47.0906,"pop":6627,"capital":false},{"name":"Periquito","country":"BR","lat":-19.1553,"lng":-42.2412,"pop":6553,"capital":false},{"name":"Almas","country":"BR","lat":-11.5736,"lng":-47.1703,"pop":6542,"capital":false},{"name":"Guarda-Mor","country":"BR","lat":-17.7708,"lng":-47.0983,"pop":6539,"capital":false},{"name":"Divinolândia de Minas","country":"BR","lat":-18.802,"lng":-42.615,"pop":6516,"capital":false},{"name":"Ponto Belo","country":"BR","lat":-18.1236,"lng":-40.5411,"pop":6497,"capital":false},{"name":"Felisburgo","country":"BR","lat":-16.6386,"lng":-40.7614,"pop":6489,"capital":false},{"name":"Machacalis","country":"BR","lat":-17.0772,"lng":-40.7164,"pop":6487,"capital":false},{"name":"Jequitaí","country":"BR","lat":-17.2356,"lng":-44.4456,"pop":6484,"capital":false},{"name":"Cristalândia","country":"BR","lat":-10.6003,"lng":-49.1931,"pop":6437,"capital":false},{"name":"São Francisco de Goiás","country":"BR","lat":-15.9306,"lng":-49.2611,"pop":6378,"capital":false},{"name":"Engenheiro Navarro","country":"BR","lat":-17.2797,"lng":-43.95,"pop":6354,"capital":false},{"name":"Indaiabira","country":"BR","lat":-15.4917,"lng":-42.1972,"pop":6346,"capital":false},{"name":"Divisa Alegre","country":"BR","lat":-15.7215,"lng":-41.3441,"pop":6321,"capital":false},{"name":"Naque","country":"BR","lat":-19.2303,"lng":-42.3283,"pop":6303,"capital":false},{"name":"Palmópolis","country":"BR","lat":-16.735,"lng":-40.42,"pop":6301,"capital":false},{"name":"Ibiaí","country":"BR","lat":-16.8611,"lng":-44.9144,"pop":6286,"capital":false},{"name":"Abadia dos Dourados","country":"BR","lat":-18.4856,"lng":-47.4031,"pop":6272,"capital":false},{"name":"Inhaúma","country":"BR","lat":-19.4911,"lng":-44.3897,"pop":6239,"capital":false},{"name":"Galiléia","country":"BR","lat":-18.9994,"lng":-41.5375,"pop":6222,"capital":false},{"name":"Luislândia","country":"BR","lat":-16.1175,"lng":-44.5886,"pop":6210,"capital":false},{"name":"Caatiba","country":"BR","lat":-14.9767,"lng":-40.4075,"pop":6205,"capital":false},{"name":"São José do Jacuri","country":"BR","lat":-18.2753,"lng":-42.6703,"pop":6197,"capital":false},{"name":"Indianópolis","country":"BR","lat":-19.0386,"lng":-47.9169,"pop":6171,"capital":false},{"name":"Central de Minas","country":"BR","lat":-18.7619,"lng":-41.3064,"pop":6171,"capital":false},{"name":"Santa Bárbara de Goiás","country":"BR","lat":-16.5776,"lng":-49.6976,"pop":6149,"capital":false},{"name":"Irajuba","country":"BR","lat":-13.2514,"lng":-40.0844,"pop":6101,"capital":false},{"name":"Jenipapo de Minas","country":"BR","lat":-17.0828,"lng":-42.2583,"pop":6100,"capital":false},{"name":"Alto Horizonte","country":"BR","lat":-14.1956,"lng":-49.3386,"pop":6072,"capital":false},{"name":"Itueta","country":"BR","lat":-19.3962,"lng":-41.2261,"pop":6055,"capital":false},{"name":"Vereda","country":"BR","lat":-17.2225,"lng":-40.085,"pop":6003,"capital":false},{"name":"Mamonas","country":"BR","lat":-15.0503,"lng":-42.9494,"pop":5997,"capital":false},{"name":"Inaciolândia","country":"BR","lat":-18.4881,"lng":-49.9872,"pop":5954,"capital":false},{"name":"Santa Helena de Minas","country":"BR","lat":-16.9386,"lng":-40.6828,"pop":5938,"capital":false},{"name":"Nova União","country":"BR","lat":-19.6879,"lng":-43.5834,"pop":5909,"capital":false},{"name":"Tumiritinga","country":"BR","lat":-18.9792,"lng":-41.6453,"pop":5886,"capital":false},{"name":"Jequitibá","country":"BR","lat":-19.2356,"lng":-44.0278,"pop":5883,"capital":false},{"name":"Santa Rita do Itueto","country":"BR","lat":-19.3597,"lng":-41.38,"pop":5826,"capital":false},{"name":"Vila Propício","country":"BR","lat":-15.4569,"lng":-48.8886,"pop":5815,"capital":false},{"name":"Botumirim","country":"BR","lat":-16.8614,"lng":-43.0103,"pop":5790,"capital":false},{"name":"Juvenília","country":"BR","lat":-14.2625,"lng":-44.1603,"pop":5789,"capital":false},{"name":"Vargem Alegre","country":"BR","lat":-19.6083,"lng":-42.2983,"pop":5780,"capital":false},{"name":"Ouro Verde de Minas","country":"BR","lat":-18.0706,"lng":-41.2697,"pop":5757,"capital":false},{"name":"Simolândia","country":"BR","lat":-14.4736,"lng":-46.4833,"pop":5742,"capital":false},{"name":"São Francisco de Sales","country":"BR","lat":-19.8628,"lng":-49.7742,"pop":5732,"capital":false},{"name":"Monte do Carmo","country":"BR","lat":-10.7633,"lng":-48.1089,"pop":5722,"capital":false},{"name":"Rubelita","country":"BR","lat":-16.4075,"lng":-42.2625,"pop":5679,"capital":false},{"name":"Frei Gaspar","country":"BR","lat":-18.0661,"lng":-41.4294,"pop":5640,"capital":false},{"name":"Bom Jesus do Amparo","country":"BR","lat":-19.7036,"lng":-43.4736,"pop":5631,"capital":false},{"name":"Feira da Mata","country":"BR","lat":-14.2128,"lng":-44.2811,"pop":5631,"capital":false},{"name":"São Domingos das Dores","country":"BR","lat":-19.5269,"lng":-42.0114,"pop":5626,"capital":false},{"name":"Mendes Pimentel","country":"BR","lat":-18.6611,"lng":-41.4047,"pop":5606,"capital":false},{"name":"Pai Pedro","country":"BR","lat":-15.5167,"lng":-43.0653,"pop":5551,"capital":false},{"name":"Pirajuba","country":"BR","lat":-19.9069,"lng":-48.7006,"pop":5537,"capital":false},{"name":"Bonfinópolis de Minas","country":"BR","lat":-16.5663,"lng":-45.9866,"pop":5528,"capital":false},{"name":"Mucurici","country":"BR","lat":-18.0933,"lng":-40.5158,"pop":5466,"capital":false},{"name":"Datas","country":"BR","lat":-18.4456,"lng":-43.6558,"pop":5465,"capital":false},{"name":"Conceição do Pará","country":"BR","lat":-19.7531,"lng":-44.8967,"pop":5415,"capital":false},{"name":"São José do Goiabal","country":"BR","lat":-19.9286,"lng":-42.705,"pop":5396,"capital":false},{"name":"Júlio Borges","country":"BR","lat":-10.3274,"lng":-44.2394,"pop":5388,"capital":false},{"name":"Olhos d'Água","country":"BR","lat":-17.3969,"lng":-43.5733,"pop":5385,"capital":false},{"name":"Figueirópolis","country":"BR","lat":-12.1308,"lng":-49.1742,"pop":5336,"capital":false},{"name":"São João do Manteninha","country":"BR","lat":-18.7214,"lng":-41.1603,"pop":5331,"capital":false},{"name":"Santana do Riacho","country":"BR","lat":-19.169,"lng":-43.7139,"pop":5313,"capital":false},{"name":"Crisólita","country":"BR","lat":-17.2372,"lng":-40.9119,"pop":5265,"capital":false},{"name":"Americano do Brasil","country":"BR","lat":-16.2547,"lng":-49.9828,"pop":5259,"capital":false},{"name":"Silvanópolis","country":"BR","lat":-11.1467,"lng":-48.1692,"pop":5252,"capital":false},{"name":"Gonzaga","country":"BR","lat":-18.8222,"lng":-42.4792,"pop":5230,"capital":false},{"name":"Aliança do Tocantins","country":"BR","lat":-11.3061,"lng":-48.9358,"pop":5222,"capital":false},{"name":"Gurinhatã","country":"BR","lat":-19.2133,"lng":-49.7864,"pop":5192,"capital":false},{"name":"Caturaí","country":"BR","lat":-16.4469,"lng":-49.4939,"pop":5184,"capital":false},{"name":"Veredinha","country":"BR","lat":-17.3994,"lng":-42.7356,"pop":5181,"capital":false},{"name":"Entre Folhas","country":"BR","lat":-19.6253,"lng":-42.2306,"pop":5179,"capital":false},{"name":"Sobrália","country":"BR","lat":-19.2347,"lng":-42.0983,"pop":5137,"capital":false},{"name":"Felício dos Santos","country":"BR","lat":-18.0772,"lng":-43.2469,"pop":5133,"capital":false},{"name":"Setor de Indústria e Abastecimiento","country":"BR","lat":-15.8068,"lng":-47.9579,"pop":5131,"capital":false},{"name":"Cristália","country":"BR","lat":-16.7178,"lng":-42.8658,"pop":5121,"capital":false},{"name":"Sardoá","country":"BR","lat":-18.7836,"lng":-42.365,"pop":5104,"capital":false},{"name":"São Pedro do Suaçuí","country":"BR","lat":-18.3658,"lng":-42.6025,"pop":5103,"capital":false},{"name":"Ibiracatu","country":"BR","lat":-15.6636,"lng":-44.1639,"pop":5081,"capital":false},{"name":"Padre Carvalho","country":"BR","lat":-16.3644,"lng":-42.5153,"pop":5058,"capital":false},{"name":"Guaraciama","country":"BR","lat":-17.0139,"lng":-43.6731,"pop":5051,"capital":false},{"name":"Mesquita","country":"BR","lat":-19.2225,"lng":-42.6072,"pop":5040,"capital":false},{"name":"Franciscópolis","country":"BR","lat":-17.9597,"lng":-42.0086,"pop":5034,"capital":false},{"name":"Dores de Guanhães","country":"BR","lat":-19.0583,"lng":-42.9292,"pop":5029,"capital":false}]