[{"name":"Guercif","country":"MA","lat":34.2257,"lng":-3.3536,"pop":99238,"capital":false},{"name":"Oulad Teïma","country":"MA","lat":30.3947,"lng":-9.209,"pop":97608,"capital":false},{"name":"Ben Guerir","country":"MA","lat":32.2409,"lng":-7.954,"pop":96777,"capital":false},{"name":"Cáceres","country":"ES","lat":39.4765,"lng":-6.3722,"pop":96068,"capital":false},{"name":"Ouislane","country":"MA","lat":33.9141,"lng":-5.4897,"pop":95995,"capital":false},{"name":"San Fernando","country":"ES","lat":36.4759,"lng":-6.1982,"pop":95174,"capital":false},{"name":"Roquetas de Mar","country":"ES","lat":36.7642,"lng":-2.6147,"pop":94925,"capital":false},{"name":"Tiflet","country":"MA","lat":33.8947,"lng":-6.3065,"pop":94684,"capital":false},{"name":"Cacém","country":"PT","lat":38.767,"lng":-9.2979,"pop":93982,"capital":false},{"name":"Lorca","country":"ES","lat":37.6712,"lng":-1.7017,"pop":93079,"capital":false},{"name":"Lqoliaa","country":"MA","lat":30.2976,"lng":-9.466,"pop":90890,"capital":false},{"name":"Talavera de la Reina","country":"ES","lat":39.9635,"lng":-4.8308,"pop":88856,"capital":false},{"name":"El Puerto de Santa María","country":"ES","lat":36.5939,"lng":-6.233,"pop":88364,"capital":false},{"name":"Taroudant","country":"MA","lat":30.4703,"lng":-8.877,"pop":87520,"capital":false},{"name":"Maghnia","country":"DZ","lat":34.8497,"lng":-1.7275,"pop":87373,"capital":false},{"name":"Sefrou","country":"MA","lat":33.8319,"lng":-4.828,"pop":87234,"capital":false},{"name":"Toledo","country":"ES","lat":39.8581,"lng":-4.0226,"pop":86526,"capital":false},{"name":"Melilla","country":"ES","lat":35.2937,"lng":-2.9383,"pop":85985,"capital":false},{"name":"Essaouira","country":"MA","lat":31.5125,"lng":-9.77,"pop":85137,"capital":false},{"name":"El Ejido","country":"ES","lat":36.7763,"lng":-2.8146,"pop":84710,"capital":false},{"name":"Fnidek","country":"MA","lat":35.8491,"lng":-5.3575,"pop":84558,"capital":false},{"name":"Chiclana de la Frontera","country":"ES","lat":36.4198,"lng":-6.1437,"pop":83831,"capital":false},{"name":"Ceuta","country":"ES","lat":35.8892,"lng":-5.3204,"pop":83179,"capital":false},{"name":"Sidi Kacem","country":"MA","lat":34.2215,"lng":-5.7077,"pop":82632,"capital":false},{"name":"Torrevieja","country":"ES","lat":37.9787,"lng":-0.6822,"pop":82599,"capital":false},{"name":"Mijas","country":"ES","lat":36.5958,"lng":-4.6373,"pop":80630,"capital":false},{"name":"Torrent","country":"ES","lat":39.4371,"lng":-0.4655,"pop":78543,"capital":false},{"name":"Ouarzazate","country":"MA","lat":30.9189,"lng":-6.8934,"pop":77603,"capital":false},{"name":"Souk El Arbaa","country":"MA","lat":34.6847,"lng":-6.0034,"pop":75635,"capital":false},{"name":"Ciudad Real","country":"ES","lat":38.9863,"lng":-3.9291,"pop":74743,"capital":false},{"name":"Vélez-Málaga","country":"ES","lat":36.7811,"lng":-4.1027,"pop":74190,"capital":false},{"name":"Youssoufia","country":"MA","lat":32.2463,"lng":-8.5294,"pop":73848,"capital":false},{"name":"Gandia","country":"ES","lat":38.9667,"lng":-0.1833,"pop":73829,"capital":false},{"name":"Ifrane","country":"MA","lat":33.5267,"lng":-5.1102,"pop":73782,"capital":false},{"name":"Fuengirola","country":"ES","lat":36.54,"lng":-4.6247,"pop":71482,"capital":false},{"name":"Aïn Temouchent","country":"DZ","lat":35.2975,"lng":-1.1404,"pop":70810,"capital":false},{"name":"Lahraouyine","country":"MA","lat":33.5414,"lng":-7.5285,"pop":70783,"capital":false},{"name":"Benidorm","country":"ES","lat":38.5382,"lng":-0.131,"pop":70450,"capital":false},{"name":"Faro","country":"PT","lat":37.0187,"lng":-7.9272,"pop":70347,"capital":false},{"name":"Martil","country":"MA","lat":35.6166,"lng":-5.2752,"pop":70274,"capital":false},{"name":"Alcalá de Guadaira","country":"ES","lat":37.3379,"lng":-5.8395,"pop":70155,"capital":false},{"name":"Aïn Harrouda","country":"MA","lat":33.6374,"lng":-7.4497,"pop":68161,"capital":false},{"name":"Sanlúcar de Barrameda","country":"ES","lat":36.7781,"lng":-6.3515,"pop":68037,"capital":false},{"name":"Bir el Djir","country":"DZ","lat":35.72,"lng":-0.545,"pop":68032,"capital":false},{"name":"Campiña","country":"ES","lat":38.219,"lng":-2.9807,"pop":67904,"capital":false},{"name":"Estepona","country":"ES","lat":36.4276,"lng":-5.1459,"pop":67012,"capital":false},{"name":"Algueirão","country":"PT","lat":38.7976,"lng":-9.3437,"pop":66250,"capital":false},{"name":"Loures","country":"PT","lat":38.8309,"lng":-9.1684,"pop":66231,"capital":false},{"name":"Sagunto","country":"ES","lat":39.6833,"lng":-0.2667,"pop":66070,"capital":false},{"name":"Souq Sebt Oulad Nemma","country":"MA","lat":32.2973,"lng":-6.703,"pop":65601,"capital":false},{"name":"Torremolinos","country":"ES","lat":36.6204,"lng":-4.4998,"pop":65448,"capital":false},{"name":"Skhirate","country":"MA","lat":33.8527,"lng":-7.0317,"pop":65272,"capital":false},{"name":"Ouezzane","country":"MA","lat":34.7958,"lng":-5.5785,"pop":65088,"capital":false},{"name":"Mecheria","country":"DZ","lat":33.5445,"lng":-0.2812,"pop":65043,"capital":false},{"name":"La Línea de la Concepción","country":"ES","lat":36.1681,"lng":-5.3478,"pop":64595,"capital":false},{"name":"Molina de Segura","country":"ES","lat":38.0546,"lng":-1.2076,"pop":64065,"capital":false},{"name":"Paterna","country":"ES","lat":39.5026,"lng":-0.4408,"pop":64023,"capital":false},{"name":"Grao de Murviedro","country":"ES","lat":39.6417,"lng":-0.2389,"pop":62368,"capital":false},{"name":"Benslimane","country":"MA","lat":33.616,"lng":-7.1215,"pop":62352,"capital":false},{"name":"Beni Enzar","country":"MA","lat":35.26,"lng":-2.93,"pop":61786,"capital":false},{"name":"Alcoy","country":"ES","lat":38.7055,"lng":-0.4743,"pop":61552,"capital":false},{"name":"Mdiq","country":"MA","lat":35.6831,"lng":-5.3287,"pop":61398,"capital":false},{"name":"Sig","country":"DZ","lat":35.5283,"lng":-0.1937,"pop":61373,"capital":false},{"name":"Sidi Bennour","country":"MA","lat":32.6524,"lng":-8.4277,"pop":60948,"capital":false},{"name":"Motril","country":"ES","lat":36.7507,"lng":-3.5179,"pop":60592,"capital":false},{"name":"Midelt","country":"MA","lat":32.6852,"lng":-4.7451,"pop":60390,"capital":false},{"name":"Mérida","country":"ES","lat":38.918,"lng":-6.3429,"pop":59857,"capital":false},{"name":"Azrou","country":"MA","lat":33.4344,"lng":-5.2213,"pop":59348,"capital":false},{"name":"Benalmádena","country":"ES","lat":36.5961,"lng":-4.5727,"pop":58854,"capital":false},{"name":"Arzew","country":"DZ","lat":35.8505,"lng":-0.318,"pop":58162,"capital":false},{"name":"Linares","country":"ES","lat":38.0952,"lng":-3.636,"pop":57414,"capital":false},{"name":"San Vicent del Raspeig","country":"ES","lat":38.3964,"lng":-0.5255,"pop":56715,"capital":false},{"name":"Tirhanimîne","country":"MA","lat":35.2362,"lng":-3.9545,"pop":55827,"capital":false},{"name":"My Drarga","country":"MA","lat":30.3773,"lng":-9.4734,"pop":55631,"capital":false},{"name":"Dakhla","country":"MA","lat":30.4115,"lng":-9.5534,"pop":55618,"capital":false},{"name":"Elda","country":"ES","lat":38.4778,"lng":-0.7916,"pop":55168,"capital":false},{"name":"Rio de Mouro","country":"PT","lat":38.7661,"lng":-9.328,"pop":54695,"capital":false},{"name":"Odivelas","country":"PT","lat":38.7927,"lng":-9.1838,"pop":54624,"capital":false},{"name":"Ain El Aouda","country":"MA","lat":33.8033,"lng":-6.7946,"pop":54397,"capital":false},{"name":"Assi Bou Nif","country":"DZ","lat":35.6922,"lng":-0.4994,"pop":53700,"capital":false},{"name":"Évora","country":"PT","lat":38.5659,"lng":-7.904,"pop":53591,"capital":false},{"name":"Ben Jerrar","country":"MA","lat":30.2622,"lng":-9.5038,"pop":53026,"capital":false},{"name":"Utrera","country":"ES","lat":37.1852,"lng":-5.7809,"pop":52617,"capital":false},{"name":"Amora","country":"PT","lat":38.6296,"lng":-9.1156,"pop":52577,"capital":false},{"name":"Corroios","country":"PT","lat":38.64,"lng":-9.1508,"pop":52520,"capital":false},{"name":"Mansoûra","country":"DZ","lat":34.8616,"lng":-1.3393,"pop":52285,"capital":false},{"name":"Ad Darwa","country":"MA","lat":33.3749,"lng":-7.5356,"pop":52108,"capital":false},{"name":"Al Aaroui","country":"MA","lat":35.0109,"lng":-3.0094,"pop":51976,"capital":false},{"name":"Puertollano","country":"ES","lat":38.6871,"lng":-4.1073,"pop":51842,"capital":false},{"name":"Kasba Tadla","country":"MA","lat":32.5977,"lng":-6.2684,"pop":51697,"capital":false},{"name":"En Nedjma","country":"DZ","lat":35.6479,"lng":-0.5695,"pop":51665,"capital":false},{"name":"Barreiro","country":"PT","lat":38.6631,"lng":-9.0724,"pop":51280,"capital":false},{"name":"Bejaâd","country":"MA","lat":32.7713,"lng":-6.3923,"pop":51206,"capital":false},{"name":"Sidi Taibi","country":"MA","lat":34.187,"lng":-6.6818,"pop":51050,"capital":false},{"name":"Vila-real","country":"ES","lat":39.9383,"lng":-0.1009,"pop":50577,"capital":false},{"name":"Monsanto","country":"PT","lat":39.462,"lng":-8.7118,"pop":50000,"capital":false},{"name":"Jerada","country":"MA","lat":34.31,"lng":-2.16,"pop":47507,"capital":false},{"name":"Aïn Sefra","country":"DZ","lat":32.75,"lng":-0.5833,"pop":47415,"capital":false},{"name":"Chefchaouen","country":"MA","lat":35.1688,"lng":-5.2636,"pop":46721,"capital":false},{"name":"São Domingos de Rana","country":"PT","lat":38.7019,"lng":-9.3408,"pop":46718,"capital":false},{"name":"Mrirt","country":"MA","lat":33.1643,"lng":-5.5672,"pop":46660,"capital":false},{"name":"Lumiar","country":"PT","lat":38.7748,"lng":-9.156,"pop":46334,"capital":false},{"name":"Mislata","country":"ES","lat":39.4752,"lng":-0.4182,"pop":46131,"capital":false},{"name":"Tinghir","country":"MA","lat":31.5147,"lng":-5.5328,"pop":45911,"capital":false},{"name":"Mairena del Aljarafe","country":"ES","lat":37.3446,"lng":-6.0639,"pop":45890,"capital":false},{"name":"El Aïoun","country":"MA","lat":34.5832,"lng":-2.5061,"pop":45679,"capital":false},{"name":"Antequera","country":"ES","lat":37.0194,"lng":-4.5612,"pop":45168,"capital":false},{"name":"Azemmour","country":"MA","lat":33.2895,"lng":-8.3425,"pop":44683,"capital":false},{"name":"Alzira","country":"ES","lat":39.15,"lng":-0.4333,"pop":44393,"capital":false},{"name":"Souq Larb’a al Gharb","country":"MA","lat":34.6866,"lng":-6.0027,"pop":44059,"capital":false},{"name":"Zagora","country":"MA","lat":30.3324,"lng":-5.8384,"pop":43752,"capital":false},{"name":"Olival","country":"PT","lat":38.7708,"lng":-9.2501,"pop":42961,"capital":false},{"name":"Ait Ourir","country":"MA","lat":31.5652,"lng":-7.6616,"pop":42705,"capital":false},{"name":"Lucena","country":"ES","lat":37.4088,"lng":-4.4852,"pop":42248,"capital":false},{"name":"Azilal","country":"MA","lat":31.9616,"lng":-6.5711,"pop":42062,"capital":false},{"name":"Sidi Yahia El Gharb","country":"MA","lat":34.3049,"lng":-6.304,"pop":41472,"capital":false},{"name":"Tine Biougra","country":"MA","lat":30.2094,"lng":-9.3792,"pop":41421,"capital":false},{"name":"Sesimbra","country":"PT","lat":38.4445,"lng":-9.1015,"pop":41134,"capital":false},{"name":"Alcantarilla","country":"ES","lat":37.9694,"lng":-1.2171,"pop":41084,"capital":false},{"name":"Taounate","country":"MA","lat":34.5366,"lng":-4.6401,"pop":41075,"capital":false},{"name":"Bouznika","country":"MA","lat":33.7894,"lng":-7.1597,"pop":40663,"capital":false},{"name":"Puerto Real","country":"ES","lat":36.5282,"lng":-6.1901,"pop":40183,"capital":false},{"name":"Had Soualem","country":"MA","lat":33.4197,"lng":-7.8524,"pop":40146,"capital":false},{"name":"Imzouren","country":"MA","lat":35.1464,"lng":-3.8506,"pop":40000,"capital":false},{"name":"Écija","country":"ES","lat":37.5422,"lng":-5.0826,"pop":39882,"capital":false},{"name":"Beni Saf","country":"DZ","lat":35.301,"lng":-1.3823,"pop":39749,"capital":false},{"name":"Zaïo","country":"MA","lat":34.9428,"lng":-2.7329,"pop":39099,"capital":false},{"name":"Es Senia","country":"DZ","lat":35.6478,"lng":-0.624,"pop":39064,"capital":false},{"name":"Rincón de la Victoria","country":"ES","lat":36.7171,"lng":-4.2758,"pop":38666,"capital":false},{"name":"Aourir","country":"MA","lat":30.4924,"lng":-9.6355,"pop":38617,"capital":false},{"name":"El Hajeb","country":"MA","lat":33.6879,"lng":-5.371,"pop":38527,"capital":false},{"name":"Portimão","country":"PT","lat":37.1386,"lng":-8.5378,"pop":38487,"capital":false},{"name":"Burjassot","country":"ES","lat":39.5098,"lng":-0.4133,"pop":38433,"capital":false},{"name":"Ontinyent","country":"ES","lat":38.8219,"lng":-0.606,"pop":37735,"capital":false},{"name":"Damaia","country":"PT","lat":38.7514,"lng":-9.2123,"pop":37607,"capital":false},{"name":"Aïn el Bya","country":"DZ","lat":35.8039,"lng":-0.3018,"pop":37241,"capital":false},{"name":"Zeghanghane","country":"MA","lat":35.1556,"lng":-3.0024,"pop":37154,"capital":false},{"name":"Andújar","country":"ES","lat":38.0392,"lng":-4.0508,"pop":37113,"capital":false},{"name":"Don Benito","country":"ES","lat":38.9563,"lng":-5.8616,"pop":37010,"capital":false},{"name":"Cidade Universitária","country":"PT","lat":38.752,"lng":-9.1592,"pop":37000,"capital":false},{"name":"Benfica","country":"PT","lat":38.7509,"lng":-9.2028,"pop":36985,"capital":false},{"name":"Ronda","country":"ES","lat":36.7423,"lng":-5.1671,"pop":36827,"capital":false},{"name":"Los Palacios y Villafranca","country":"ES","lat":37.1618,"lng":-5.9243,"pop":36824,"capital":false},{"name":"Chetouane","country":"DZ","lat":34.9213,"lng":-1.2951,"pop":36776,"capital":false},{"name":"Cascais","country":"PT","lat":38.6968,"lng":-9.4215,"pop":36436,"capital":false},{"name":"’Aïn el Turk","country":"DZ","lat":35.7438,"lng":-0.7693,"pop":36326,"capital":false},{"name":"Ben Ahmed","country":"MA","lat":33.0664,"lng":-7.2416,"pop":36149,"capital":false},{"name":"Tomelloso","country":"ES","lat":39.1576,"lng":-3.0216,"pop":36091,"capital":false},{"name":"La Rinconada","country":"ES","lat":37.4861,"lng":-5.9809,"pop":35928,"capital":false},{"name":"Tit Mellil","country":"MA","lat":33.5581,"lng":-7.4865,"pop":35797,"capital":false},{"name":"Torre-Pacheco","country":"ES","lat":37.7429,"lng":-0.954,"pop":35614,"capital":false},{"name":"Sidi ech Chahmi","country":"DZ","lat":35.659,"lng":-0.5217,"pop":35512,"capital":false},{"name":"Marvila","country":"PT","lat":38.7398,"lng":-9.1016,"pop":35463,"capital":false},{"name":"Villena","country":"ES","lat":38.6373,"lng":-0.8657,"pop":35222,"capital":false},{"name":"Mazarrón","country":"ES","lat":37.5992,"lng":-1.3149,"pop":35221,"capital":false},{"name":"Alhaurín de la Torre","country":"ES","lat":36.664,"lng":-4.5614,"pop":35114,"capital":false},{"name":"Yecla","country":"ES","lat":38.6137,"lng":-1.1147,"pop":35025,"capital":false},{"name":"Oeiras","country":"PT","lat":38.691,"lng":-9.3108,"pop":35000,"capital":false},{"name":"San Pedro Alcántara","country":"ES","lat":36.4884,"lng":-4.9912,"pop":34922,"capital":false},{"name":"Cieza","country":"ES","lat":38.24,"lng":-1.4199,"pop":34889,"capital":false},{"name":"Beja","country":"PT","lat":38.0147,"lng":-7.8628,"pop":34760,"capital":false},{"name":"Úbeda","country":"ES","lat":38.0133,"lng":-3.3705,"pop":34602,"capital":false},{"name":"Burriana","country":"ES","lat":39.889,"lng":-0.085,"pop":34544,"capital":false},{"name":"Águilas","country":"ES","lat":37.4063,"lng":-1.5829,"pop":34533,"capital":false},{"name":"Mechraa Bel Ksiri","country":"MA","lat":34.5737,"lng":-5.9558,"pop":34393,"capital":false},{"name":"Asilah","country":"MA","lat":35.4652,"lng":-6.0341,"pop":34011,"capital":false},{"name":"Almada","country":"PT","lat":38.679,"lng":-9.1569,"pop":34008,"capital":false},{"name":"Tabount","country":"MA","lat":30.9032,"lng":-6.9158,"pop":33929,"capital":false},{"name":"Villajoyosa","country":"ES","lat":38.5075,"lng":-0.2335,"pop":33797,"capital":false},{"name":"Olivais","country":"PT","lat":38.7699,"lng":-9.1067,"pop":33788,"capital":false},{"name":"Lagos","country":"PT","lat":37.102,"lng":-8.6742,"pop":33494,"capital":false},{"name":"Castelo Branco","country":"PT","lat":39.8236,"lng":-7.491,"pop":33479,"capital":false},{"name":"Almendralejo","country":"ES","lat":38.6832,"lng":-6.4075,"pop":33468,"capital":false},{"name":"Alcabideche","country":"PT","lat":38.7337,"lng":-9.4093,"pop":33315,"capital":false},{"name":"Laâttaouia","country":"MA","lat":31.8353,"lng":-7.3143,"pop":33103,"capital":false},{"name":"Sidi Slimane Echcharaa","country":"MA","lat":34.9082,"lng":-2.3505,"pop":32979,"capital":false},{"name":"Gdyel","country":"DZ","lat":35.7811,"lng":-0.4258,"pop":32774,"capital":false},{"name":"Sebdou","country":"DZ","lat":34.637,"lng":-1.3314,"pop":32570,"capital":false},{"name":"Demnate","country":"MA","lat":31.7344,"lng":-7.005,"pop":32217,"capital":false},{"name":"Arfoud","country":"MA","lat":31.4353,"lng":-4.2326,"pop":31971,"capital":false},{"name":"Remchi","country":"DZ","lat":35.062,"lng":-1.4336,"pop":31837,"capital":false},{"name":"Alvalade","country":"PT","lat":38.7533,"lng":-9.144,"pop":31813,"capital":false},{"name":"Santa Pola","country":"ES","lat":38.1917,"lng":-0.5658,"pop":31760,"capital":false},{"name":"Bouarfa","country":"MA","lat":32.5338,"lng":-1.9621,"pop":31499,"capital":false},{"name":"Aldaia","country":"ES","lat":39.4657,"lng":-0.46,"pop":31492,"capital":false},{"name":"San Javier","country":"ES","lat":37.8063,"lng":-0.8374,"pop":31432,"capital":false},{"name":"Souk et Tnine Jorf el Mellah","country":"MA","lat":34.4916,"lng":-5.5085,"pop":31318,"capital":false},{"name":"Mehdya","country":"MA","lat":34.256,"lng":-6.6734,"pop":31269,"capital":false},{"name":"Arcos de la Frontera","country":"ES","lat":36.7507,"lng":-5.8106,"pop":31210,"capital":false},{"name":"Valdepeñas","country":"ES","lat":38.7621,"lng":-3.3848,"pop":31147,"capital":false},{"name":"Hellín","country":"ES","lat":38.5106,"lng":-1.701,"pop":30976,"capital":false},{"name":"Aïn Taoujdat","country":"MA","lat":33.9358,"lng":-5.2133,"pop":30889,"capital":false},{"name":"Tamesna","country":"MA","lat":33.8181,"lng":-6.9166,"pop":30705,"capital":false},{"name":"Alcázar de San Juan","country":"ES","lat":39.3901,"lng":-3.2083,"pop":30686,"capital":false},{"name":"Coria del Río","country":"ES","lat":37.2877,"lng":-6.0541,"pop":30657,"capital":false},{"name":"Oadar Temsia","country":"MA","lat":30.3653,"lng":-9.4104,"pop":30526,"capital":false},{"name":"Manises","country":"ES","lat":39.4914,"lng":-0.4635,"pop":30508,"capital":false},{"name":"Chichaoua","country":"MA","lat":31.5435,"lng":-8.7627,"pop":30432,"capital":false},{"name":"Tahla","country":"MA","lat":34.0497,"lng":-4.4216,"pop":30279,"capital":false},{"name":"Puente-Genil","country":"ES","lat":37.3894,"lng":-4.7669,"pop":30241,"capital":false},{"name":"Arrentela","country":"PT","lat":38.625,"lng":-9.1015,"pop":30156,"capital":false},{"name":"Montijo","country":"PT","lat":38.7068,"lng":-8.9739,"pop":30011,"capital":false},{"name":"Xirivella","country":"ES","lat":39.4659,"lng":-0.4259,"pop":30002,"capital":false},{"name":"Atamaría","country":"ES","lat":37.5999,"lng":-0.8068,"pop":30000,"capital":false},{"name":"Charneca de Caparica","country":"PT","lat":38.6203,"lng":-9.1943,"pop":29763,"capital":false},{"name":"Xàtiva","country":"ES","lat":38.9904,"lng":-0.5185,"pop":29386,"capital":false},{"name":"Santarém","country":"PT","lat":39.2338,"lng":-8.6862,"pop":29385,"capital":false},{"name":"Alaquàs","country":"ES","lat":39.4557,"lng":-0.461,"pop":29341,"capital":false},{"name":"San Roque","country":"ES","lat":36.2098,"lng":-5.3845,"pop":29249,"capital":false},{"name":"Olhão","country":"PT","lat":37.0286,"lng":-7.8411,"pop":29239,"capital":false},{"name":"Totana","country":"ES","lat":37.7688,"lng":-1.5023,"pop":29211,"capital":false},{"name":"Crevillente","country":"ES","lat":38.2499,"lng":-0.8097,"pop":28957,"capital":false},{"name":"Marinha Grande","country":"PT","lat":39.7477,"lng":-8.9323,"pop":28916,"capital":false},{"name":"Sueca","country":"ES","lat":39.2026,"lng":-0.3111,"pop":28908,"capital":false},{"name":"Póvoa de Santa Iria","country":"PT","lat":38.861,"lng":-9.0645,"pop":28901,"capital":false},{"name":"Rota","country":"ES","lat":36.6236,"lng":-6.36,"pop":28848,"capital":false},{"name":"Sabaa Aiyoun","country":"MA","lat":33.9033,"lng":-5.3687,"pop":28693,"capital":false},{"name":"Carmona","country":"ES","lat":37.4713,"lng":-5.6461,"pop":28620,"capital":false},{"name":"Camas","country":"ES","lat":37.402,"lng":-6.0331,"pop":28620,"capital":false},{"name":"Ghazaouet","country":"DZ","lat":35.0958,"lng":-1.8577,"pop":28433,"capital":false},{"name":"Oliva","country":"ES","lat":38.9197,"lng":-0.1193,"pop":28419,"capital":false},{"name":"Rich","country":"MA","lat":32.2564,"lng":-4.5015,"pop":28382,"capital":false},{"name":"Massamá","country":"PT","lat":38.7528,"lng":-9.2811,"pop":28112,"capital":false},{"name":"Missour","country":"MA","lat":33.0489,"lng":-3.9895,"pop":27937,"capital":false},{"name":"Sfizef","country":"DZ","lat":35.2346,"lng":-0.2443,"pop":27914,"capital":false},{"name":"El Campello","country":"ES","lat":38.4288,"lng":-0.3977,"pop":27893,"capital":false},{"name":"Morón de la Frontera","country":"ES","lat":37.1208,"lng":-5.454,"pop":27844,"capital":false},{"name":"Nedroma","country":"DZ","lat":35.0136,"lng":-1.748,"pop":27742,"capital":false},{"name":"Zawyat ech Cheïkh","country":"MA","lat":32.6445,"lng":-5.9183,"pop":27723,"capital":false},{"name":"Almuñécar","country":"ES","lat":36.7325,"lng":-3.6917,"pop":27696,"capital":false},{"name":"Bouknadel","country":"MA","lat":34.1185,"lng":-6.7389,"pop":27577,"capital":false},{"name":"Bou Hanifia el Hamamat","country":"DZ","lat":35.3147,"lng":-0.0504,"pop":27576,"capital":false},{"name":"Aïn Attig","country":"MA","lat":33.8876,"lng":-6.9681,"pop":27384,"capital":false},{"name":"Tamansourt","country":"MA","lat":31.755,"lng":-8.11,"pop":27383,"capital":false},{"name":"Caldas da Rainha","country":"PT","lat":39.4033,"lng":-9.1384,"pop":27378,"capital":false},{"name":"Algemesí","country":"ES","lat":39.1904,"lng":-0.4357,"pop":27285,"capital":false},{"name":"Novelda","country":"ES","lat":38.3848,"lng":-0.7677,"pop":27135,"capital":false},{"name":"Alfornelos","country":"PT","lat":38.761,"lng":-9.2051,"pop":27093,"capital":false},{"name":"Catarroja","country":"ES","lat":39.4,"lng":-0.4,"pop":27035,"capital":false},{"name":"Villarrobledo","country":"ES","lat":39.2699,"lng":-2.6012,"pop":26642,"capital":false},{"name":"Echemmaia Est","country":"MA","lat":32.081,"lng":-8.6246,"pop":26538,"capital":false},{"name":"Oulad Barhil","country":"MA","lat":30.6404,"lng":-8.4687,"pop":26521,"capital":false},{"name":"Níjar","country":"ES","lat":36.9666,"lng":-2.2059,"pop":26516,"capital":false},{"name":"Hennaya","country":"DZ","lat":34.9514,"lng":-1.3681,"pop":26515,"capital":false},{"name":"Lebrija","country":"ES","lat":36.9208,"lng":-6.0753,"pop":26434,"capital":false},{"name":"Caravaca","country":"ES","lat":38.1056,"lng":-1.8634,"pop":26415,"capital":false},{"name":"El Amria","country":"DZ","lat":35.5244,"lng":-1.0158,"pop":26407,"capital":false},{"name":"Bir Jdid","country":"MA","lat":33.3736,"lng":-7.9946,"pop":26355,"capital":false},{"name":"Sintra","country":"PT","lat":38.801,"lng":-9.3783,"pop":26193,"capital":false},{"name":"Bou Tlelis","country":"DZ","lat":35.5727,"lng":-0.8996,"pop":26144,"capital":false},{"name":"Oulad Ayad","country":"MA","lat":32.2,"lng":-6.8,"pop":26008,"capital":false},{"name":"Zawyat an Nwaçer","country":"MA","lat":33.3798,"lng":-7.6193,"pop":25991,"capital":false},{"name":"Paço de Arcos","country":"PT","lat":38.6957,"lng":-9.2914,"pop":25974,"capital":false},{"name":"Hammam Bou Hadjar","country":"DZ","lat":35.3789,"lng":-0.9678,"pop":25912,"capital":false},{"name":"Lepe","country":"ES","lat":37.2548,"lng":-7.2043,"pop":25886,"capital":false},{"name":"Almassora","country":"ES","lat":39.9473,"lng":-0.0631,"pop":25831,"capital":false},{"name":"Gueznaia","country":"MA","lat":35.7021,"lng":-5.8904,"pop":25771,"capital":false},{"name":"Villanueva de la Serena","country":"ES","lat":38.9766,"lng":-5.7974,"pop":25759,"capital":false},{"name":"Almonte","country":"ES","lat":37.2647,"lng":-6.5167,"pop":25751,"capital":false},{"name":"Jumilla","country":"ES","lat":38.4792,"lng":-1.325,"pop":25685,"capital":false},{"name":"Quinta Do Conde","country":"PT","lat":38.5653,"lng":-9.0432,"pop":25606,"capital":false},{"name":"Quart de Poblet","country":"ES","lat":39.4814,"lng":-0.4394,"pop":25499,"capital":false},{"name":"Ouled Mimoun","country":"DZ","lat":34.9047,"lng":-1.0339,"pop":25377,"capital":false},{"name":"Onda","country":"ES","lat":39.965,"lng":-0.2604,"pop":24850,"capital":false},{"name":"Martos","country":"ES","lat":37.7211,"lng":-3.9726,"pop":24655,"capital":false},{"name":"Almansa","country":"ES","lat":38.8692,"lng":-1.0971,"pop":24537,"capital":false},{"name":"Mediouna","country":"MA","lat":33.4516,"lng":-7.5199,"pop":24506,"capital":false},{"name":"Torres Vedras","country":"PT","lat":39.0911,"lng":-9.2586,"pop":24443,"capital":false},{"name":"Quarteira","country":"PT","lat":37.0695,"lng":-8.1006,"pop":24420,"capital":false},{"name":"Adra","country":"ES","lat":36.7483,"lng":-3.0208,"pop":24373,"capital":false},{"name":"Moulay Ali Cherif","country":"MA","lat":31.2824,"lng":-4.2654,"pop":24251,"capital":false},{"name":"Alboraya","country":"ES","lat":39.5,"lng":-0.35,"pop":24222,"capital":false},{"name":"Cullera","country":"ES","lat":39.1667,"lng":-0.25,"pop":24121,"capital":false},{"name":"Ibi","country":"ES","lat":38.6253,"lng":-0.5722,"pop":24113,"capital":false},{"name":"Altea","country":"ES","lat":38.5988,"lng":-0.0515,"pop":23780,"capital":false},{"name":"San Pedro del Pinatar","country":"ES","lat":37.8357,"lng":-0.791,"pop":23738,"capital":false},{"name":"Estoril","country":"PT","lat":38.7057,"lng":-9.3977,"pop":23700,"capital":false},{"name":"Carnaxide","country":"PT","lat":38.7271,"lng":-9.2467,"pop":23698,"capital":false},{"name":"Porto de Mós","country":"PT","lat":37.0853,"lng":-8.6837,"pop":23648,"capital":false},{"name":"Selouane","country":"MA","lat":35.0731,"lng":-2.9423,"pop":23553,"capital":false},{"name":"Sidi Abdelli","country":"DZ","lat":35.0694,"lng":-1.1371,"pop":23543,"capital":false},{"name":"Paiporta","country":"ES","lat":39.4281,"lng":-0.4176,"pop":23519,"capital":false},{"name":"Los Barrios","country":"ES","lat":36.1848,"lng":-5.4921,"pop":23513,"capital":false},{"name":"Pinhal Novo","country":"PT","lat":38.6311,"lng":-8.9138,"pop":23510,"capital":false},{"name":"Monte Estoril","country":"PT","lat":38.7064,"lng":-9.4059,"pop":23375,"capital":false},{"name":"Baza","country":"ES","lat":37.4907,"lng":-2.7726,"pop":23359,"capital":false},{"name":"Alhaurín el Grande","country":"ES","lat":36.643,"lng":-4.6873,"pop":23319,"capital":false},{"name":"Sete Rios","country":"PT","lat":38.7413,"lng":-9.1613,"pop":23261,"capital":false},{"name":"Pontinha","country":"PT","lat":38.7677,"lng":-9.1994,"pop":23249,"capital":false},{"name":"Montilla","country":"ES","lat":37.5863,"lng":-4.638,"pop":23031,"capital":false},{"name":"São Jorge de Arroios","country":"PT","lat":38.7289,"lng":-9.1381,"pop":22990,"capital":false},{"name":"Azla","country":"MA","lat":35.553,"lng":-5.2447,"pop":22985,"capital":false},{"name":"Llíria","country":"ES","lat":39.6289,"lng":-0.5978,"pop":22972,"capital":false},{"name":"Vícar","country":"ES","lat":36.8316,"lng":-2.6427,"pop":22853,"capital":false},{"name":"Alcalá la Real","country":"ES","lat":37.4614,"lng":-3.923,"pop":22783,"capital":false},{"name":"El Gara","country":"MA","lat":33.2773,"lng":-7.2324,"pop":22773,"capital":false},{"name":"Tomares","country":"ES","lat":37.3728,"lng":-6.0459,"pop":22772,"capital":false},{"name":"Imi-n-Tanout","country":"MA","lat":31.1721,"lng":-8.8473,"pop":22753,"capital":false},{"name":"Priego de Córdoba","country":"ES","lat":37.4381,"lng":-4.1952,"pop":22585,"capital":false},{"name":"Barbate","country":"ES","lat":36.1924,"lng":-5.9219,"pop":22551,"capital":false},{"name":"Sidi Rahal","country":"MA","lat":33.4774,"lng":-7.9364,"pop":22525,"capital":false},{"name":"Mutxamel","country":"ES","lat":38.4158,"lng":-0.4453,"pop":22510,"capital":false},{"name":"Moscavide e Portela","country":"PT","lat":38.7793,"lng":-9.1022,"pop":22488,"capital":false},{"name":"New Fes","country":"MA","lat":34.0547,"lng":-5.0072,"pop":22451,"capital":false},{"name":"Conil de la Frontera","country":"ES","lat":36.2772,"lng":-6.0885,"pop":22427,"capital":false},{"name":"Parque das Nações","country":"PT","lat":38.7691,"lng":-9.0963,"pop":22382,"capital":false},{"name":"Portalegre","country":"PT","lat":39.2938,"lng":-7.4312,"pop":22368,"capital":false},{"name":"Ras el Ma","country":"MA","lat":33.974,"lng":-5.0961,"pop":22345,"capital":false},{"name":"Setti Fatma","country":"MA","lat":31.2251,"lng":-7.6775,"pop":22283,"capital":false},{"name":"Campo De Ourique","country":"PT","lat":38.7213,"lng":-9.1674,"pop":22140,"capital":false},{"name":"Ribarroja del Turia","country":"ES","lat":39.546,"lng":-0.5707,"pop":21992,"capital":false},{"name":"Torre del Mar","country":"ES","lat":36.742,"lng":-4.0929,"pop":21980,"capital":false},{"name":"Sant Joan d'Alacant","country":"ES","lat":38.4015,"lng":-0.4362,"pop":21939,"capital":false},{"name":"Moncada","country":"ES","lat":39.5456,"lng":-0.3955,"pop":21900,"capital":false},{"name":"Lavradio","country":"PT","lat":38.6681,"lng":-9.052,"pop":21877,"capital":false},{"name":"Coín","country":"ES","lat":36.6595,"lng":-4.7564,"pop":21866,"capital":false},{"name":"El Ksiba","country":"MA","lat":32.5729,"lng":-6.0195,"pop":21840,"capital":false},{"name":"Nerja","country":"ES","lat":36.7528,"lng":-3.8744,"pop":21811,"capital":false},{"name":"Carcaixent","country":"ES","lat":39.1218,"lng":-0.4481,"pop":21735,"capital":false},{"name":"El Mansouria","country":"MA","lat":33.7464,"lng":-7.3019,"pop":21679,"capital":false},{"name":"Loja","country":"ES","lat":37.1689,"lng":-4.1513,"pop":21574,"capital":false},{"name":"Ahfir","country":"MA","lat":34.9537,"lng":-2.1003,"pop":21435,"capital":false},{"name":"Azambuja","country":"PT","lat":39.0703,"lng":-8.8682,"pop":21422,"capital":false},{"name":"Pilar de la Horadada","country":"ES","lat":37.8659,"lng":-0.7926,"pop":21418,"capital":false},{"name":"Armilla","country":"ES","lat":37.1439,"lng":-3.6253,"pop":21380,"capital":false},{"name":"Cabra","country":"ES","lat":37.4725,"lng":-4.4421,"pop":21352,"capital":false},{"name":"Isla Cristina","country":"ES","lat":37.2,"lng":-7.3167,"pop":21324,"capital":false},{"name":"Cártama","country":"ES","lat":36.7107,"lng":-4.633,"pop":21313,"capital":false},{"name":"Bensekrane","country":"DZ","lat":35.0747,"lng":-1.2243,"pop":21283,"capital":false},{"name":"Caparica","country":"PT","lat":38.6618,"lng":-9.2003,"pop":21167,"capital":false},{"name":"Areeiro","country":"PT","lat":38.741,"lng":-9.138,"pop":21160,"capital":false},{"name":"Palma del Río","country":"ES","lat":37.7002,"lng":-5.2812,"pop":21159,"capital":false},{"name":"Las Torres de Cotillas","country":"ES","lat":38.0282,"lng":-1.2419,"pop":21062,"capital":false},{"name":"Belas","country":"PT","lat":38.7767,"lng":-9.2635,"pop":21019,"capital":false},{"name":"l'Alfàs del Pi","country":"ES","lat":38.5806,"lng":-0.1032,"pop":21011,"capital":false},{"name":"Al Brouj","country":"MA","lat":32.5047,"lng":-7.1924,"pop":21004,"capital":false},{"name":"Laranjeiro","country":"PT","lat":38.656,"lng":-9.1538,"pop":20988,"capital":false},{"name":"Baena","country":"ES","lat":37.6167,"lng":-4.3224,"pop":20915,"capital":false},{"name":"Linda-a-Velha","country":"PT","lat":38.7145,"lng":-9.2422,"pop":20895,"capital":false},{"name":"Imouzzer Kandar","country":"MA","lat":33.7287,"lng":-5.0109,"pop":20884,"capital":false},{"name":"Ayamonte","country":"ES","lat":37.2133,"lng":-7.4081,"pop":20883,"capital":false},{"name":"Alfafar","country":"ES","lat":39.4167,"lng":-0.3833,"pop":20853,"capital":false},{"name":"Douar Toulal","country":"MA","lat":33.8848,"lng":-5.5966,"pop":20831,"capital":false},{"name":"Maracena","country":"ES","lat":37.2076,"lng":-3.6349,"pop":20815,"capital":false},{"name":"Falagueira","country":"PT","lat":38.7639,"lng":-9.228,"pop":20788,"capital":false},{"name":"San Juan de Aznalfarache","country":"ES","lat":37.3581,"lng":-6.0373,"pop":20779,"capital":false},{"name":"Bétera","country":"ES","lat":39.5911,"lng":-0.4615,"pop":20740,"capital":false},{"name":"Almoradí","country":"ES","lat":38.1088,"lng":-0.792,"pop":20542,"capital":false},{"name":"Rojales","country":"ES","lat":38.088,"lng":-0.7254,"pop":20510,"capital":false},{"name":"Mairena del Alcor","country":"ES","lat":37.373,"lng":-5.7495,"pop":20510,"capital":false},{"name":"Karia Ba Mohamed","country":"MA","lat":34.3709,"lng":-5.2138,"pop":20487,"capital":false},{"name":"Laranjeiro","country":"PT","lat":37.068,"lng":-7.8078,"pop":20473,"capital":false},{"name":"Reçani","country":"MA","lat":31.2832,"lng":-4.2656,"pop":20469,"capital":false},{"name":"La Pobla de Vallbona","country":"ES","lat":39.5975,"lng":-0.5547,"pop":20431,"capital":false},{"name":"Carcavelos","country":"PT","lat":38.691,"lng":-9.3221,"pop":20366,"capital":false},{"name":"Alcântara","country":"PT","lat":38.701,"lng":-9.1714,"pop":20267,"capital":false},{"name":"Sebt Gzoula","country":"MA","lat":32.1078,"lng":-9.0837,"pop":20248,"capital":false},{"name":"Requena","country":"ES","lat":39.4883,"lng":-1.1004,"pop":20227,"capital":false},{"name":"Aspe","country":"ES","lat":38.3451,"lng":-0.7672,"pop":20180,"capital":false},{"name":"Mers el Kebir","country":"DZ","lat":35.7279,"lng":-0.7081,"pop":20178,"capital":false},{"name":"Camarate","country":"PT","lat":38.8036,"lng":-9.1281,"pop":20177,"capital":false},{"name":"Bni Bouayach","country":"MA","lat":35.1051,"lng":-3.8403,"pop":19951,"capital":false},{"name":"Entroncamento","country":"PT","lat":39.4667,"lng":-8.4667,"pop":19887,"capital":false},{"name":"Alhama de Murcia","country":"ES","lat":37.851,"lng":-1.4251,"pop":19860,"capital":false},{"name":"Beni Mester","country":"DZ","lat":34.8705,"lng":-1.4232,"pop":19808,"capital":false},{"name":"Picassent","country":"ES","lat":39.3635,"lng":-0.4595,"pop":19786,"capital":false},{"name":"Marchena","country":"ES","lat":37.329,"lng":-5.4168,"pop":19768,"capital":false},{"name":"Beni Yakhlef","country":"MA","lat":33.6841,"lng":-7.3392,"pop":19622,"capital":false},{"name":"Moguer","country":"ES","lat":37.2756,"lng":-6.8385,"pop":19569,"capital":false},{"name":"El Arahal","country":"ES","lat":37.2627,"lng":-5.5453,"pop":19565,"capital":false},{"name":"Piedade","country":"PT","lat":38.6701,"lng":-9.1585,"pop":19472,"capital":false},{"name":"El Malah","country":"DZ","lat":35.3914,"lng":-1.0924,"pop":19415,"capital":false},{"name":"Chipiona","country":"ES","lat":36.7366,"lng":-6.437,"pop":19386,"capital":false},{"name":"Lora del Río","country":"ES","lat":37.659,"lng":-5.5275,"pop":19352,"capital":false},{"name":"Algés","country":"PT","lat":38.7025,"lng":-9.2294,"pop":19327,"capital":false},{"name":"El Viso del Alcor","country":"ES","lat":37.3911,"lng":-5.7199,"pop":19191,"capital":false},{"name":"Manzanares","country":"ES","lat":38.9992,"lng":-3.3699,"pop":19186,"capital":false},{"name":"Tomar","country":"PT","lat":39.602,"lng":-8.4092,"pop":19168,"capital":false},{"name":"Puçol","country":"ES","lat":39.6167,"lng":-0.3,"pop":19018,"capital":false},{"name":"Oulmes","country":"MA","lat":33.4258,"lng":-6.0014,"pop":19014,"capital":false},{"name":"Aoulouz","country":"MA","lat":30.6731,"lng":-8.1809,"pop":19010,"capital":false},{"name":"Zubia","country":"ES","lat":37.1191,"lng":-3.584,"pop":18995,"capital":false},{"name":"Silla","country":"ES","lat":39.3626,"lng":-0.4117,"pop":18979,"capital":false},{"name":"São João da Talha","country":"PT","lat":38.8238,"lng":-9.0972,"pop":18925,"capital":false},{"name":"Azeitão","country":"PT","lat":38.5192,"lng":-9.0139,"pop":18877,"capital":false},{"name":"Bailén","country":"ES","lat":38.0964,"lng":-3.7779,"pop":18785,"capital":false},{"name":"Guadix","country":"ES","lat":37.2993,"lng":-3.1392,"pop":18718,"capital":false},{"name":"Asni","country":"MA","lat":31.2465,"lng":-7.9789,"pop":18674,"capital":false},{"name":"Bormujos","country":"ES","lat":37.3736,"lng":-6.0723,"pop":18590,"capital":false},{"name":"Santa Iria da Azóia","country":"PT","lat":38.8411,"lng":-9.0991,"pop":18573,"capital":false},{"name":"Daimiel","country":"ES","lat":39.07,"lng":-3.615,"pop":18527,"capital":false},{"name":"Kelaat Mgouna","country":"MA","lat":31.2457,"lng":-6.1326,"pop":18515,"capital":false},{"name":"Méchouar-Kasba","country":"MA","lat":31.6008,"lng":-7.9865,"pop":18410,"capital":false},{"name":"Vila Franca de Xira","country":"PT","lat":38.9553,"lng":-8.9897,"pop":18355,"capital":false},{"name":"Ribat Al Khayr","country":"MA","lat":33.8152,"lng":-4.4072,"pop":18278,"capital":false},{"name":"Archena","country":"ES","lat":38.1163,"lng":-1.3004,"pop":18202,"capital":false},{"name":"Tavernes de la Valldigna","country":"ES","lat":39.072,"lng":-0.2662,"pop":18195,"capital":false},{"name":"Agouraï","country":"MA","lat":33.63,"lng":-5.58,"pop":18182,"capital":false},{"name":"Tarifa","country":"ES","lat":36.0139,"lng":-5.6069,"pop":18169,"capital":false},{"name":"Tamallalt","country":"MA","lat":31.819,"lng":-7.5145,"pop":18060,"capital":false},{"name":"L'Eliana","country":"ES","lat":39.5667,"lng":-0.5333,"pop":18050,"capital":false},{"name":"Carnide","country":"PT","lat":38.7667,"lng":-9.1833,"pop":18028,"capital":false},{"name":"Aljaraque","country":"ES","lat":37.2699,"lng":-7.0231,"pop":17960,"capital":false},{"name":"Loulé","country":"PT","lat":37.1377,"lng":-8.0197,"pop":17930,"capital":false},{"name":"Goulmima","country":"MA","lat":31.6923,"lng":-4.9526,"pop":17929,"capital":false},{"name":"Callosa de Segura","country":"ES","lat":38.125,"lng":-0.8782,"pop":17924,"capital":false},{"name":"Cartaya","country":"ES","lat":37.2811,"lng":-7.1507,"pop":17905,"capital":false},{"name":"Outat Oulad Al Haj","country":"MA","lat":33.345,"lng":-3.7039,"pop":17895,"capital":false},{"name":"la Nucia","country":"ES","lat":38.6137,"lng":-0.1269,"pop":17874,"capital":false},{"name":"Osuna","country":"ES","lat":37.2376,"lng":-5.1031,"pop":17851,"capital":false},{"name":"Moita","country":"PT","lat":38.6508,"lng":-8.9904,"pop":17795,"capital":false},{"name":"Aïn Beni Mathar","country":"MA","lat":34.0097,"lng":-2.0324,"pop":17787,"capital":false},{"name":"Arroyo de la Miel","country":"ES","lat":36.5992,"lng":-4.535,"pop":17763,"capital":false},{"name":"La Unión","country":"ES","lat":37.6192,"lng":-0.878,"pop":17737,"capital":false},{"name":"Sacavém","country":"PT","lat":38.792,"lng":-9.108,"pop":17718,"capital":false},{"name":"Pozoblanco","country":"ES","lat":38.3791,"lng":-4.8483,"pop":17669,"capital":false},{"name":"Huercal-Overa","country":"ES","lat":37.3892,"lng":-1.943,"pop":17645,"capital":false},{"name":"Ramada","country":"PT","lat":38.8037,"lng":-9.1877,"pop":17535,"capital":false},{"name":"Boujniba","country":"MA","lat":32.9005,"lng":-6.7746,"pop":17504,"capital":false},{"name":"Pombal","country":"PT","lat":39.9167,"lng":-8.6285,"pop":17355,"capital":false},{"name":"Mers El Kheir","country":"MA","lat":33.8626,"lng":-6.9296,"pop":17352,"capital":false},{"name":"Sidi Allal El Bahraoui","country":"MA","lat":34.0077,"lng":-6.5308,"pop":17325,"capital":false},{"name":"Quelfes","country":"PT","lat":37.06,"lng":-7.8216,"pop":17253,"capital":false},{"name":"Navalmoral de la Mata","country":"ES","lat":39.8916,"lng":-5.5406,"pop":17228,"capital":false},{"name":"Lalla Mimouna","country":"MA","lat":34.8461,"lng":-6.0664,"pop":17217,"capital":false},{"name":"Parede","country":"PT","lat":38.6928,"lng":-9.3541,"pop":17212,"capital":false},{"name":"Castilleja de la Cuesta","country":"ES","lat":37.3859,"lng":-6.0526,"pop":17150,"capital":false},{"name":"Boumia","country":"MA","lat":32.7236,"lng":-5.1025,"pop":17091,"capital":false},{"name":"Albolote","country":"ES","lat":37.2309,"lng":-3.6551,"pop":17089,"capital":false},{"name":"Alfragide","country":"PT","lat":38.732,"lng":-9.2192,"pop":17044,"capital":false},{"name":"Ubrique","country":"ES","lat":36.6778,"lng":-5.446,"pop":16979,"capital":false},{"name":"Mula","country":"ES","lat":38.041,"lng":-1.4901,"pop":16941,"capital":false},{"name":"Palmela","country":"PT","lat":38.569,"lng":-8.9013,"pop":16934,"capital":false},{"name":"Torrox","country":"ES","lat":36.7579,"lng":-3.9523,"pop":16890,"capital":false},{"name":"El Harhoura","country":"MA","lat":33.9448,"lng":-6.9311,"pop":16773,"capital":false},{"name":"’Aïn el Berd","country":"DZ","lat":35.364,"lng":-0.5128,"pop":16548,"capital":false},{"name":"Belém","country":"PT","lat":38.6987,"lng":-9.1929,"pop":16546,"capital":false},{"name":"Zafra","country":"ES","lat":38.4254,"lng":-6.4173,"pop":16424,"capital":false},{"name":"Midar","country":"MA","lat":34.9403,"lng":-3.5331,"pop":16402,"capital":false},{"name":"Las Cabezas de San Juan","country":"ES","lat":36.9838,"lng":-5.9393,"pop":16379,"capital":false},{"name":"Las Gabias","country":"ES","lat":37.1355,"lng":-3.6703,"pop":16369,"capital":false},{"name":"Guardamar del Segura","country":"ES","lat":38.0903,"lng":-0.6556,"pop":16329,"capital":false},{"name":"La Algaba","country":"ES","lat":37.4633,"lng":-6.0111,"pop":16301,"capital":false},{"name":"Baeza","country":"ES","lat":37.9938,"lng":-3.471,"pop":16253,"capital":false},{"name":"Montijo","country":"ES","lat":38.9084,"lng":-6.6178,"pop":16236,"capital":false},{"name":"Driouch","country":"MA","lat":34.9771,"lng":-3.379,"pop":16096,"capital":false},{"name":"Vialonga","country":"PT","lat":38.8721,"lng":-9.078,"pop":16088,"capital":false},{"name":"Buraca","country":"PT","lat":38.7333,"lng":-9.2,"pop":16081,"capital":false},{"name":"La Roda","country":"ES","lat":39.2074,"lng":-2.1572,"pop":16060,"capital":false},{"name":"Barrio de Peral","country":"ES","lat":37.6251,"lng":-0.9879,"pop":15937,"capital":false},{"name":"Albufeira","country":"PT","lat":37.0882,"lng":-8.2503,"pop":15851,"capital":false},{"name":"Alcobaça","country":"PT","lat":39.5522,"lng":-8.9775,"pop":15800,"capital":false},{"name":"Amizmiz","country":"MA","lat":31.2167,"lng":-8.2318,"pop":15685,"capital":false},{"name":"Los Alcázares","country":"ES","lat":37.7443,"lng":-0.8504,"pop":15674,"capital":false},{"name":"Peniche","country":"PT","lat":39.3558,"lng":-9.3811,"pop":15662,"capital":false},{"name":"Ait Yazza","country":"MA","lat":30.5019,"lng":-8.7992,"pop":15570,"capital":false},{"name":"Ben Taieb","country":"MA","lat":35.0443,"lng":-3.4542,"pop":15568,"capital":false},{"name":"Carlet","country":"ES","lat":39.2266,"lng":-0.5214,"pop":15527,"capital":false},{"name":"La Solana","country":"ES","lat":38.9442,"lng":-3.2381,"pop":15523,"capital":false},{"name":"Campo Grande","country":"PT","lat":38.7547,"lng":-9.1665,"pop":15514,"capital":false},{"name":"Oulad Tayeb","country":"MA","lat":33.9463,"lng":-4.9951,"pop":15491,"capital":false},{"name":"Aguelmous","country":"MA","lat":33.1614,"lng":-5.8463,"pop":15480,"capital":false},{"name":"Albal","country":"ES","lat":39.4,"lng":-0.4167,"pop":15443,"capital":false},{"name":"Santafé","country":"ES","lat":37.1886,"lng":-3.7189,"pop":15430,"capital":false},{"name":"Atarfe","country":"ES","lat":37.2248,"lng":-3.6869,"pop":15399,"capital":false},{"name":"Santomera","country":"ES","lat":38.0615,"lng":-1.0488,"pop":15319,"capital":false},{"name":"Miguelturra","country":"ES","lat":38.9644,"lng":-3.8905,"pop":15316,"capital":false},{"name":"Benetússer","country":"ES","lat":39.4227,"lng":-0.3969,"pop":15313,"capital":false},{"name":"La Carolina","country":"ES","lat":38.2756,"lng":-3.6153,"pop":15306,"capital":false},{"name":"Massamagrell","country":"ES","lat":39.5667,"lng":-0.3333,"pop":15210,"capital":false},{"name":"Tavira","country":"PT","lat":37.1273,"lng":-7.6486,"pop":15133,"capital":false},{"name":"Berja","country":"ES","lat":36.8469,"lng":-2.9497,"pop":15035,"capital":false},{"name":"Cehegín","country":"ES","lat":38.0924,"lng":-1.7985,"pop":15022,"capital":false},{"name":"Campo de Criptana","country":"ES","lat":39.4046,"lng":-3.1249,"pop":15006,"capital":false},{"name":"Torres Novas","country":"PT","lat":39.4758,"lng":-8.5435,"pop":15002,"capital":false},{"name":"Puerto Lumbreras","country":"ES","lat":37.5633,"lng":-1.8097,"pop":14981,"capital":false},{"name":"Huércal de Almería","country":"ES","lat":36.8851,"lng":-2.4376,"pop":14937,"capital":false},{"name":"Póvoa de Santo Adrião","country":"PT","lat":38.8,"lng":-9.1667,"pop":14897,"capital":false},{"name":"Sidi Lmokhtar","country":"MA","lat":31.5774,"lng":-9.0157,"pop":14803,"capital":false},{"name":"Campolide","country":"PT","lat":38.7295,"lng":-9.1649,"pop":14787,"capital":false},{"name":"Punta Umbría","country":"ES","lat":37.1821,"lng":-6.966,"pop":14708,"capital":false},{"name":"Torre del Campo","country":"ES","lat":37.7705,"lng":-3.8973,"pop":14627,"capital":false},{"name":"Naama","country":"DZ","lat":33.2667,"lng":-0.3167,"pop":14624,"capital":false},{"name":"Targuist","country":"MA","lat":34.9377,"lng":-4.3186,"pop":14621,"capital":false},{"name":"Zemamra","country":"MA","lat":32.6229,"lng":-8.7023,"pop":14500,"capital":false},{"name":"Oulad Frej","country":"MA","lat":32.9596,"lng":-8.2274,"pop":14492,"capital":false},{"name":"Afourer","country":"MA","lat":32.2072,"lng":-6.5382,"pop":14397,"capital":false},{"name":"Bouizazarene Ihaddadene","country":"MA","lat":35.1578,"lng":-2.9738,"pop":14326,"capital":false},{"name":"Ajuda","country":"PT","lat":38.7003,"lng":-9.208,"pop":14306,"capital":false},{"name":"Costa de Caparica","country":"PT","lat":38.6446,"lng":-9.2356,"pop":14231,"capital":false},{"name":"Cadaval","country":"PT","lat":39.243,"lng":-9.1033,"pop":14228,"capital":false},{"name":"Bhalil","country":"MA","lat":33.8519,"lng":-4.8723,"pop":14192,"capital":false},{"name":"Torredonjimeno","country":"ES","lat":37.7675,"lng":-3.9578,"pop":14181,"capital":false},{"name":"Chiva","country":"ES","lat":39.4667,"lng":-0.7167,"pop":14167,"capital":false},{"name":"Samora Correia","country":"PT","lat":38.9371,"lng":-8.8718,"pop":14154,"capital":false},{"name":"Bou Fekrane","country":"MA","lat":33.761,"lng":-5.4875,"pop":14131,"capital":false},{"name":"Bollullos par del Condado","country":"ES","lat":37.3413,"lng":-6.5397,"pop":14114,"capital":false},{"name":"Sidi Zouine","country":"MA","lat":31.6691,"lng":-8.3454,"pop":14017,"capital":false},{"name":"Vera","country":"ES","lat":37.2435,"lng":-1.859,"pop":13985,"capital":false},{"name":"Costa da Caparica","country":"PT","lat":38.6413,"lng":-9.2322,"pop":13968,"capital":false},{"name":"Graça","country":"PT","lat":38.7176,"lng":-9.1295,"pop":13956,"capital":false},{"name":"Canals","country":"ES","lat":38.9625,"lng":-0.5844,"pop":13941,"capital":false},{"name":"Sidi Bou Lanouar","country":"MA","lat":32.86,"lng":-6.88,"pop":13929,"capital":false},{"name":"Aguadulce","country":"ES","lat":36.8141,"lng":-2.5723,"pop":13886,"capital":false},{"name":"Porto Salvo","country":"PT","lat":38.7229,"lng":-9.3047,"pop":13867,"capital":false},{"name":"Manilva","country":"ES","lat":36.3765,"lng":-5.2503,"pop":13813,"capital":false},{"name":"El Menzel","country":"MA","lat":33.8376,"lng":-4.5447,"pop":13803,"capital":false},{"name":"Loudaya","country":"MA","lat":31.6335,"lng":-8.2489,"pop":13775,"capital":false},{"name":"Reclamation Areas","country":"GI","lat":36.144,"lng":-5.3569,"pop":13690,"capital":false},{"name":"Abrantes","country":"PT","lat":39.4667,"lng":-8.2,"pop":13646,"capital":false},{"name":"Moulay Abdallah","country":"MA","lat":33.1966,"lng":-8.5881,"pop":13601,"capital":false},{"name":"Abadla","country":"DZ","lat":31.019,"lng":-2.7239,"pop":13544,"capital":false},{"name":"Valdés","country":"ES","lat":36.7584,"lng":-4.2423,"pop":13529,"capital":false},{"name":"Pinos Puente","country":"ES","lat":37.2511,"lng":-3.7497,"pop":13515,"capital":false},{"name":"Aguilar","country":"ES","lat":37.5148,"lng":-4.6572,"pop":13509,"capital":false},{"name":"Nules","country":"ES","lat":39.8536,"lng":-0.1564,"pop":13490,"capital":false},{"name":"Gines","country":"ES","lat":37.3865,"lng":-6.0773,"pop":13471,"capital":false},{"name":"Boumalne Dades","country":"MA","lat":31.3799,"lng":-5.9882,"pop":13461,"capital":false},{"name":"El Guerdane","country":"MA","lat":30.3776,"lng":-9.02,"pop":13445,"capital":false},{"name":"Jorf","country":"MA","lat":31.4944,"lng":-4.406,"pop":13433,"capital":false},{"name":"Ar Rommani","country":"MA","lat":33.5284,"lng":-6.6035,"pop":13428,"capital":false},{"name":"San Antonio Abad","country":"ES","lat":37.6177,"lng":-0.9966,"pop":13395,"capital":false},{"name":"Pilas","country":"ES","lat":37.3034,"lng":-6.301,"pop":13386,"capital":false},{"name":"Alhos Vedros","country":"PT","lat":38.6549,"lng":-9.0237,"pop":13384,"capital":false},{"name":"Villafranca de los Barros","country":"ES","lat":38.5614,"lng":-6.3381,"pop":13356,"capital":false},{"name":"Zaouïa Aït Ishak","country":"MA","lat":32.7618,"lng":-5.7253,"pop":13299,"capital":false},{"name":"Godella","country":"ES","lat":39.5333,"lng":-0.4167,"pop":13240,"capital":false},{"name":"Alginet","country":"ES","lat":39.2667,"lng":-0.4667,"pop":13226,"capital":false},{"name":"Olhos de Água","country":"PT","lat":37.0902,"lng":-8.1917,"pop":13221,"capital":false},{"name":"Tahannout","country":"MA","lat":31.3524,"lng":-7.9501,"pop":13215,"capital":false},{"name":"La Carlota","country":"ES","lat":37.6736,"lng":-4.9312,"pop":13182,"capital":false},{"name":"Socuéllamos","country":"ES","lat":39.2858,"lng":-2.792,"pop":13163,"capital":false},{"name":"Ogíjares","country":"ES","lat":37.1191,"lng":-3.6077,"pop":13119,"capital":false},{"name":"Torrijos","country":"ES","lat":39.982,"lng":-4.2835,"pop":13117,"capital":false},{"name":"Abarán","country":"ES","lat":38.2055,"lng":-1.3991,"pop":13030,"capital":false},{"name":"Cuevas del Almanzora","country":"ES","lat":37.2968,"lng":-1.8822,"pop":13025,"capital":false},{"name":"Ifrane","country":"MA","lat":31.7022,"lng":-6.3494,"pop":13000,"capital":false},{"name":"Vejer de la Frontera","country":"ES","lat":36.2521,"lng":-5.9672,"pop":12973,"capital":false},{"name":"Alora","country":"ES","lat":36.8236,"lng":-4.7057,"pop":12951,"capital":false},{"name":"Coria","country":"ES","lat":39.9841,"lng":-6.536,"pop":12896,"capital":false},{"name":"Montemor-o-Novo","country":"PT","lat":38.6481,"lng":-8.2145,"pop":12854,"capital":false},{"name":"Sines","country":"PT","lat":37.9562,"lng":-8.8698,"pop":12791,"capital":false},{"name":"Valverde del Camino","country":"ES","lat":37.5751,"lng":-6.7543,"pop":12780,"capital":false},{"name":"Baixa","country":"PT","lat":38.7114,"lng":-9.1372,"pop":12765,"capital":false},{"name":"Sanlúcar la Mayor","country":"ES","lat":37.3876,"lng":-6.2035,"pop":12749,"capital":false},{"name":"Salobreña","country":"ES","lat":36.7428,"lng":-3.5872,"pop":12747,"capital":false},{"name":"Beato António","country":"PT","lat":38.7333,"lng":-9.1033,"pop":12737,"capital":false},{"name":"Quintanar de la Orden","country":"ES","lat":39.5937,"lng":-3.0417,"pop":12736,"capital":false},{"name":"Ourém","country":"PT","lat":39.6417,"lng":-8.5919,"pop":12729,"capital":false},{"name":"Moulay Driss Zerhoun","country":"MA","lat":34.0555,"lng":-5.5213,"pop":12683,"capital":false},{"name":"Espartinas","country":"ES","lat":37.3815,"lng":-6.1258,"pop":12648,"capital":false},{"name":"Estepa","country":"ES","lat":37.2926,"lng":-4.879,"pop":12632,"capital":false},{"name":"Dar Ould Zidouh","country":"MA","lat":32.3125,"lng":-6.9049,"pop":12547,"capital":false},{"name":"Villamartín","country":"ES","lat":36.8598,"lng":-5.6448,"pop":12526,"capital":false},{"name":"Figuig","country":"MA","lat":32.1089,"lng":-1.2285,"pop":12516,"capital":false},{"name":"Bullas","country":"ES","lat":38.0467,"lng":-1.6723,"pop":12493,"capital":false},{"name":"Bolaños de Calatrava","country":"ES","lat":38.9069,"lng":-3.6634,"pop":12490,"capital":false},{"name":"Brenes","country":"ES","lat":37.5494,"lng":-5.8714,"pop":12460,"capital":false},{"name":"Utiel","country":"ES","lat":39.5667,"lng":-1.2,"pop":12420,"capital":false},{"name":"Boudenib","country":"MA","lat":31.9523,"lng":-3.606,"pop":12419,"capital":false},{"name":"Jem’at Oulad ’Abbou","country":"MA","lat":33.1148,"lng":-7.9336,"pop":12338,"capital":false},{"name":"Jamaat Shaim","country":"MA","lat":32.3469,"lng":-8.8425,"pop":12285,"capital":false},{"name":"Mafra","country":"PT","lat":38.9379,"lng":-9.3276,"pop":12259,"capital":false},{"name":"Gibraleón","country":"ES","lat":37.3763,"lng":-6.9689,"pop":12258,"capital":false},{"name":"Tissa","country":"MA","lat":34.2879,"lng":-4.6637,"pop":12224,"capital":false},{"name":"Benifaió","country":"ES","lat":39.2844,"lng":-0.426,"pop":12204,"capital":false},{"name":"Bairro da Madre de Deus","country":"PT","lat":38.7354,"lng":-9.1176,"pop":12183,"capital":false},{"name":"Aldeia de Paio Pires","country":"PT","lat":38.6167,"lng":-9.0833,"pop":12179,"capital":false},{"name":"Monóvar","country":"ES","lat":38.4381,"lng":-0.8406,"pop":12175,"capital":false},{"name":"Jódar","country":"ES","lat":37.8406,"lng":-3.3526,"pop":12157,"capital":false},{"name":"Rio Maior","country":"PT","lat":39.3373,"lng":-8.9391,"pop":12064,"capital":false},{"name":"Churriana de la Vega","country":"ES","lat":37.145,"lng":-3.6462,"pop":12001,"capital":false},{"name":"Principe","country":"ES","lat":35.8792,"lng":-5.3469,"pop":12000,"capital":false},{"name":"Olivenza","country":"ES","lat":38.6827,"lng":-7.1005,"pop":11977,"capital":false},{"name":"Barcarena","country":"PT","lat":38.7325,"lng":-9.28,"pop":11968,"capital":false},{"name":"Bni Drar","country":"MA","lat":34.8601,"lng":-1.9898,"pop":11939,"capital":false},{"name":"L'Alcúdia","country":"ES","lat":39.1972,"lng":-0.5054,"pop":11938,"capital":false},{"name":"Peñarroya-Pueblonuevo","country":"ES","lat":38.3,"lng":-5.2667,"pop":11883,"capital":false},{"name":"La Puebla del Río","country":"ES","lat":37.2679,"lng":-6.0626,"pop":11879,"capital":false},{"name":"Oulad Embarek","country":"MA","lat":32.2716,"lng":-6.4497,"pop":11840,"capital":false},{"name":"Fátima","country":"PT","lat":39.6207,"lng":-8.6524,"pop":11798,"capital":false},{"name":"Albatera","country":"ES","lat":38.179,"lng":-0.8706,"pop":11745,"capital":false},{"name":"Sidi Ben Adda","country":"DZ","lat":35.3059,"lng":-1.1814,"pop":11695,"capital":false},{"name":"Agdz","country":"MA","lat":30.6936,"lng":-6.4463,"pop":11663,"capital":false},{"name":"Medina Sidonia","country":"ES","lat":36.457,"lng":-5.9272,"pop":11658,"capital":false},{"name":"Hattane","country":"MA","lat":32.8409,"lng":-6.8003,"pop":11594,"capital":false},{"name":"Vila Real de Santo António","country":"PT","lat":37.195,"lng":-7.4177,"pop":11560,"capital":false},{"name":"Tamanar","country":"MA","lat":31.0009,"lng":-9.678,"pop":11557,"capital":false},{"name":"Almeirim","country":"PT","lat":39.2084,"lng":-8.6263,"pop":11557,"capital":false},{"name":"Cocentaina","country":"ES","lat":38.7398,"lng":-0.4398,"pop":11467,"capital":false},{"name":"Béni Abbès","country":"DZ","lat":30.1331,"lng":-2.1661,"pop":11416,"capital":false},{"name":"Madridejos","country":"ES","lat":39.4682,"lng":-3.532,"pop":11404,"capital":false},{"name":"Oued Amlil","country":"MA","lat":34.2,"lng":-4.28,"pop":11362,"capital":false},{"name":"Huétor Vega","country":"ES","lat":37.1453,"lng":-3.5696,"pop":11324,"capital":false},{"name":"Sebt Bni Garfett","country":"MA","lat":35.258,"lng":-5.8333,"pop":11311,"capital":false},{"name":"Villacarrillo","country":"ES","lat":38.1156,"lng":-3.0848,"pop":11294,"capital":false},{"name":"Almancil","country":"PT","lat":37.0869,"lng":-8.0307,"pop":11291,"capital":false},{"name":"Sonseca","country":"ES","lat":39.6775,"lng":-3.9745,"pop":11265,"capital":false},{"name":"Vendas Novas","country":"PT","lat":38.6771,"lng":-8.4579,"pop":11248,"capital":false},{"name":"Khenichet-sur Ouerrha","country":"MA","lat":34.4404,"lng":-5.6788,"pop":11241,"capital":false},{"name":"Santo André","country":"PT","lat":39.0553,"lng":-8.2441,"pop":11213,"capital":false},{"name":"Villarrubia de los Ojos","country":"ES","lat":39.2209,"lng":-3.608,"pop":11191,"capital":false},{"name":"Óbidos","country":"PT","lat":39.3606,"lng":-9.1567,"pop":11187,"capital":false},{"name":"Albox","country":"ES","lat":37.3886,"lng":-2.1495,"pop":11178,"capital":false},{"name":"Alberic","country":"ES","lat":39.1167,"lng":-0.5167,"pop":11175,"capital":false},{"name":"São Brás de Alportel","country":"PT","lat":37.1531,"lng":-7.8875,"pop":11153,"capital":false},{"name":"Sobreda","country":"PT","lat":38.6496,"lng":-9.1898,"pop":11146,"capital":false},{"name":"Santo António da Charneca","country":"PT","lat":38.6256,"lng":-9.0304,"pop":11143,"capital":false},{"name":"Alcaudete","country":"ES","lat":37.5909,"lng":-4.0824,"pop":11135,"capital":false},{"name":"Pego","country":"ES","lat":38.8431,"lng":-0.1171,"pop":11133,"capital":false},{"name":"Palos de la Frontera","country":"ES","lat":37.2346,"lng":-6.8947,"pop":11112,"capital":false},{"name":"Guillena","country":"ES","lat":37.5426,"lng":-6.0563,"pop":11109,"capital":false},{"name":"Ponte de Sôr","country":"PT","lat":39.2496,"lng":-8.0101,"pop":11062,"capital":false},{"name":"Almis du Guigou","country":"MA","lat":33.3874,"lng":-4.8293,"pop":11060,"capital":false},{"name":"Aïn Cheggag","country":"MA","lat":33.8929,"lng":-5.037,"pop":11055,"capital":false},{"name":"Picanya","country":"ES","lat":39.4333,"lng":-0.4333,"pop":11053,"capital":false},{"name":"La Puebla de Cazalla","country":"ES","lat":37.2216,"lng":-5.3115,"pop":11033,"capital":false},{"name":"Benaguasil","country":"ES","lat":39.6,"lng":-0.5833,"pop":11011,"capital":false},{"name":"Zoualet","country":"MA","lat":33.9366,"lng":-5.4651,"pop":10985,"capital":false},{"name":"Caneças","country":"PT","lat":38.8132,"lng":-9.2268,"pop":10978,"capital":false},{"name":"Mancha Real","country":"ES","lat":37.7863,"lng":-3.6123,"pop":10972,"capital":false},{"name":"Beniel","country":"ES","lat":38.0464,"lng":-1.0023,"pop":10933,"capital":false},{"name":"Consuegra","country":"ES","lat":39.4625,"lng":-3.608,"pop":10932,"capital":false},{"name":"Sidi Yahya Zaer","country":"MA","lat":33.8298,"lng":-6.9126,"pop":10926,"capital":false},{"name":"Silves","country":"PT","lat":37.1892,"lng":-8.4382,"pop":10917,"capital":false},{"name":"Peligros","country":"ES","lat":37.2323,"lng":-3.629,"pop":10910,"capital":false},{"name":"Alcalá del Río","country":"ES","lat":37.5178,"lng":-5.9818,"pop":10869,"capital":false},{"name":"Vale da Amoreira","country":"PT","lat":39.0697,"lng":-7.6985,"pop":10828,"capital":false},{"name":"Sidi Rahhal","country":"MA","lat":31.6503,"lng":-7.4729,"pop":10817,"capital":false},{"name":"Fuente Palmera","country":"ES","lat":37.7049,"lng":-5.0996,"pop":10788,"capital":false},{"name":"La Palma del Condado","country":"ES","lat":37.3861,"lng":-6.5523,"pop":10762,"capital":false},{"name":"Grândola","country":"PT","lat":38.1772,"lng":-8.5668,"pop":10737,"capital":false},{"name":"Unhos","country":"PT","lat":38.8196,"lng":-9.1201,"pop":10712,"capital":false},{"name":"Villacañas","country":"ES","lat":39.6237,"lng":-3.3381,"pop":10645,"capital":false},{"name":"Cantillana","country":"ES","lat":37.6103,"lng":-5.8247,"pop":10627,"capital":false},{"name":"Santo André","country":"PT","lat":38.0608,"lng":-8.7822,"pop":10601,"capital":false},{"name":"Aklim","country":"MA","lat":34.92,"lng":-2.43,"pop":10586,"capital":false},{"name":"Oulad Yaïch","country":"MA","lat":32.435,"lng":-6.3245,"pop":10560,"capital":false},{"name":"Rute","country":"ES","lat":37.3269,"lng":-4.3683,"pop":10559,"capital":false},{"name":"Mora","country":"ES","lat":39.6849,"lng":-3.7739,"pop":10554,"capital":false},{"name":"Oued Laou","country":"MA","lat":35.4484,"lng":-5.0963,"pop":10553,"capital":false},{"name":"Charneca","country":"PT","lat":38.7835,"lng":-9.1435,"pop":10509,"capital":false},{"name":"Cartaxo","country":"PT","lat":39.1602,"lng":-8.7874,"pop":10502,"capital":false},{"name":"São João das Lampas","country":"PT","lat":38.8738,"lng":-9.3984,"pop":10484,"capital":false},{"name":"Carregado","country":"PT","lat":39.0236,"lng":-8.9769,"pop":10474,"capital":false},{"name":"Illora","country":"ES","lat":37.2877,"lng":-3.8811,"pop":10440,"capital":false},{"name":"Meliana","country":"ES","lat":39.5333,"lng":-0.3333,"pop":10395,"capital":false},{"name":"Miajadas","country":"ES","lat":39.1513,"lng":-5.9084,"pop":10338,"capital":false},{"name":"Caudete","country":"ES","lat":38.7068,"lng":-0.9872,"pop":10330,"capital":false},{"name":"Castalla","country":"ES","lat":38.5969,"lng":-0.6721,"pop":10327,"capital":false},{"name":"Ouaouizeght","country":"MA","lat":32.1587,"lng":-6.3541,"pop":10318,"capital":false},{"name":"Jerez de los Caballeros","country":"ES","lat":38.3206,"lng":-6.7726,"pop":10237,"capital":false},{"name":"Calasparra","country":"ES","lat":38.23,"lng":-1.6999,"pop":10178,"capital":false},{"name":"Ceuti","country":"ES","lat":38.0786,"lng":-1.2747,"pop":10174,"capital":false},{"name":"Carvoeiro","country":"PT","lat":37.0974,"lng":-8.4685,"pop":10141,"capital":false},{"name":"Villanueva de Córdoba","country":"ES","lat":38.3228,"lng":-4.6287,"pop":10057,"capital":false},{"name":"Sax","country":"ES","lat":38.5373,"lng":-0.8178,"pop":10054,"capital":false},{"name":"El Casar","country":"ES","lat":38.5309,"lng":-5.9251,"pop":10031,"capital":false},{"name":"Sidi Bou Othmane","country":"MA","lat":31.9023,"lng":-7.9417,"pop":10025,"capital":false},{"name":"La Manga del Mar Menor","country":"ES","lat":37.6413,"lng":-0.7165,"pop":10000,"capital":false},{"name":"Cap Negro II","country":"MA","lat":35.6597,"lng":-5.2852,"pop":10000,"capital":false},{"name":"Venda do Pinheiro","country":"PT","lat":38.9237,"lng":-9.2318,"pop":10000,"capital":false},{"name":"Tameslouht","country":"MA","lat":31.4947,"lng":-8.0977,"pop":9929,"capital":false},{"name":"Mengibar","country":"ES","lat":37.9698,"lng":-3.8088,"pop":9927,"capital":false},{"name":"Talsint","country":"MA","lat":32.536,"lng":-3.4414,"pop":9914,"capital":false},{"name":"Alcàsser","country":"ES","lat":39.3679,"lng":-0.4445,"pop":9908,"capital":false},{"name":"Elvas","country":"PT","lat":38.8815,"lng":-7.1628,"pop":9904,"capital":false},{"name":"Maceira","country":"PT","lat":39.6885,"lng":-8.8942,"pop":9831,"capital":false},{"name":"Foum Zguid","country":"MA","lat":30.0879,"lng":-6.8712,"pop":9812,"capital":false},{"name":"La Gangosa Vistasol","country":"ES","lat":36.8058,"lng":-2.6217,"pop":9780,"capital":false},{"name":"Tinajdad","country":"MA","lat":31.5076,"lng":-5.0329,"pop":9764,"capital":false},{"name":"Al M’aziz","country":"MA","lat":33.6707,"lng":-6.3161,"pop":9719,"capital":false},{"name":"Alcochete","country":"PT","lat":38.7553,"lng":-8.9609,"pop":9705,"capital":false},{"name":"Bairro Alto","country":"PT","lat":38.7119,"lng":-9.1441,"pop":9658,"capital":false},{"name":"Principe Real","country":"PT","lat":38.7184,"lng":-9.1525,"pop":9658,"capital":false},{"name":"Sangonera la Verde","country":"ES","lat":37.9286,"lng":-1.2079,"pop":9648,"capital":false},{"name":"Malveira","country":"PT","lat":38.9321,"lng":-9.2578,"pop":9647,"capital":false},{"name":"Alenquer","country":"PT","lat":39.0532,"lng":-9.0093,"pop":9626,"capital":false},{"name":"Tirhassaline","country":"MA","lat":32.7822,"lng":-5.6528,"pop":9620,"capital":false},{"name":"Saidia","country":"MA","lat":35.082,"lng":-2.229,"pop":9587,"capital":false},{"name":"Buñol","country":"ES","lat":39.4167,"lng":-0.7833,"pop":9517,"capital":false},{"name":"Pulpí","country":"ES","lat":37.4115,"lng":-1.745,"pop":9502,"capital":false},{"name":"Fuente-Álamo de Murcia","country":"ES","lat":37.7239,"lng":-1.1697,"pop":9500,"capital":false},{"name":"Oulad M'Rah","country":"MA","lat":32.9128,"lng":-7.2644,"pop":9496,"capital":false},{"name":"Ighram Laalam","country":"MA","lat":32.5238,"lng":-6.1498,"pop":9467,"capital":false},{"name":"Sidi Ali Ben Hamdouche","country":"MA","lat":33.2867,"lng":-8.3266,"pop":9463,"capital":false},{"name":"Montoro","country":"ES","lat":38.0241,"lng":-4.3834,"pop":9436,"capital":false},{"name":"Famões","country":"PT","lat":38.788,"lng":-9.2103,"pop":9435,"capital":false},{"name":"Fernán-Núñez","country":"ES","lat":37.6704,"lng":-4.7264,"pop":9374,"capital":false},{"name":"Anjos","country":"PT","lat":38.7264,"lng":-9.1353,"pop":9361,"capital":false},{"name":"Moura","country":"PT","lat":38.1401,"lng":-7.4486,"pop":9360,"capital":false},{"name":"Estremoz","country":"PT","lat":38.8443,"lng":-7.5858,"pop":9350,"capital":false},{"name":"Trujillo","country":"ES","lat":39.4579,"lng":-5.882,"pop":9317,"capital":false},{"name":"Tendrara","country":"MA","lat":33.0496,"lng":-2.0002,"pop":9289,"capital":false},{"name":"Bni Tajjit","country":"MA","lat":32.2893,"lng":-3.4662,"pop":9269,"capital":false},{"name":"Fuzeta","country":"PT","lat":37.0543,"lng":-7.747,"pop":9267,"capital":false},{"name":"Alcácer do Sal","country":"PT","lat":38.3733,"lng":-8.5144,"pop":9198,"capital":false},{"name":"Lourinhã","country":"PT","lat":39.2417,"lng":-9.3125,"pop":9196,"capital":false},{"name":"Quinta do Anjo","country":"PT","lat":38.5675,"lng":-8.9423,"pop":9124,"capital":false},{"name":"Al Qbab","country":"MA","lat":32.7412,"lng":-5.5199,"pop":9112,"capital":false},{"name":"Huétor-Tájar","country":"ES","lat":37.1983,"lng":-4.0469,"pop":9105,"capital":false},{"name":"Souq Al Had Bradya","country":"MA","lat":32.4493,"lng":-6.5366,"pop":9080,"capital":false},{"name":"Tocina","country":"ES","lat":37.609,"lng":-5.734,"pop":9067,"capital":false},{"name":"Tavernes Blanques","country":"ES","lat":39.5,"lng":-0.3667,"pop":9033,"capital":false},{"name":"Caxias","country":"PT","lat":38.7031,"lng":-9.2767,"pop":9007,"capital":false},{"name":"Mem Martins","country":"PT","lat":38.7944,"lng":-9.3428,"pop":9000,"capital":false},{"name":"Campo Pequeno","country":"PT","lat":38.743,"lng":-9.1442,"pop":9000,"capital":false},{"name":"Nazaré","country":"PT","lat":39.6029,"lng":-9.0684,"pop":8993,"capital":false},{"name":"Benavente","country":"PT","lat":38.9792,"lng":-8.8076,"pop":8932,"capital":false},{"name":"Tounfit","country":"MA","lat":32.4695,"lng":-5.2451,"pop":8920,"capital":false},{"name":"Queijas","country":"PT","lat":38.7193,"lng":-9.2625,"pop":8828,"capital":false},{"name":"Sedaví","country":"ES","lat":39.4333,"lng":-0.3833,"pop":8778,"capital":false},{"name":"Coruche","country":"PT","lat":38.9596,"lng":-8.5252,"pop":8776,"capital":false},{"name":"Olivares","country":"ES","lat":37.418,"lng":-6.156,"pop":8759,"capital":false},{"name":"Zirara","country":"MA","lat":34.241,"lng":-5.7424,"pop":8735,"capital":false},{"name":"Villanueva del Arzobispo","country":"ES","lat":38.1684,"lng":-3.0074,"pop":8716,"capital":false},{"name":"Bouderbala","country":"MA","lat":33.8167,"lng":-5.2758,"pop":8634,"capital":false},{"name":"Estômbar","country":"PT","lat":37.1463,"lng":-8.485,"pop":8590,"capital":false},{"name":"Had Kourt","country":"MA","lat":34.6159,"lng":-5.7404,"pop":8564,"capital":false},{"name":"Benedita","country":"PT","lat":39.4247,"lng":-8.97,"pop":8556,"capital":false},{"name":"Almagro","country":"ES","lat":38.8894,"lng":-3.7113,"pop":8546,"capital":false},{"name":"Moncarapacho","country":"PT","lat":37.0836,"lng":-7.7876,"pop":8545,"capital":false},{"name":"Santa Maria de Belém","country":"PT","lat":38.7,"lng":-9.2,"pop":8541,"capital":false},{"name":"Moratalla","country":"ES","lat":38.1893,"lng":-1.8918,"pop":8530,"capital":false},{"name":"Olvera","country":"ES","lat":36.9342,"lng":-5.2668,"pop":8515,"capital":false},{"name":"Laouamra","country":"MA","lat":35.0694,"lng":-6.0883,"pop":8509,"capital":false},{"name":"Archidona","country":"ES","lat":37.0965,"lng":-4.3887,"pop":8506,"capital":false},{"name":"Oualidia","country":"MA","lat":32.7337,"lng":-9.0306,"pop":8484,"capital":false},{"name":"Bobadela","country":"PT","lat":38.8077,"lng":-9.0992,"pop":8399,"capital":false},{"name":"São Bartolomeu de Messines","country":"PT","lat":37.2565,"lng":-8.2867,"pop":8381,"capital":false},{"name":"Segorbe","country":"ES","lat":39.85,"lng":-0.4833,"pop":8371,"capital":false},{"name":"Estói","country":"PT","lat":37.095,"lng":-7.8944,"pop":8331,"capital":false},{"name":"Vila Viçosa","country":"PT","lat":38.7777,"lng":-7.4179,"pop":8319,"capital":false},{"name":"Atouguia da Baleia","country":"PT","lat":39.3381,"lng":-9.3263,"pop":8313,"capital":false},{"name":"Ras Kebdana","country":"MA","lat":35.1407,"lng":-2.4245,"pop":8277,"capital":false},{"name":"Almargem","country":"PT","lat":38.8449,"lng":-9.2731,"pop":8271,"capital":false},{"name":"Azuaga","country":"ES","lat":38.2667,"lng":-5.6833,"pop":8242,"capital":false},{"name":"Campo Maior","country":"PT","lat":39.0177,"lng":-7.065,"pop":8235,"capital":false},{"name":"Los Santos de Maimona","country":"ES","lat":38.45,"lng":-6.3833,"pop":8126,"capital":false},{"name":"Prazeres","country":"PT","lat":38.7083,"lng":-9.1683,"pop":8096,"capital":false},{"name":"Castro del Río","country":"ES","lat":37.6912,"lng":-4.4806,"pop":8065,"capital":false},{"name":"Santiago de la Ribera","country":"ES","lat":37.7968,"lng":-0.8054,"pop":8058,"capital":false},{"name":"Moulay Bousselham","country":"MA","lat":34.8816,"lng":-6.2945,"pop":8050,"capital":false},{"name":"Cazorla","country":"ES","lat":37.915,"lng":-3.0034,"pop":8039,"capital":false},{"name":"Campillos","country":"ES","lat":37.0483,"lng":-4.8631,"pop":8014,"capital":false},{"name":"Melqa el Ouidane","country":"MA","lat":34.5596,"lng":-3.0232,"pop":8009,"capital":false},{"name":"Muro del Alcoy","country":"ES","lat":38.7812,"lng":-0.4361,"pop":7983,"capital":false},{"name":"Chelas","country":"PT","lat":38.7412,"lng":-9.1201,"pop":7960,"capital":false},{"name":"Taznakht","country":"MA","lat":30.5784,"lng":-7.2034,"pop":7950,"capital":false},{"name":"Alpiarça","country":"PT","lat":39.2571,"lng":-8.5819,"pop":7946,"capital":false},{"name":"Fortuna","country":"ES","lat":38.1814,"lng":-1.1259,"pop":7943,"capital":false},{"name":"Malagón","country":"ES","lat":39.1667,"lng":-3.8542,"pop":7923,"capital":false},{"name":"Batalha","country":"PT","lat":39.6603,"lng":-8.8247,"pop":7910,"capital":false},{"name":"Souq Khmis Aït Yadine","country":"MA","lat":33.9716,"lng":-6.0169,"pop":7908,"capital":false},{"name":"Colares","country":"PT","lat":38.7992,"lng":-9.4469,"pop":7905,"capital":false},{"name":"Gelves","country":"ES","lat":37.3348,"lng":-6.026,"pop":7897,"capital":false},{"name":"Tobarra","country":"ES","lat":38.5921,"lng":-1.6919,"pop":7884,"capital":false},{"name":"Herencia","country":"ES","lat":39.3662,"lng":-3.3573,"pop":7879,"capital":false},{"name":"Puig","country":"ES","lat":39.5887,"lng":-0.3033,"pop":7851,"capital":false},{"name":"Bujalance","country":"ES","lat":37.8956,"lng":-4.3807,"pop":7848,"capital":false},{"name":"Pinoso","country":"ES","lat":38.4016,"lng":-1.042,"pop":7845,"capital":false},{"name":"Zayda","country":"MA","lat":32.8192,"lng":-4.961,"pop":7831,"capital":false},{"name":"Kahf Nssar","country":"MA","lat":32.9136,"lng":-5.9587,"pop":7821,"capital":false},{"name":"La Mojonera","country":"ES","lat":37.2923,"lng":-2.4373,"pop":7819,"capital":false},{"name":"Santiago do Cacém","country":"PT","lat":38.0169,"lng":-8.6948,"pop":7797,"capital":false},{"name":"Pedro Muñoz","country":"ES","lat":39.4029,"lng":-2.9466,"pop":7789,"capital":false},{"name":"Sidi Ahmed","country":"MA","lat":32.2081,"lng":-8.4914,"pop":7781,"capital":false},{"name":"Ain Aicha","country":"MA","lat":34.461,"lng":-4.6903,"pop":7759,"capital":false},{"name":"Boulemane","country":"MA","lat":33.3638,"lng":-4.729,"pop":7757,"capital":false},{"name":"Bornos","country":"ES","lat":36.8168,"lng":-5.7445,"pop":7750,"capital":false},{"name":"El Cuervo","country":"ES","lat":36.853,"lng":-6.0378,"pop":7745,"capital":false},{"name":"Bargas","country":"ES","lat":39.9411,"lng":-4.0198,"pop":7731,"capital":false},{"name":"Alguazas","country":"ES","lat":38.0536,"lng":-1.2505,"pop":7725,"capital":false},{"name":"Talat-n-Ya’qoub","country":"MA","lat":30.9889,"lng":-8.1893,"pop":7702,"capital":false},{"name":"Pragal","country":"PT","lat":38.6746,"lng":-9.1698,"pop":7701,"capital":false},{"name":"La Puebla de Montalbán","country":"ES","lat":39.863,"lng":-4.3592,"pop":7695,"capital":false},{"name":"Castanheira do Ribatejo","country":"PT","lat":38.993,"lng":-8.9735,"pop":7651,"capital":false},{"name":"L'Olleria","country":"ES","lat":38.9167,"lng":-0.55,"pop":7648,"capital":false},{"name":"Marmolejo","country":"ES","lat":38.0455,"lng":-4.1703,"pop":7643,"capital":false},{"name":"Monserrat","country":"ES","lat":39.3667,"lng":-0.6,"pop":7583,"capital":false},{"name":"Santiponce","country":"ES","lat":37.4355,"lng":-6.0411,"pop":7561,"capital":false},{"name":"Hinojosa del Duque","country":"ES","lat":38.5006,"lng":-5.1465,"pop":7555,"capital":false},{"name":"Quintanar del Rey","country":"ES","lat":39.3333,"lng":-1.9333,"pop":7539,"capital":false},{"name":"Ericeira","country":"PT","lat":38.9628,"lng":-9.4156,"pop":7538,"capital":false},{"name":"Sidi Senoussi سيدي سنوسي","country":"DZ","lat":34.9969,"lng":-1.0945,"pop":7500,"capital":false},{"name":"El Plan","country":"ES","lat":37.65,"lng":-1.0167,"pop":7497,"capital":false},{"name":"Almodóvar del Río","country":"ES","lat":37.8107,"lng":-5.0204,"pop":7486,"capital":false},{"name":"Onil","country":"ES","lat":38.6261,"lng":-0.6731,"pop":7474,"capital":false},{"name":"Almussafes","country":"ES","lat":39.2833,"lng":-0.4167,"pop":7459,"capital":false},{"name":"Nisa","country":"PT","lat":39.515,"lng":-7.6491,"pop":7450,"capital":false},{"name":"Almodôvar","country":"PT","lat":37.5128,"lng":-8.0601,"pop":7449,"capital":false},{"name":"Villa del Río","country":"ES","lat":37.9811,"lng":-4.29,"pop":7407,"capital":false},{"name":"La Rambla","country":"ES","lat":37.6076,"lng":-4.7396,"pop":7374,"capital":false},{"name":"Huéscar","country":"ES","lat":37.811,"lng":-2.5412,"pop":7367,"capital":false},{"name":"Aghbala","country":"MA","lat":32.4808,"lng":-5.6429,"pop":7365,"capital":false},{"name":"Posadas","country":"ES","lat":37.8021,"lng":-5.1073,"pop":7364,"capital":false},{"name":"Aracena","country":"ES","lat":37.894,"lng":-6.5612,"pop":7351,"capital":false},{"name":"Talayuela","country":"ES","lat":39.987,"lng":-5.6098,"pop":7345,"capital":false},{"name":"Pizarra","country":"ES","lat":36.7654,"lng":-4.7083,"pop":7345,"capital":false},{"name":"Taliouine","country":"MA","lat":30.5292,"lng":-7.9126,"pop":7345,"capital":false},{"name":"Fuentes de Andalucía","country":"ES","lat":37.4641,"lng":-5.3461,"pop":7344,"capital":false},{"name":"Valencina de la Concepción","country":"ES","lat":37.4162,"lng":-6.0742,"pop":7343,"capital":false},{"name":"Vila Nova da Barquinha","country":"PT","lat":39.4608,"lng":-8.4359,"pop":7322,"capital":false},{"name":"Restelo","country":"PT","lat":38.6996,"lng":-9.2141,"pop":7287,"capital":false},{"name":"Mértola","country":"PT","lat":37.643,"lng":-7.6611,"pop":7274,"capital":false},{"name":"Ferreiras","country":"PT","lat":37.1293,"lng":-8.2376,"pop":7267,"capital":false},{"name":"Padul","country":"ES","lat":37.0246,"lng":-3.6268,"pop":7266,"capital":false},{"name":"Cheste","country":"ES","lat":39.4833,"lng":-0.6833,"pop":7255,"capital":false},{"name":"Douar el Caïd el Gueddari","country":"MA","lat":34.4212,"lng":-6.091,"pop":7254,"capital":false},{"name":"Alhandra","country":"PT","lat":38.9273,"lng":-9.0086,"pop":7226,"capital":false},{"name":"Trigueros","country":"ES","lat":37.3861,"lng":-6.8268,"pop":7221,"capital":false},{"name":"Reguengos de Monsaraz","country":"PT","lat":38.4253,"lng":-7.5349,"pop":7217,"capital":false},{"name":"Carboneras","country":"ES","lat":36.9967,"lng":-1.8965,"pop":7199,"capital":false},{"name":"Apelação","country":"PT","lat":38.8139,"lng":-9.1323,"pop":7182,"capital":false},{"name":"Argés","country":"ES","lat":39.8063,"lng":-4.057,"pop":7178,"capital":false},{"name":"Aghlal","country":"DZ","lat":35.2011,"lng":-1.0696,"pop":7146,"capital":false},{"name":"Dolores","country":"ES","lat":38.14,"lng":-0.7709,"pop":7132,"capital":false},{"name":"Los Barreros","country":"ES","lat":37.6283,"lng":-0.9977,"pop":7127,"capital":false},{"name":"Haj Kaddour","country":"MA","lat":33.8251,"lng":-5.425,"pop":7106,"capital":false},{"name":"Villanueva de Castellón","country":"ES","lat":39.0774,"lng":-0.5117,"pop":7095,"capital":false},{"name":"Paradas","country":"ES","lat":37.2905,"lng":-5.497,"pop":7084,"capital":false},{"name":"La Pobla de Farnals","country":"ES","lat":39.5657,"lng":-0.2842,"pop":7080,"capital":false},{"name":"Ben Qarrich","country":"MA","lat":35.5109,"lng":-5.4205,"pop":7021,"capital":false},{"name":"Guareña","country":"ES","lat":38.8595,"lng":-6.0999,"pop":7006,"capital":false},{"name":"Iznalloz","country":"ES","lat":37.3926,"lng":-3.5276,"pop":7005,"capital":false},{"name":"Puerto Serrano","country":"ES","lat":36.9221,"lng":-5.543,"pop":6996,"capital":false},{"name":"Las Pedroñeras","country":"ES","lat":39.45,"lng":-2.6739,"pop":6986,"capital":false},{"name":"Porcuna","country":"ES","lat":37.871,"lng":-4.185,"pop":6951,"capital":false},{"name":"Ghafsaï","country":"MA","lat":34.628,"lng":-4.9127,"pop":6946,"capital":false},{"name":"Silveira","country":"PT","lat":39.1112,"lng":-9.3643,"pop":6942,"capital":false},{"name":"Garrucha","country":"ES","lat":37.1814,"lng":-1.8225,"pop":6920,"capital":false},{"name":"Ocaña","country":"ES","lat":39.9579,"lng":-3.4982,"pop":6913,"capital":false},{"name":"Dúrcal","country":"ES","lat":36.9879,"lng":-3.566,"pop":6913,"capital":false},{"name":"Argamasilla de Alba","country":"ES","lat":39.1292,"lng":-3.0925,"pop":6902,"capital":false},{"name":"Almodóvar del Campo","country":"ES","lat":38.7094,"lng":-4.1791,"pop":6893,"capital":false},{"name":"Xixona","country":"ES","lat":38.5409,"lng":-0.5026,"pop":6865,"capital":false},{"name":"Montellano","country":"ES","lat":36.9953,"lng":-5.5714,"pop":6851,"capital":false},{"name":"Tunes","country":"PT","lat":37.1659,"lng":-8.2592,"pop":6837,"capital":false},{"name":"San Juan del Puerto","country":"ES","lat":37.3167,"lng":-6.8414,"pop":6834,"capital":false},{"name":"Khemis Sahel","country":"MA","lat":35.2534,"lng":-6.0796,"pop":6816,"capital":false},{"name":"Trebujena","country":"ES","lat":36.8708,"lng":-6.1759,"pop":6806,"capital":false},{"name":"Torreperogil","country":"ES","lat":38.0354,"lng":-3.29,"pop":6786,"capital":false},{"name":"San Clemente","country":"ES","lat":39.4041,"lng":-2.4282,"pop":6765,"capital":false},{"name":"Constantina","country":"ES","lat":37.8667,"lng":-5.6167,"pop":6757,"capital":false},{"name":"Benalup-Casas Viejas","country":"ES","lat":36.3438,"lng":-5.8128,"pop":6754,"capital":false},{"name":"Fuente del Maestre","country":"ES","lat":38.5266,"lng":-6.4478,"pop":6748,"capital":false},{"name":"Sidi Bouzid","country":"MA","lat":33.2315,"lng":-8.5506,"pop":6741,"capital":false},{"name":"Vilamarxant","country":"ES","lat":39.5692,"lng":-0.6245,"pop":6730,"capital":false},{"name":"Sidi Bibi","country":"MA","lat":30.2378,"lng":-9.5288,"pop":6728,"capital":false},{"name":"Oulad El Rhadabne","country":"MA","lat":33.1752,"lng":-8.6059,"pop":6717,"capital":false},{"name":"Villaverde del Río","country":"ES","lat":37.5892,"lng":-5.8744,"pop":6703,"capital":false},{"name":"Jimena de la Frontera","country":"ES","lat":36.4352,"lng":-5.4539,"pop":6681,"capital":false},{"name":"Arroyo de la Luz","country":"ES","lat":39.4851,"lng":-6.584,"pop":6671,"capital":false},{"name":"Fazendas de Almeirim","country":"PT","lat":39.1755,"lng":-8.5693,"pop":6635,"capital":false},{"name":"Montefrío","country":"ES","lat":37.3231,"lng":-4.009,"pop":6631,"capital":false},{"name":"Velez Rubio","country":"ES","lat":37.6484,"lng":-2.0769,"pop":6630,"capital":false},{"name":"Souq at Tlata des Loulad","country":"MA","lat":32.9947,"lng":-7.1198,"pop":6614,"capital":false},{"name":"A dos Cunhados","country":"PT","lat":39.1524,"lng":-9.2972,"pop":6594,"capital":false},{"name":"Serpa","country":"PT","lat":37.9458,"lng":-7.5975,"pop":6586,"capital":false},{"name":"Tarazona de la Mancha","country":"ES","lat":39.25,"lng":-1.9167,"pop":6514,"capital":false},{"name":"Abanilla","country":"ES","lat":38.2054,"lng":-1.0415,"pop":6510,"capital":false},{"name":"Redován","country":"ES","lat":38.1162,"lng":-0.9098,"pop":6507,"capital":false},{"name":"Prior Velho","country":"PT","lat":38.7917,"lng":-9.1212,"pop":6500,"capital":false},{"name":"Bollullos de la Mitación","country":"ES","lat":37.3401,"lng":-6.1372,"pop":6499,"capital":false},{"name":"Cacilhas","country":"PT","lat":38.6864,"lng":-9.1494,"pop":6494,"capital":false},{"name":"Membrilla","country":"ES","lat":38.972,"lng":-3.3433,"pop":6466,"capital":false},{"name":"Bab Taza","country":"MA","lat":35.0617,"lng":-5.1983,"pop":6448,"capital":false},{"name":"Itzer","country":"MA","lat":32.8783,"lng":-5.0515,"pop":6438,"capital":false},{"name":"Esparragal","country":"ES","lat":38.0333,"lng":-1.0833,"pop":6420,"capital":false},{"name":"Cox","country":"ES","lat":38.1416,"lng":-0.8874,"pop":6411,"capital":false},{"name":"São Sebastião da Pedreira","country":"PT","lat":38.7344,"lng":-9.1539,"pop":6362,"capital":false},{"name":"Foum Jam’a","country":"MA","lat":31.9617,"lng":-6.9835,"pop":6359,"capital":false},{"name":"Lemhaya","country":"MA","lat":33.9772,"lng":-5.251,"pop":6354,"capital":false},{"name":"Lagoa","country":"PT","lat":37.1354,"lng":-8.4532,"pop":6301,"capital":false},{"name":"Cenes de la Vega","country":"ES","lat":37.1601,"lng":-3.5355,"pop":6295,"capital":false},{"name":"Lorquí","country":"ES","lat":38.0826,"lng":-1.251,"pop":6293,"capital":false},{"name":"San Miguel de Salinas","country":"ES","lat":37.9797,"lng":-0.789,"pop":6281,"capital":false},{"name":"Moncofa","country":"ES","lat":39.8091,"lng":-0.147,"pop":6278,"capital":false},{"name":"Albaida","country":"ES","lat":38.838,"lng":-0.5172,"pop":6257,"capital":false},{"name":"Olula del Río","country":"ES","lat":37.3545,"lng":-2.2975,"pop":6244,"capital":false},{"name":"Herrera","country":"ES","lat":37.364,"lng":-4.8498,"pop":6230,"capital":false},{"name":"Los Yébenes","country":"ES","lat":39.5816,"lng":-3.8706,"pop":6224,"capital":false},{"name":"Souk El Arba Des Aït Baha","country":"MA","lat":30.0696,"lng":-9.1546,"pop":6189,"capital":false},{"name":"Arruda dos Vinhos","country":"PT","lat":38.9841,"lng":-9.0775,"pop":6170,"capital":false},{"name":"Huelma","country":"ES","lat":37.6478,"lng":-3.4598,"pop":6159,"capital":false},{"name":"Albuñol","country":"ES","lat":36.792,"lng":-3.205,"pop":6157,"capital":false},{"name":"Catral","country":"ES","lat":38.1606,"lng":-0.8021,"pop":6147,"capital":false},{"name":"Aljubarrota","country":"PT","lat":39.5672,"lng":-8.9292,"pop":6146,"capital":false},{"name":"Valencia de Alcántara","country":"ES","lat":39.4115,"lng":-7.2443,"pop":6129,"capital":false},{"name":"Gourrama","country":"MA","lat":32.3402,"lng":-4.0735,"pop":6129,"capital":false},{"name":"Calamonte","country":"ES","lat":38.8886,"lng":-6.3879,"pop":6117,"capital":false},{"name":"Had Oulad Zbair","country":"MA","lat":34.2894,"lng":-4.3195,"pop":6099,"capital":false},{"name":"Macael","country":"ES","lat":37.3332,"lng":-2.3009,"pop":6090,"capital":false},{"name":"Alhama de Granada","country":"ES","lat":37.0069,"lng":-3.9896,"pop":6080,"capital":false},{"name":"Sidi Smai’il","country":"MA","lat":32.8246,"lng":-8.5112,"pop":6076,"capital":false},{"name":"Blanca","country":"ES","lat":38.1791,"lng":-1.3747,"pop":6054,"capital":false},{"name":"Rocafort","country":"ES","lat":39.5333,"lng":-0.4,"pop":6049,"capital":false},{"name":"Foios","country":"ES","lat":39.5333,"lng":-0.35,"pop":6035,"capital":false},{"name":"Porto de Mós","country":"PT","lat":39.6019,"lng":-8.8184,"pop":6032,"capital":false},{"name":"Mota del Cuervo","country":"ES","lat":39.5019,"lng":-2.8699,"pop":6020,"capital":false},{"name":"Nerva","country":"ES","lat":37.6963,"lng":-6.5497,"pop":6009,"capital":false},{"name":"Armação de Pêra","country":"PT","lat":37.1026,"lng":-8.3569,"pop":6003,"capital":false},{"name":"Monforte del Cid","country":"ES","lat":38.3803,"lng":-0.7285,"pop":6001,"capital":false},{"name":"Aït Ouaoumana","country":"MA","lat":32.7103,"lng":-5.8063,"pop":6001,"capital":false},{"name":"Fontanelas","country":"PT","lat":38.8481,"lng":-9.4394,"pop":6001,"capital":false},{"name":"Cova da Moura","country":"PT","lat":39.0561,"lng":-9.3479,"pop":6000,"capital":false},{"name":"Quesada","country":"ES","lat":37.8434,"lng":-3.0656,"pop":5987,"capital":false},{"name":"Olival Basto","country":"PT","lat":38.7908,"lng":-9.1662,"pop":5959,"capital":false},{"name":"Milharado","country":"PT","lat":38.9473,"lng":-9.1991,"pop":5935,"capital":false},{"name":"Santaella","country":"ES","lat":37.5629,"lng":-4.8436,"pop":5933,"capital":false},{"name":"Vidigueira","country":"PT","lat":38.21,"lng":-7.8005,"pop":5932,"capital":false},{"name":"Castuera","country":"ES","lat":38.732,"lng":-5.5439,"pop":5921,"capital":false},{"name":"Betxí","country":"ES","lat":39.9333,"lng":-0.2,"pop":5902,"capital":false},{"name":"Benigànim","country":"ES","lat":38.95,"lng":-0.4333,"pop":5899,"capital":false},{"name":"Aljezur","country":"PT","lat":37.3175,"lng":-8.8015,"pop":5884,"capital":false},{"name":"Kariat Arkmane","country":"MA","lat":35.1071,"lng":-2.7469,"pop":5882,"capital":false},{"name":"Bombarral","country":"PT","lat":39.2672,"lng":-9.1579,"pop":5852,"capital":false},{"name":"Prado del Rey","country":"ES","lat":36.7876,"lng":-5.5559,"pop":5851,"capital":false},{"name":"Redondo","country":"PT","lat":38.6487,"lng":-7.5471,"pop":5845,"capital":false},{"name":"Monachil","country":"ES","lat":37.1332,"lng":-3.5372,"pop":5843,"capital":false},{"name":"Aznalcóllar","country":"ES","lat":37.5191,"lng":-6.2699,"pop":5839,"capital":false},{"name":"Infantes","country":"ES","lat":38.7367,"lng":-3.0122,"pop":5835,"capital":false},{"name":"Skhour Rehamna","country":"MA","lat":32.4824,"lng":-7.9153,"pop":5835,"capital":false},{"name":"Odemira","country":"PT","lat":37.598,"lng":-8.6397,"pop":5830,"capital":false},{"name":"Vieira de Leiria","country":"PT","lat":39.8695,"lng":-8.9324,"pop":5807,"capital":false},{"name":"Gerena","country":"ES","lat":37.5296,"lng":-6.1548,"pop":5803,"capital":false},{"name":"Ajdir","country":"MA","lat":35.1954,"lng":-3.9117,"pop":5802,"capital":false},{"name":"Marinhais","country":"PT","lat":39.0473,"lng":-8.7024,"pop":5788,"capital":false},{"name":"Bigastro","country":"ES","lat":38.0624,"lng":-0.8984,"pop":5770,"capital":false},{"name":"Monte Real","country":"PT","lat":39.8521,"lng":-8.8635,"pop":5756,"capital":false},{"name":"Moulay Bou ’azza","country":"MA","lat":33.2258,"lng":-6.1981,"pop":5753,"capital":false},{"name":"Corral de Almaguer","country":"ES","lat":39.7599,"lng":-3.1645,"pop":5743,"capital":false},{"name":"Oleiros","country":"PT","lat":39.9189,"lng":-7.9137,"pop":5721,"capital":false},{"name":"Vila do Bispo","country":"PT","lat":37.0832,"lng":-8.9114,"pop":5717,"capital":false},{"name":"Llerena","country":"ES","lat":38.2333,"lng":-6.0167,"pop":5716,"capital":false},{"name":"Benacazón","country":"ES","lat":37.3529,"lng":-6.1966,"pop":5698,"capital":false},{"name":"Oliva de la Frontera","country":"ES","lat":38.276,"lng":-6.9187,"pop":5682,"capital":false},{"name":"Algar","country":"ES","lat":37.6474,"lng":-0.867,"pop":5681,"capital":false},{"name":"Algodonales","country":"ES","lat":36.8804,"lng":-5.4054,"pop":5672,"capital":false},{"name":"Arbaa Laaounate","country":"MA","lat":32.7434,"lng":-8.195,"pop":5661,"capital":false},{"name":"Dhar Souk","country":"MA","lat":34.652,"lng":-4.2792,"pop":5658,"capital":false},{"name":"Órgiva","country":"ES","lat":36.9026,"lng":-3.4238,"pop":5649,"capital":false},{"name":"Arjona","country":"ES","lat":37.9349,"lng":-4.0548,"pop":5645,"capital":false},{"name":"Alcalá de los Gazules","country":"ES","lat":36.4621,"lng":-5.7238,"pop":5639,"capital":false},{"name":"Sertã","country":"PT","lat":39.8021,"lng":-8.0959,"pop":5636,"capital":false},{"name":"La Puebla de Almoradiel","country":"ES","lat":39.5986,"lng":-3.1178,"pop":5629,"capital":false},{"name":"Alburquerque","country":"ES","lat":39.2208,"lng":-7.0023,"pop":5619,"capital":false},{"name":"Motilla del Palancar","country":"ES","lat":39.5667,"lng":-1.8833,"pop":5607,"capital":false},{"name":"Puebla de la Calzada","country":"ES","lat":38.8944,"lng":-6.6259,"pop":5604,"capital":false},{"name":"Trafaria","country":"PT","lat":38.6722,"lng":-9.2327,"pop":5603,"capital":false},{"name":"Cabeza del Buey","country":"ES","lat":38.7223,"lng":-5.2195,"pop":5590,"capital":false},{"name":"Los Gabatos","country":"ES","lat":37.6333,"lng":-1,"pop":5581,"capital":false},{"name":"Guadassuar","country":"ES","lat":39.1866,"lng":-0.4786,"pop":5568,"capital":false},{"name":"Nueva-Carteya","country":"ES","lat":37.5863,"lng":-4.4676,"pop":5561,"capital":false},{"name":"Umbrete","country":"ES","lat":37.3688,"lng":-6.1585,"pop":5527,"capital":false},{"name":"Campanario","country":"ES","lat":38.8644,"lng":-5.6174,"pop":5522,"capital":false},{"name":"Pataias","country":"PT","lat":39.6698,"lng":-8.9958,"pop":5510,"capital":false},{"name":"Ayora","country":"ES","lat":39.0585,"lng":-1.0563,"pop":5508,"capital":false},{"name":"Cúllar-Vega","country":"ES","lat":37.1536,"lng":-3.6707,"pop":5487,"capital":false},{"name":"Enguera","country":"ES","lat":38.9797,"lng":-0.6868,"pop":5484,"capital":false},{"name":"Villanueva del Ariscal","country":"ES","lat":37.3962,"lng":-6.1408,"pop":5471,"capital":false},{"name":"Riachos","country":"PT","lat":39.4447,"lng":-8.5142,"pop":5463,"capital":false},{"name":"Fuente Obejuna","country":"ES","lat":38.2667,"lng":-5.4167,"pop":5451,"capital":false},{"name":"Boureït","country":"MA","lat":34.9983,"lng":-4.893,"pop":5434,"capital":false},{"name":"Aïn Leuh","country":"MA","lat":33.2898,"lng":-5.3386,"pop":5426,"capital":false},{"name":"Tlet El Hanchane","country":"MA","lat":31.5221,"lng":-9.4359,"pop":5421,"capital":false},{"name":"Monchique","country":"PT","lat":37.3177,"lng":-8.5553,"pop":5421,"capital":false},{"name":"São Mamede","country":"PT","lat":38.7125,"lng":-9.1431,"pop":5420,"capital":false},{"name":"Debdou","country":"MA","lat":33.9823,"lng":-3.0426,"pop":5416,"capital":false},{"name":"Pozo Alcón","country":"ES","lat":37.7026,"lng":-2.9337,"pop":5414,"capital":false},{"name":"Aceuchal","country":"ES","lat":38.6463,"lng":-6.4864,"pop":5408,"capital":false},{"name":"Intendente","country":"PT","lat":38.7221,"lng":-9.1354,"pop":5392,"capital":false},{"name":"Casariche","country":"ES","lat":37.2939,"lng":-4.7597,"pop":5389,"capital":false},{"name":"South District","country":"GI","lat":36.114,"lng":-5.3466,"pop":5380,"capital":false},{"name":"Talavera La Real","country":"ES","lat":38.8779,"lng":-6.7686,"pop":5376,"capital":false},{"name":"Ain Karma","country":"MA","lat":34.0066,"lng":-5.6157,"pop":5372,"capital":false},{"name":"Argamasilla de Calatrava","country":"ES","lat":38.7299,"lng":-4.0763,"pop":5371,"capital":false},{"name":"Los Dolores","country":"ES","lat":37.6398,"lng":-1.0046,"pop":5369,"capital":false},{"name":"Otura","country":"ES","lat":37.0885,"lng":-3.6332,"pop":5362,"capital":false},{"name":"Olías del Rey","country":"ES","lat":39.9444,"lng":-3.9868,"pop":5336,"capital":false},{"name":"Aljustrel","country":"PT","lat":37.8776,"lng":-8.1652,"pop":5334,"capital":false},{"name":"El Altet","country":"ES","lat":38.273,"lng":-0.5397,"pop":5323,"capital":false},{"name":"Alcalá del Valle","country":"ES","lat":36.9045,"lng":-5.1724,"pop":5323,"capital":false},{"name":"Sidi Allal Tazi","country":"MA","lat":34.5226,"lng":-6.322,"pop":5317,"capital":false},{"name":"Paterna de Rivera","country":"ES","lat":36.5225,"lng":-5.8658,"pop":5306,"capital":false},{"name":"Turís","country":"ES","lat":39.3833,"lng":-0.7,"pop":5305,"capital":false},{"name":"Cabo Ruivo","country":"PT","lat":38.756,"lng":-9.0967,"pop":5302,"capital":false},{"name":"Benejúzar","country":"ES","lat":38.0773,"lng":-0.8394,"pop":5295,"capital":false},{"name":"Los Villares","country":"ES","lat":37.6915,"lng":-3.8187,"pop":5289,"capital":false},{"name":"La Campana","country":"ES","lat":37.5689,"lng":-5.4267,"pop":5281,"capital":false},{"name":"Peal de Becerro","country":"ES","lat":37.9134,"lng":-3.1215,"pop":5277,"capital":false},{"name":"Alvor","country":"PT","lat":37.1299,"lng":-8.5917,"pop":5272,"capital":false},{"name":"Bonares","country":"ES","lat":37.3242,"lng":-6.6807,"pop":5257,"capital":false},{"name":"Beas de Segura","country":"ES","lat":38.2524,"lng":-2.8887,"pop":5251,"capital":false},{"name":"Caranguejeira","country":"PT","lat":39.7462,"lng":-8.7074,"pop":5248,"capital":false},{"name":"Quintana de la Serena","country":"ES","lat":38.746,"lng":-5.6723,"pop":5242,"capital":false},{"name":"Alameda","country":"ES","lat":37.2087,"lng":-4.6586,"pop":5241,"capital":false},{"name":"Moral de Calatrava","country":"ES","lat":38.8299,"lng":-3.5781,"pop":5236,"capital":false},{"name":"Taghazout","country":"MA","lat":30.5426,"lng":-9.7111,"pop":5233,"capital":false},{"name":"Tiztoutine","country":"MA","lat":34.9716,"lng":-3.1527,"pop":5224,"capital":false},{"name":"Ventosa","country":"PT","lat":39.127,"lng":-9.0842,"pop":5215,"capital":false},{"name":"Villanueva del Río y Minas","country":"ES","lat":37.655,"lng":-5.7137,"pop":5213,"capital":false},{"name":"Bellaa","country":"MA","lat":30.0515,"lng":-9.5616,"pop":5186,"capital":false},{"name":"Villafranca de los Caballeros","country":"ES","lat":39.4282,"lng":-3.3608,"pop":5181,"capital":false},{"name":"Miguel Esteban","country":"ES","lat":39.5245,"lng":-3.0762,"pop":5170,"capital":false},{"name":"Salvaterra de Magos","country":"PT","lat":39.0279,"lng":-8.7935,"pop":5165,"capital":false},{"name":"Alnif","country":"MA","lat":31.1141,"lng":-5.1715,"pop":5162,"capital":false},{"name":"Mojacar","country":"ES","lat":37.1402,"lng":-1.851,"pop":5154,"capital":false},{"name":"Quinta de Santo António","country":"PT","lat":38.6531,"lng":-9.2354,"pop":5154,"capital":false},{"name":"Sidi Jaber","country":"MA","lat":32.3895,"lng":-6.421,"pop":5100,"capital":false},{"name":"Al Machouar - Stinia","country":"MA","lat":33.8854,"lng":-5.5557,"pop":5092,"capital":false},{"name":"Castro Marim","country":"PT","lat":37.2207,"lng":-7.4435,"pop":5089,"capital":false},{"name":"Navas de San Juan","country":"ES","lat":38.1838,"lng":-3.316,"pop":5083,"capital":false},{"name":"San Ginés de la Jara","country":"ES","lat":37.6411,"lng":-0.8228,"pop":5081,"capital":false},{"name":"Añover de Tajo","country":"ES","lat":39.9887,"lng":-3.7658,"pop":5075,"capital":false},{"name":"Algarrobo","country":"ES","lat":36.7739,"lng":-4.0395,"pop":5073,"capital":false},{"name":"Villanueva del Trabuco","country":"ES","lat":37.0283,"lng":-4.3389,"pop":5067,"capital":false},{"name":"Castillo de Locubín","country":"ES","lat":37.5286,"lng":-3.9422,"pop":5052,"capital":false},{"name":"Pedrera","country":"ES","lat":37.226,"lng":-4.8942,"pop":5049,"capital":false},{"name":"Moulay Yacoub","country":"MA","lat":34.0879,"lng":-5.1817,"pop":5036,"capital":false},{"name":"Almenara","country":"ES","lat":39.75,"lng":-0.2167,"pop":5031,"capital":false},{"name":"Gójar","country":"ES","lat":37.1046,"lng":-3.6056,"pop":5024,"capital":false},{"name":"Alcanede","country":"PT","lat":39.415,"lng":-8.8219,"pop":5020,"capital":false},{"name":"Doña Mencía","country":"ES","lat":37.5535,"lng":-4.356,"pop":5019,"capital":false},{"name":"Parchal","country":"PT","lat":37.1383,"lng":-8.517,"pop":5019,"capital":false},{"name":"El Coronil","country":"ES","lat":37.0796,"lng":-5.6341,"pop":5011,"capital":false},{"name":"Azinhaga","country":"PT","lat":39.05,"lng":-9.35,"pop":5001,"capital":false}]