[{"name":"Barika","country":"DZ","lat":35.389,"lng":5.3658,"pop":98141,"capital":false},{"name":"Aïn Oussera","country":"DZ","lat":35.4514,"lng":2.9058,"pop":98107,"capital":false},{"name":"Messaad","country":"DZ","lat":34.1543,"lng":3.5031,"pop":97091,"capital":false},{"name":"Gafsa","country":"TN","lat":34.425,"lng":8.7842,"pop":95242,"capital":false},{"name":"Aflou","country":"DZ","lat":34.1128,"lng":2.1023,"pop":93585,"capital":false},{"name":"Beni Mered","country":"DZ","lat":36.5239,"lng":2.8613,"pop":92749,"capital":false},{"name":"El Khroub","country":"DZ","lat":36.2633,"lng":6.6936,"pop":90122,"capital":false},{"name":"El Bayadh","country":"DZ","lat":33.6832,"lng":1.0193,"pop":85577,"capital":false},{"name":"Kasserine","country":"TN","lat":35.1676,"lng":8.8365,"pop":84365,"capital":false},{"name":"Hamma Bouziane","country":"DZ","lat":36.4121,"lng":6.596,"pop":83603,"capital":false},{"name":"Rouissat","country":"DZ","lat":31.9243,"lng":5.3502,"pop":80784,"capital":false},{"name":"Khemis Miliana","country":"DZ","lat":36.261,"lng":2.2202,"pop":80512,"capital":false},{"name":"Hassi Bahbah","country":"DZ","lat":35.0711,"lng":3.0299,"pop":77000,"capital":false},{"name":"Feriana","country":"TN","lat":34.9453,"lng":8.5679,"pop":75000,"capital":false},{"name":"Birkhadem","country":"DZ","lat":36.715,"lng":3.05,"pop":71722,"capital":false},{"name":"Sougueur","country":"DZ","lat":35.1857,"lng":1.4961,"pop":71036,"capital":false},{"name":"Bir el Ater","country":"DZ","lat":34.7449,"lng":8.0602,"pop":70749,"capital":false},{"name":"Bouïra","country":"DZ","lat":36.3749,"lng":3.902,"pop":68545,"capital":false},{"name":"Oum el Bouaghi","country":"DZ","lat":35.8754,"lng":7.1135,"pop":67201,"capital":false},{"name":"Sidi Aïssa","country":"DZ","lat":35.8855,"lng":3.7724,"pop":66856,"capital":false},{"name":"Quartu Sant'Elena","country":"IT","lat":39.2293,"lng":9.25,"pop":66620,"capital":false},{"name":"Besbes","country":"DZ","lat":36.7022,"lng":7.8472,"pop":66287,"capital":false},{"name":"Cheria","country":"DZ","lat":35.2731,"lng":7.7519,"pop":66160,"capital":false},{"name":"Tissemsilt","country":"DZ","lat":35.6072,"lng":1.8108,"pop":66084,"capital":false},{"name":"Aïn M’Lila","country":"DZ","lat":36.0369,"lng":6.5722,"pop":65371,"capital":false},{"name":"Ali Mendjeli","country":"DZ","lat":36.2459,"lng":6.5671,"pop":64120,"capital":false},{"name":"Mila","country":"DZ","lat":36.4503,"lng":6.2644,"pop":63251,"capital":false},{"name":"Mohammadia","country":"DZ","lat":35.5886,"lng":0.0686,"pop":62410,"capital":false},{"name":"Kolea","country":"DZ","lat":36.6389,"lng":2.7685,"pop":61643,"capital":false},{"name":"Béja","country":"TN","lat":36.7256,"lng":9.1817,"pop":61568,"capital":false},{"name":"District of Taher","country":"DZ","lat":36.772,"lng":5.8982,"pop":60426,"capital":false},{"name":"Ech Chettia","country":"DZ","lat":36.1959,"lng":1.2554,"pop":60170,"capital":false},{"name":"Ksar el Boukhari","country":"DZ","lat":35.8889,"lng":2.7491,"pop":59634,"capital":false},{"name":"Menzel Bourguiba","country":"TN","lat":37.1537,"lng":9.7859,"pop":58800,"capital":false},{"name":"Guerara","country":"DZ","lat":32.7921,"lng":4.4995,"pop":58572,"capital":false},{"name":"Ouled Djellal","country":"DZ","lat":34.43,"lng":5.0614,"pop":58481,"capital":false},{"name":"Larbaâ","country":"DZ","lat":36.5647,"lng":3.1543,"pop":58295,"capital":false},{"name":"El Menia","country":"DZ","lat":30.5756,"lng":2.8842,"pop":57344,"capital":false},{"name":"Boufarik","country":"DZ","lat":36.5741,"lng":2.9121,"pop":57162,"capital":false},{"name":"Boudouaou","country":"DZ","lat":36.7274,"lng":3.41,"pop":56398,"capital":false},{"name":"Berrouaghia","country":"DZ","lat":36.1352,"lng":2.9109,"pop":55775,"capital":false},{"name":"Aïn Touta","country":"DZ","lat":35.3768,"lng":5.9,"pop":55736,"capital":false},{"name":"Oued Rhiou","country":"DZ","lat":35.9612,"lng":0.919,"pop":55430,"capital":false},{"name":"Aïn Defla","country":"DZ","lat":36.2641,"lng":1.9679,"pop":55259,"capital":false},{"name":"Drean","country":"DZ","lat":36.6848,"lng":7.7511,"pop":55147,"capital":false},{"name":"Reghaïa","country":"DZ","lat":36.7359,"lng":3.3402,"pop":54962,"capital":false},{"name":"Boghni","country":"DZ","lat":36.5422,"lng":3.9531,"pop":54666,"capital":false},{"name":"Chelghoum el Aïd","country":"DZ","lat":36.1629,"lng":6.1665,"pop":54495,"capital":false},{"name":"El Kef","country":"TN","lat":36.1742,"lng":8.7049,"pop":53596,"capital":false},{"name":"Bordj el Bahri","country":"DZ","lat":36.7907,"lng":3.2495,"pop":52816,"capital":false},{"name":"Calvià","country":"ES","lat":39.5657,"lng":2.5062,"pop":51774,"capital":false},{"name":"Ksar Chellala","country":"DZ","lat":35.2122,"lng":2.3189,"pop":51451,"capital":false},{"name":"Jendouba","country":"TN","lat":36.5011,"lng":8.7802,"pop":51408,"capital":false},{"name":"Aïn Oulmene","country":"DZ","lat":35.923,"lng":5.296,"pop":51207,"capital":false},{"name":"Tolga","country":"DZ","lat":34.7222,"lng":5.3785,"pop":50575,"capital":false},{"name":"Ibiza","country":"ES","lat":38.9088,"lng":1.433,"pop":49727,"capital":false},{"name":"Frenda","country":"DZ","lat":35.0654,"lng":1.0495,"pop":49376,"capital":false},{"name":"Aïn Fakroun","country":"DZ","lat":35.9711,"lng":6.8737,"pop":48804,"capital":false},{"name":"Guemar","country":"DZ","lat":33.4853,"lng":6.7969,"pop":48413,"capital":false},{"name":"Merouana","country":"DZ","lat":35.6311,"lng":5.9119,"pop":47646,"capital":false},{"name":"Sidi Bouzid","country":"TN","lat":35.0382,"lng":9.4849,"pop":47595,"capital":false},{"name":"Ouenza","country":"DZ","lat":35.9533,"lng":8.1292,"pop":47312,"capital":false},{"name":"El Hamma","country":"TN","lat":33.8915,"lng":9.7963,"pop":47000,"capital":false},{"name":"Khemis el Khechna","country":"DZ","lat":36.65,"lng":3.3308,"pop":46965,"capital":false},{"name":"Douéra","country":"DZ","lat":36.67,"lng":2.9444,"pop":46266,"capital":false},{"name":"El Milia","country":"DZ","lat":36.7547,"lng":6.2725,"pop":45945,"capital":false},{"name":"Sedrata","country":"DZ","lat":36.1287,"lng":7.5338,"pop":45300,"capital":false},{"name":"Sidi Amar","country":"DZ","lat":36.8202,"lng":7.7164,"pop":45148,"capital":false},{"name":"Jedeïda","country":"TN","lat":36.8311,"lng":9.9242,"pop":45000,"capital":false},{"name":"Râs el Oued","country":"DZ","lat":35.9441,"lng":5.0311,"pop":44947,"capital":false},{"name":"Bordj Menaïel","country":"DZ","lat":36.7433,"lng":3.7173,"pop":44572,"capital":false},{"name":"Oued Fodda","country":"DZ","lat":36.185,"lng":1.533,"pop":44523,"capital":false},{"name":"Hassi Messaoud","country":"DZ","lat":31.6804,"lng":6.0729,"pop":44478,"capital":false},{"name":"Boû Arfa","country":"DZ","lat":36.463,"lng":2.8146,"pop":44143,"capital":false},{"name":"Sour el Ghozlane","country":"DZ","lat":36.1477,"lng":3.6912,"pop":43985,"capital":false},{"name":"Miliana","country":"DZ","lat":36.3055,"lng":2.2248,"pop":43366,"capital":false},{"name":"Lakhdaria","country":"DZ","lat":36.5646,"lng":3.5933,"pop":42886,"capital":false},{"name":"Manacor","country":"ES","lat":39.5696,"lng":3.2096,"pop":42631,"capital":false},{"name":"Tadjenanet","country":"DZ","lat":36.1213,"lng":5.9867,"pop":41833,"capital":false},{"name":"Denia","country":"ES","lat":38.8408,"lng":0.1057,"pop":41733,"capital":false},{"name":"Tazoult-Lambese","country":"DZ","lat":35.4817,"lng":6.2607,"pop":41636,"capital":false},{"name":"Draa el Mizan","country":"DZ","lat":36.5363,"lng":3.8334,"pop":41263,"capital":false},{"name":"Timizart","country":"DZ","lat":36.8,"lng":4.2667,"pop":41158,"capital":false},{"name":"Tebesbest","country":"DZ","lat":33.1167,"lng":6.0833,"pop":41091,"capital":false},{"name":"Bou Ismaïl","country":"DZ","lat":36.6426,"lng":2.6901,"pop":40984,"capital":false},{"name":"Meftah","country":"DZ","lat":36.6204,"lng":3.2225,"pop":40878,"capital":false},{"name":"Souma","country":"DZ","lat":36.5183,"lng":2.9053,"pop":40745,"capital":false},{"name":"Ouled Moussa","country":"DZ","lat":36.6839,"lng":3.3666,"pop":40692,"capital":false},{"name":"Rouached","country":"DZ","lat":36.4577,"lng":6.0427,"pop":40263,"capital":false},{"name":"Héliopolis","country":"DZ","lat":36.5036,"lng":7.4428,"pop":40139,"capital":false},{"name":"Tighenif","country":"DZ","lat":35.4172,"lng":0.3298,"pop":39938,"capital":false},{"name":"El Hadjira","country":"DZ","lat":32.6134,"lng":5.5126,"pop":39744,"capital":false},{"name":"Metlili Chaamba","country":"DZ","lat":32.2667,"lng":3.6333,"pop":39588,"capital":false},{"name":"El Abiodh Sidi Cheikh","country":"DZ","lat":32.893,"lng":0.5484,"pop":39283,"capital":false},{"name":"El Meghaïer","country":"DZ","lat":33.9514,"lng":5.9222,"pop":39106,"capital":false},{"name":"Metlaoui","country":"TN","lat":34.3208,"lng":8.4016,"pop":39021,"capital":false},{"name":"Sidi Khaled","country":"DZ","lat":34.387,"lng":4.9879,"pop":38987,"capital":false},{"name":"Bougara","country":"DZ","lat":36.5418,"lng":3.081,"pop":38352,"capital":false},{"name":"Akbou","country":"DZ","lat":36.4575,"lng":4.5349,"pop":38291,"capital":false},{"name":"’Aïn Azel","country":"DZ","lat":35.8185,"lng":5.5112,"pop":37970,"capital":false},{"name":"Tozeur","country":"TN","lat":33.9197,"lng":8.1335,"pop":37370,"capital":false},{"name":"Dar el Beïda","country":"DZ","lat":36.7133,"lng":3.2125,"pop":37311,"capital":false},{"name":"Debila","country":"DZ","lat":33.5167,"lng":6.95,"pop":36834,"capital":false},{"name":"Marratxí","country":"ES","lat":39.6214,"lng":2.7253,"pop":36725,"capital":false},{"name":"Arris","country":"DZ","lat":35.2588,"lng":6.3471,"pop":36641,"capital":false},{"name":"M’Daourouch","country":"DZ","lat":36.0782,"lng":7.8196,"pop":36351,"capital":false},{"name":"’Aïn Deheb","country":"DZ","lat":34.8422,"lng":1.547,"pop":36146,"capital":false},{"name":"Llucmajor","country":"ES","lat":39.4909,"lng":2.8911,"pop":36078,"capital":false},{"name":"El Kala","country":"DZ","lat":36.8956,"lng":8.4433,"pop":35449,"capital":false},{"name":"El Affroun","country":"DZ","lat":36.4701,"lng":2.6253,"pop":35074,"capital":false},{"name":"Djamaa","country":"DZ","lat":33.5339,"lng":5.9931,"pop":34920,"capital":false},{"name":"Makouda","country":"DZ","lat":36.7857,"lng":4.0627,"pop":34515,"capital":false},{"name":"’Aïn Merane","country":"DZ","lat":36.1628,"lng":0.9704,"pop":34413,"capital":false},{"name":"Cherchell","country":"DZ","lat":36.605,"lng":2.1908,"pop":34372,"capital":false},{"name":"Douz","country":"TN","lat":33.4663,"lng":9.0203,"pop":34221,"capital":false},{"name":"Râs el Aïoun","country":"DZ","lat":35.6738,"lng":5.6453,"pop":34167,"capital":false},{"name":"Bordj Ghdir","country":"DZ","lat":35.9011,"lng":4.8981,"pop":34136,"capital":false},{"name":"Beni Tamou","country":"DZ","lat":36.5383,"lng":2.8217,"pop":33846,"capital":false},{"name":"Hadjout","country":"DZ","lat":36.5126,"lng":2.4138,"pop":33830,"capital":false},{"name":"Azzaba","country":"DZ","lat":36.7394,"lng":7.1053,"pop":33766,"capital":false},{"name":"El Ksar","country":"TN","lat":34.3992,"lng":8.804,"pop":33729,"capital":false},{"name":"Beni Douala","country":"DZ","lat":36.6195,"lng":4.0828,"pop":33611,"capital":false},{"name":"Aïn Taya","country":"DZ","lat":36.7933,"lng":3.2869,"pop":33575,"capital":false},{"name":"El Attaf","country":"DZ","lat":36.2239,"lng":1.6719,"pop":33349,"capital":false},{"name":"El Arrouch","country":"DZ","lat":36.6531,"lng":6.8364,"pop":33085,"capital":false},{"name":"El Aouinet","country":"DZ","lat":35.8669,"lng":7.8867,"pop":32971,"capital":false},{"name":"’Aïn el Melh","country":"DZ","lat":34.8415,"lng":4.1638,"pop":32880,"capital":false},{"name":"Kaïs","country":"DZ","lat":35.4947,"lng":6.9249,"pop":32668,"capital":false},{"name":"Tamalous","country":"DZ","lat":36.8376,"lng":6.6402,"pop":32579,"capital":false},{"name":"Aïn Bessem","country":"DZ","lat":36.2933,"lng":3.6732,"pop":32548,"capital":false},{"name":"Mateur","country":"TN","lat":37.0405,"lng":9.6656,"pop":32492,"capital":false},{"name":"Aïn Smara","country":"DZ","lat":36.2674,"lng":6.5014,"pop":32057,"capital":false},{"name":"Djidiouia","country":"DZ","lat":35.9299,"lng":0.8287,"pop":31996,"capital":false},{"name":"Barbacha","country":"DZ","lat":36.5667,"lng":4.9667,"pop":31983,"capital":false},{"name":"Bougaa","country":"DZ","lat":36.3329,"lng":5.0884,"pop":31922,"capital":false},{"name":"’Aïn el Bell","country":"DZ","lat":34.3438,"lng":3.2247,"pop":31916,"capital":false},{"name":"el hed","country":"DZ","lat":36.65,"lng":4.7736,"pop":31890,"capital":false},{"name":"Megarine","country":"DZ","lat":33.192,"lng":6.087,"pop":31711,"capital":false},{"name":"Oristano","country":"IT","lat":39.9036,"lng":8.5926,"pop":31671,"capital":false},{"name":"Mehdia daira de meghila","country":"DZ","lat":35.4306,"lng":1.7571,"pop":31396,"capital":false},{"name":"Santa Eulària des Riu","country":"ES","lat":38.9846,"lng":1.5341,"pop":31314,"capital":false},{"name":"Siliana","country":"TN","lat":36.085,"lng":9.3708,"pop":31251,"capital":false},{"name":"’Aïn Benian","country":"DZ","lat":36.8028,"lng":2.9219,"pop":31102,"capital":false},{"name":"Freha","country":"DZ","lat":36.7523,"lng":4.3155,"pop":31068,"capital":false},{"name":"Sidi Moussa","country":"DZ","lat":36.6064,"lng":3.0878,"pop":30887,"capital":false},{"name":"Dahmani","country":"TN","lat":35.9439,"lng":8.8278,"pop":30720,"capital":false},{"name":"L’Arbaa Naït Irathen","country":"DZ","lat":36.6311,"lng":4.1986,"pop":30609,"capital":false},{"name":"Aïn Kercha","country":"DZ","lat":35.9247,"lng":6.6953,"pop":30575,"capital":false},{"name":"Oued Sly","country":"DZ","lat":36.1012,"lng":1.1995,"pop":30504,"capital":false},{"name":"Robbah","country":"DZ","lat":33.2797,"lng":6.9098,"pop":30446,"capital":false},{"name":"Bouinan","country":"DZ","lat":36.5317,"lng":2.9919,"pop":30271,"capital":false},{"name":"Berriane","country":"DZ","lat":32.8265,"lng":3.7669,"pop":30170,"capital":false},{"name":"Meskiana","country":"DZ","lat":35.6306,"lng":7.6661,"pop":30071,"capital":false},{"name":"Lardjem","country":"DZ","lat":35.7492,"lng":1.5478,"pop":30000,"capital":false},{"name":"Rais Hamidou","country":"DZ","lat":36.8169,"lng":3.0127,"pop":30000,"capital":false},{"name":"Tebourba","country":"TN","lat":36.8293,"lng":9.8394,"pop":29948,"capital":false},{"name":"El Idrissia","country":"DZ","lat":34.4454,"lng":2.5275,"pop":29856,"capital":false},{"name":"Sidi Amrane","country":"DZ","lat":33.4989,"lng":6.008,"pop":29734,"capital":false},{"name":"Ahmed Bel Hadj","country":"DZ","lat":36.8015,"lng":7.6081,"pop":29629,"capital":false},{"name":"Mekla","country":"DZ","lat":36.6818,"lng":4.2638,"pop":29560,"capital":false},{"name":"Sidi Okba","country":"DZ","lat":34.7451,"lng":5.8983,"pop":29499,"capital":false},{"name":"’Aïn Abid","country":"DZ","lat":36.2319,"lng":6.9433,"pop":29486,"capital":false},{"name":"N’Gaous","country":"DZ","lat":35.555,"lng":5.6106,"pop":29453,"capital":false},{"name":"Draa Ben Khedda","country":"DZ","lat":36.7344,"lng":3.9622,"pop":29403,"capital":false},{"name":"Collo","country":"DZ","lat":37.0056,"lng":6.5605,"pop":29354,"capital":false},{"name":"Inca","country":"ES","lat":39.7211,"lng":2.9109,"pop":29308,"capital":false},{"name":"Ténès","country":"DZ","lat":36.5108,"lng":1.3081,"pop":29220,"capital":false},{"name":"Maó","country":"ES","lat":39.8885,"lng":4.2658,"pop":29125,"capital":false},{"name":"Ouled Haddaj","country":"DZ","lat":36.7146,"lng":3.3422,"pop":29012,"capital":false},{"name":"Boumerdas","country":"DZ","lat":36.7664,"lng":3.4772,"pop":28996,"capital":false},{"name":"Zighout Youcef","country":"DZ","lat":36.5331,"lng":6.7124,"pop":28764,"capital":false},{"name":"Ain el Hadjel","country":"DZ","lat":35.67,"lng":3.8815,"pop":28728,"capital":false},{"name":"Boukadir","country":"DZ","lat":36.0663,"lng":1.126,"pop":28652,"capital":false},{"name":"Mouzaïa","country":"DZ","lat":36.467,"lng":2.6899,"pop":28552,"capital":false},{"name":"Grarem","country":"DZ","lat":36.5161,"lng":6.3272,"pop":28551,"capital":false},{"name":"Hammamet","country":"DZ","lat":35.4486,"lng":7.9518,"pop":28536,"capital":false},{"name":"Ben Mehidi","country":"DZ","lat":36.7697,"lng":7.9064,"pop":28398,"capital":false},{"name":"’Aïn el Hammam","country":"DZ","lat":36.5647,"lng":4.3062,"pop":28029,"capital":false},{"name":"Javea","country":"ES","lat":38.7833,"lng":0.1667,"pop":28016,"capital":false},{"name":"Tizi Gheniff","country":"DZ","lat":36.5884,"lng":3.7745,"pop":27974,"capital":false},{"name":"Cheraga","country":"DZ","lat":36.7678,"lng":2.9592,"pop":27835,"capital":false},{"name":"Charef","country":"DZ","lat":34.621,"lng":2.795,"pop":27700,"capital":false},{"name":"Theniet el Had","country":"DZ","lat":35.8711,"lng":2.0281,"pop":27628,"capital":false},{"name":"Ouled Slama Fouaga","country":"DZ","lat":36.5483,"lng":3.1101,"pop":27573,"capital":false},{"name":"Ammi Moussa","country":"DZ","lat":35.8678,"lng":1.1114,"pop":27530,"capital":false},{"name":"Oued Zenati","country":"DZ","lat":36.3161,"lng":7.1636,"pop":27441,"capital":false},{"name":"El Abadia","country":"DZ","lat":36.2695,"lng":1.6861,"pop":27185,"capital":false},{"name":"Kerkera","country":"DZ","lat":36.9292,"lng":6.5856,"pop":27177,"capital":false},{"name":"Ar Rudayyif","country":"TN","lat":34.3827,"lng":8.1555,"pop":26976,"capital":false},{"name":"Feidh el Botma","country":"DZ","lat":34.5,"lng":3.7667,"pop":26857,"capital":false},{"name":"Birine","country":"DZ","lat":35.635,"lng":3.225,"pop":26670,"capital":false},{"name":"Dar Chioukh","country":"DZ","lat":34.8964,"lng":3.4854,"pop":26605,"capital":false},{"name":"Sidi Akkacha","country":"DZ","lat":36.4647,"lng":1.3026,"pop":26558,"capital":false},{"name":"Azazga","country":"DZ","lat":36.7447,"lng":4.3722,"pop":26515,"capital":false},{"name":"Dellys","country":"DZ","lat":36.9172,"lng":3.9131,"pop":26384,"capital":false},{"name":"Kebili","country":"TN","lat":33.7044,"lng":8.969,"pop":26310,"capital":false},{"name":"Tirmitine","country":"DZ","lat":36.6539,"lng":3.9814,"pop":26261,"capital":false},{"name":"Telerghma","country":"DZ","lat":36.1165,"lng":6.3543,"pop":26248,"capital":false},{"name":"Fedj M’Zala","country":"DZ","lat":36.4094,"lng":5.9446,"pop":26176,"capital":false},{"name":"Maâtkas","country":"DZ","lat":36.6047,"lng":3.9844,"pop":26142,"capital":false},{"name":"Chellalat el Adhaouara","country":"DZ","lat":35.9397,"lng":3.4159,"pop":26077,"capital":false},{"name":"El Hadjar","country":"DZ","lat":36.8038,"lng":7.7368,"pop":26060,"capital":false},{"name":"El Kseur","country":"DZ","lat":36.6794,"lng":4.8555,"pop":26050,"capital":false},{"name":"Amizour","country":"DZ","lat":36.6402,"lng":4.9013,"pop":25825,"capital":false},{"name":"Didouche Mourad","country":"DZ","lat":36.4525,"lng":6.6364,"pop":25764,"capital":false},{"name":"Melouza","country":"DZ","lat":35.98,"lng":4.1867,"pop":25701,"capital":false},{"name":"Aïn Arnat","country":"DZ","lat":36.1868,"lng":5.3135,"pop":25315,"capital":false},{"name":"Assemini","country":"IT","lat":39.2912,"lng":8.9988,"pop":25257,"capital":false},{"name":"Reguiba","country":"DZ","lat":33.5639,"lng":6.7033,"pop":25210,"capital":false},{"name":"Sidi Mérouane","country":"DZ","lat":36.5206,"lng":6.2611,"pop":25129,"capital":false},{"name":"El Fahs","country":"TN","lat":36.3742,"lng":9.9065,"pop":25100,"capital":false},{"name":"Medjez el Bab","country":"TN","lat":36.6496,"lng":9.6123,"pop":24100,"capital":false},{"name":"Abou el Hassan","country":"DZ","lat":36.4166,"lng":1.1962,"pop":24022,"capital":false},{"name":"Arhribs","country":"DZ","lat":36.7936,"lng":4.3116,"pop":23958,"capital":false},{"name":"Sbeitla","country":"TN","lat":35.2315,"lng":9.1232,"pop":23764,"capital":false},{"name":"Salah Bey","country":"DZ","lat":35.8545,"lng":5.2905,"pop":23339,"capital":false},{"name":"Calp","country":"ES","lat":38.6447,"lng":0.0445,"pop":23326,"capital":false},{"name":"Selargius","country":"IT","lat":39.2578,"lng":9.1632,"pop":23285,"capital":false},{"name":"Chiffa","country":"DZ","lat":36.4629,"lng":2.7387,"pop":23218,"capital":false},{"name":"Zeribet el Oued","country":"DZ","lat":34.6828,"lng":6.5111,"pop":23187,"capital":false},{"name":"Boumahra Ahmed","country":"DZ","lat":36.4583,"lng":7.5139,"pop":23022,"capital":false},{"name":"Oued el Abtal","country":"DZ","lat":35.456,"lng":0.6878,"pop":22819,"capital":false},{"name":"Nefta","country":"TN","lat":33.8731,"lng":7.8777,"pop":22745,"capital":false},{"name":"Iglesias","country":"IT","lat":39.3092,"lng":8.5372,"pop":22659,"capital":false},{"name":"Tizi-n-Tleta","country":"DZ","lat":36.5457,"lng":4.0571,"pop":22404,"capital":false},{"name":"Mazouna","country":"DZ","lat":36.1223,"lng":0.8987,"pop":22366,"capital":false},{"name":"Menzel Jemil","country":"TN","lat":37.2362,"lng":9.9145,"pop":22231,"capital":false},{"name":"Mansourah","country":"DZ","lat":36.0873,"lng":4.4519,"pop":22117,"capital":false},{"name":"Sant Antoni de Portmany","country":"ES","lat":38.9807,"lng":1.3036,"pop":21852,"capital":false},{"name":"Zemoura","country":"DZ","lat":35.7225,"lng":0.7551,"pop":21770,"capital":false},{"name":"Feraoun","country":"DZ","lat":36.5604,"lng":4.8545,"pop":21700,"capital":false},{"name":"Carbonia","country":"IT","lat":39.1647,"lng":8.5213,"pop":21664,"capital":false},{"name":"Chemini","country":"DZ","lat":36.6,"lng":4.6167,"pop":21585,"capital":false},{"name":"Moularès","country":"TN","lat":34.4888,"lng":8.2687,"pop":21431,"capital":false},{"name":"Tinja","country":"TN","lat":37.1596,"lng":9.7606,"pop":21167,"capital":false},{"name":"Oued el Alleug","country":"DZ","lat":36.5553,"lng":2.7903,"pop":21146,"capital":false},{"name":"Tabursuq","country":"TN","lat":36.4569,"lng":9.2475,"pop":21022,"capital":false},{"name":"Taïbet","country":"DZ","lat":33.0852,"lng":6.3891,"pop":21000,"capital":false},{"name":"Tadmaït","country":"DZ","lat":36.7441,"lng":3.9005,"pop":20952,"capital":false},{"name":"Métouia","country":"TN","lat":33.9592,"lng":9.9962,"pop":20648,"capital":false},{"name":"Boudjima","country":"DZ","lat":36.8022,"lng":4.1519,"pop":20557,"capital":false},{"name":"Chorfa","country":"DZ","lat":36.365,"lng":4.3264,"pop":20556,"capital":false},{"name":"Monserrato","country":"IT","lat":39.2564,"lng":9.1444,"pop":20193,"capital":false},{"name":"Chebli","country":"DZ","lat":36.5772,"lng":3.0092,"pop":19901,"capital":false},{"name":"Seddouk","country":"DZ","lat":36.5472,"lng":4.6861,"pop":19884,"capital":false},{"name":"Alcúdia","country":"ES","lat":39.8532,"lng":3.1214,"pop":19793,"capital":false},{"name":"Bordj Zemoura","country":"DZ","lat":36.2746,"lng":4.8567,"pop":19782,"capital":false},{"name":"Tabarka","country":"TN","lat":36.9544,"lng":8.758,"pop":19770,"capital":false},{"name":"Ghardimaou","country":"TN","lat":36.4479,"lng":8.4413,"pop":19574,"capital":false},{"name":"Chabet el Ameur","country":"DZ","lat":36.6371,"lng":3.6947,"pop":19522,"capital":false},{"name":"Tajerouine","country":"TN","lat":35.8917,"lng":8.5528,"pop":19362,"capital":false},{"name":"Berrahal","country":"DZ","lat":36.8353,"lng":7.4533,"pop":19294,"capital":false},{"name":"Brezina","country":"DZ","lat":33.0989,"lng":1.2608,"pop":19084,"capital":false},{"name":"Menzel Abderhaman","country":"TN","lat":37.2374,"lng":9.8631,"pop":19078,"capital":false},{"name":"Douar Tindja","country":"TN","lat":37.1667,"lng":9.75,"pop":18551,"capital":false},{"name":"Babor","country":"DZ","lat":36.4899,"lng":5.5393,"pop":18445,"capital":false},{"name":"Beni Amrane","country":"DZ","lat":36.6677,"lng":3.5912,"pop":18414,"capital":false},{"name":"Felanitx","country":"ES","lat":39.4696,"lng":3.1483,"pop":18270,"capital":false},{"name":"Thala","country":"TN","lat":35.5724,"lng":8.6703,"pop":18230,"capital":false},{"name":"Sestu","country":"IT","lat":39.2985,"lng":9.0925,"pop":18191,"capital":false},{"name":"Son Rapinya","country":"ES","lat":39.5893,"lng":2.619,"pop":17993,"capital":false},{"name":"Tizi Rached","country":"DZ","lat":36.6718,"lng":4.1918,"pop":17872,"capital":false},{"name":"Zeralda","country":"DZ","lat":36.7117,"lng":2.8424,"pop":17563,"capital":false},{"name":"Arbatache","country":"DZ","lat":36.6377,"lng":3.3713,"pop":17481,"capital":false},{"name":"Pollença","country":"ES","lat":39.8768,"lng":3.0163,"pop":17260,"capital":false},{"name":"Saoula","country":"DZ","lat":36.7046,"lng":3.0246,"pop":16812,"capital":false},{"name":"Thenia","country":"DZ","lat":36.7254,"lng":3.5567,"pop":16180,"capital":false},{"name":"El Grao","country":"ES","lat":39.9736,"lng":0.0128,"pop":16026,"capital":false},{"name":"Sinnai","country":"IT","lat":39.3029,"lng":9.2028,"pop":15791,"capital":false},{"name":"Naciria","country":"DZ","lat":36.7463,"lng":3.8316,"pop":15387,"capital":false},{"name":"Tipasa","country":"DZ","lat":36.5897,"lng":2.4489,"pop":15180,"capital":false},{"name":"Sant Agustí","country":"ES","lat":39.5507,"lng":2.5974,"pop":15136,"capital":false},{"name":"Ighram","country":"DZ","lat":36.463,"lng":4.5053,"pop":15030,"capital":false},{"name":"El Maknassi","country":"TN","lat":34.6043,"lng":9.6082,"pop":14773,"capital":false},{"name":"Teulada","country":"ES","lat":38.7294,"lng":0.1038,"pop":14620,"capital":false},{"name":"Bou Salem","country":"TN","lat":36.6073,"lng":8.9698,"pop":14571,"capital":false},{"name":"Bougzoul","country":"DZ","lat":35.7056,"lng":2.846,"pop":14095,"capital":false},{"name":"El Guetar","country":"TN","lat":34.3363,"lng":8.9496,"pop":14088,"capital":false},{"name":"Sóller","country":"ES","lat":39.7662,"lng":2.7152,"pop":14041,"capital":false},{"name":"Aïn Lechiakh","country":"DZ","lat":36.1585,"lng":2.4051,"pop":13745,"capital":false},{"name":"Maktar","country":"TN","lat":35.858,"lng":9.2007,"pop":13576,"capital":false},{"name":"Testour","country":"TN","lat":36.5513,"lng":9.4431,"pop":13397,"capital":false},{"name":"El Tarf","country":"DZ","lat":36.7672,"lng":8.3138,"pop":13346,"capital":false},{"name":"Benissa","country":"ES","lat":38.7149,"lng":0.0485,"pop":13221,"capital":false},{"name":"Souk Lahad","country":"TN","lat":33.7758,"lng":8.8599,"pop":13218,"capital":false},{"name":"Bou Arada","country":"TN","lat":36.3525,"lng":9.6218,"pop":13170,"capital":false},{"name":"’Aïn el Hadjar","country":"DZ","lat":34.7585,"lng":0.1453,"pop":12996,"capital":false},{"name":"M’dhilla","country":"TN","lat":34.251,"lng":8.747,"pop":12814,"capital":false},{"name":"Villacidro","country":"IT","lat":39.4573,"lng":8.7411,"pop":12768,"capital":false},{"name":"sa Pobla","country":"ES","lat":39.7692,"lng":3.0239,"pop":12766,"capital":false},{"name":"Santanyí","country":"ES","lat":39.3546,"lng":3.1291,"pop":12664,"capital":false},{"name":"Ouzera","country":"DZ","lat":36.2542,"lng":2.8472,"pop":12650,"capital":false},{"name":"Ziama Mansouria","country":"DZ","lat":36.6732,"lng":5.4812,"pop":12642,"capital":false},{"name":"Aziz","country":"DZ","lat":35.8233,"lng":2.4515,"pop":12500,"capital":false},{"name":"Son Servera","country":"ES","lat":39.6207,"lng":3.3601,"pop":12215,"capital":false},{"name":"As Sars","country":"TN","lat":36.0764,"lng":9.0212,"pop":12137,"capital":false},{"name":"Ghadames","country":"LY","lat":30.1337,"lng":9.5007,"pop":12096,"capital":false},{"name":"’Aïn Boucif","country":"DZ","lat":35.8912,"lng":3.1585,"pop":11989,"capital":false},{"name":"Capdepera","country":"ES","lat":39.7024,"lng":3.4353,"pop":11911,"capital":false},{"name":"Timgad","country":"DZ","lat":35.4928,"lng":6.47,"pop":11828,"capital":false},{"name":"Guspini","country":"IT","lat":39.5395,"lng":8.635,"pop":11704,"capital":false},{"name":"Andratx","country":"ES","lat":39.5755,"lng":2.4202,"pop":11685,"capital":false},{"name":"Santa Margalida","country":"ES","lat":39.7014,"lng":3.1022,"pop":11537,"capital":false},{"name":"Er Regueb","country":"TN","lat":34.8593,"lng":9.7865,"pop":11420,"capital":false},{"name":"Quartucciu","country":"IT","lat":39.2526,"lng":9.1776,"pop":11347,"capital":false},{"name":"Capoterra","country":"IT","lat":39.1752,"lng":8.972,"pop":11255,"capital":false},{"name":"Sant'Antioco","country":"IT","lat":39.0702,"lng":8.4524,"pop":10997,"capital":false},{"name":"Santa Ponsa","country":"ES","lat":39.5087,"lng":2.4766,"pop":10736,"capital":false},{"name":"Hajeb el Aïoun","country":"TN","lat":35.3956,"lng":9.5438,"pop":10631,"capital":false},{"name":"Coll d'en Rabassa","country":"ES","lat":39.5508,"lng":2.6947,"pop":10434,"capital":false},{"name":"Oumache","country":"DZ","lat":34.6929,"lng":5.6809,"pop":10424,"capital":false},{"name":"Gafour","country":"TN","lat":36.3205,"lng":9.3242,"pop":10272,"capital":false},{"name":"s'Arenal","country":"ES","lat":39.5,"lng":2.75,"pop":10207,"capital":false},{"name":"Wadhraf","country":"TN","lat":33.9833,"lng":9.9704,"pop":9932,"capital":false},{"name":"Jerissa","country":"TN","lat":35.8451,"lng":8.6303,"pop":9807,"capital":false},{"name":"Campos","country":"ES","lat":39.431,"lng":3.0194,"pop":9765,"capital":false},{"name":"Aïne Draham","country":"TN","lat":36.7787,"lng":8.6874,"pop":9659,"capital":false},{"name":"Terralba","country":"IT","lat":39.7206,"lng":8.635,"pop":9583,"capital":false},{"name":"As Sanad","country":"TN","lat":34.4628,"lng":9.264,"pop":9533,"capital":false},{"name":"Ben Aoun","country":"TN","lat":34.8526,"lng":9.1439,"pop":9297,"capital":false},{"name":"Ousseltia","country":"TN","lat":35.8478,"lng":9.5894,"pop":9006,"capital":false},{"name":"Dolianova","country":"IT","lat":39.3779,"lng":9.177,"pop":8778,"capital":false},{"name":"Alaior","country":"ES","lat":39.9303,"lng":4.1404,"pop":8671,"capital":false},{"name":"San Gavino Monreale","country":"IT","lat":39.5501,"lng":8.7907,"pop":8647,"capital":false},{"name":"Serramanna","country":"IT","lat":39.4234,"lng":8.9224,"pop":8608,"capital":false},{"name":"Hammam Righa","country":"DZ","lat":36.3797,"lng":2.3989,"pop":8488,"capital":false},{"name":"Boumagueur","country":"DZ","lat":35.5052,"lng":5.5525,"pop":8474,"capital":false},{"name":"Haffouz","country":"TN","lat":35.6324,"lng":9.6762,"pop":8472,"capital":false},{"name":"Maagoula","country":"TN","lat":36.709,"lng":9.212,"pop":8392,"capital":false},{"name":"Es Molinar","country":"ES","lat":39.5614,"lng":2.6752,"pop":8376,"capital":false},{"name":"Bir M’cherga","country":"TN","lat":36.5182,"lng":9.9579,"pop":8329,"capital":false},{"name":"Kalaat es Senam","country":"TN","lat":35.7682,"lng":8.3423,"pop":8145,"capital":false},{"name":"Binissalem","country":"ES","lat":39.6874,"lng":2.844,"pop":8143,"capital":false},{"name":"Degache","country":"TN","lat":33.9761,"lng":8.2081,"pop":8134,"capital":false},{"name":"Elmas","country":"IT","lat":39.2688,"lng":9.0502,"pop":8025,"capital":false},{"name":"Son Ferriol","country":"ES","lat":39.5667,"lng":2.7167,"pop":7942,"capital":false},{"name":"El Golaa","country":"TN","lat":33.4849,"lng":9.0068,"pop":7912,"capital":false},{"name":"La Maddalena","country":"IT","lat":39.1443,"lng":9.0122,"pop":7877,"capital":false},{"name":"Le Krib","country":"TN","lat":36.328,"lng":9.1361,"pop":7841,"capital":false},{"name":"Tortolì","country":"IT","lat":39.9263,"lng":9.6557,"pop":7830,"capital":false},{"name":"Sanluri","country":"IT","lat":39.5618,"lng":8.8997,"pop":7745,"capital":false},{"name":"Dar Ouled Khalifa","country":"TN","lat":35.35,"lng":8.6167,"pop":7703,"capital":false},{"name":"Cabras","country":"IT","lat":39.9287,"lng":8.5324,"pop":7695,"capital":false},{"name":"Draâ Esmar","country":"DZ","lat":36.2735,"lng":2.717,"pop":7465,"capital":false},{"name":"Es Castell","country":"ES","lat":39.8776,"lng":4.2899,"pop":7440,"capital":false},{"name":"Mezzouna","country":"TN","lat":34.5776,"lng":9.8419,"pop":7390,"capital":false},{"name":"Porto Cristo","country":"ES","lat":39.5395,"lng":3.333,"pop":7355,"capital":false},{"name":"Djebel Abiod","country":"TN","lat":36.9762,"lng":9.0785,"pop":7302,"capital":false},{"name":"Can Picafort","country":"ES","lat":39.7657,"lng":3.1549,"pop":7257,"capital":false},{"name":"Jemna","country":"TN","lat":33.5778,"lng":9.0147,"pop":7209,"capital":false},{"name":"Decimomannu","country":"IT","lat":39.3103,"lng":8.9696,"pop":7168,"capital":false},{"name":"San Sperate","country":"IT","lat":39.3576,"lng":9.0081,"pop":7158,"capital":false},{"name":"Menzel Bouzaiane","country":"TN","lat":34.5732,"lng":9.4257,"pop":7113,"capital":false},{"name":"Palmanova","country":"ES","lat":39.5247,"lng":2.5392,"pop":7040,"capital":false},{"name":"Thelepte","country":"TN","lat":34.9778,"lng":8.5926,"pop":6932,"capital":false},{"name":"Sant Lluís","country":"ES","lat":39.8494,"lng":4.2582,"pop":6892,"capital":false},{"name":"Uta","country":"IT","lat":39.2919,"lng":8.9523,"pop":6831,"capital":false},{"name":"Platja d'Alcúdia","country":"ES","lat":39.8338,"lng":3.1206,"pop":6683,"capital":false},{"name":"Muro","country":"ES","lat":39.7366,"lng":3.0556,"pop":6610,"capital":false},{"name":"Villasor","country":"IT","lat":39.3813,"lng":8.9427,"pop":6598,"capital":false},{"name":"Pedreguer","country":"ES","lat":38.7931,"lng":0.0341,"pop":6547,"capital":false},{"name":"Borj el Amri","country":"TN","lat":36.7131,"lng":9.8825,"pop":6519,"capital":false},{"name":"Sbiba","country":"TN","lat":35.5433,"lng":9.0737,"pop":6504,"capital":false},{"name":"Bir el Hafey","country":"TN","lat":34.9321,"lng":9.1932,"pop":6498,"capital":false},{"name":"Maracalagonis","country":"IT","lat":39.2857,"lng":9.2287,"pop":6488,"capital":false},{"name":"Borj Mejen Bel Abbès","country":"TN","lat":34.7501,"lng":8.5198,"pop":6471,"capital":false},{"name":"El-Hamma-Djerid","country":"TN","lat":34.0115,"lng":8.1531,"pop":6467,"capital":false},{"name":"El Battan","country":"TN","lat":36.8037,"lng":9.8442,"pop":6458,"capital":false},{"name":"Sakiet Sidi Youssef","country":"TN","lat":36.2229,"lng":8.3555,"pop":6442,"capital":false},{"name":"Gonnosfanadiga","country":"IT","lat":39.4943,"lng":8.662,"pop":6423,"capital":false},{"name":"Cala Rajada","country":"ES","lat":39.7117,"lng":3.4631,"pop":6390,"capital":false},{"name":"Settimo San Pietro","country":"IT","lat":39.2911,"lng":9.1857,"pop":6361,"capital":false},{"name":"Artà","country":"ES","lat":39.6932,"lng":3.3498,"pop":6287,"capital":false},{"name":"Domusnovas","country":"IT","lat":39.324,"lng":8.6492,"pop":6178,"capital":false},{"name":"Son Ferrer","country":"ES","lat":39.4967,"lng":2.501,"pop":6054,"capital":false},{"name":"Santa Maria del Camí","country":"ES","lat":39.6511,"lng":2.7732,"pop":6007,"capital":false},{"name":"Port de Pollença","country":"ES","lat":39.9075,"lng":3.0814,"pop":5900,"capital":false},{"name":"Arbus","country":"IT","lat":39.5262,"lng":8.5997,"pop":5892,"capital":false},{"name":"Jilma","country":"TN","lat":35.2731,"lng":9.4239,"pop":5887,"capital":false},{"name":"Ondara","country":"ES","lat":38.8282,"lng":0.0172,"pop":5798,"capital":false},{"name":"Sejenane","country":"TN","lat":37.0572,"lng":9.2381,"pop":5718,"capital":false},{"name":"El Ksour","country":"TN","lat":35.8961,"lng":8.8849,"pop":5576,"capital":false},{"name":"Carloforte","country":"IT","lat":39.1408,"lng":8.3039,"pop":5560,"capital":false},{"name":"Bunyola","country":"ES","lat":39.6963,"lng":2.6996,"pop":5475,"capital":false},{"name":"Can Pastilla","country":"ES","lat":39.5362,"lng":2.7177,"pop":5390,"capital":false},{"name":"Zaouiet Medien","country":"TN","lat":36.7677,"lng":9.0889,"pop":5356,"capital":false},{"name":"Magaluf","country":"ES","lat":39.5111,"lng":2.5353,"pop":5339,"capital":false},{"name":"Samassi","country":"IT","lat":39.4821,"lng":8.9054,"pop":5321,"capital":false},{"name":"Lloseta","country":"ES","lat":39.7185,"lng":2.8669,"pop":5295,"capital":false},{"name":"Gata de Gorgos","country":"ES","lat":38.7744,"lng":0.0854,"pop":5281,"capital":false},{"name":"Cala Millor","country":"ES","lat":39.605,"lng":3.3867,"pop":5197,"capital":false},{"name":"Port d'Alcúdia","country":"ES","lat":39.8418,"lng":3.1329,"pop":5099,"capital":false},{"name":"Porreres","country":"ES","lat":39.5143,"lng":3.022,"pop":5037,"capital":false},{"name":"Nasrallah","country":"TN","lat":35.3561,"lng":9.8307,"pop":5012,"capital":false},{"name":"Son Roca","country":"ES","lat":39.6045,"lng":2.6066,"pop":5010,"capital":false}]