[{"name":"Catumbela","country":"AO","lat":-12.43,"lng":13.5468,"pop":95034,"capital":false},{"name":"Longonjo","country":"AO","lat":-12.9079,"lng":15.2485,"pop":92103,"capital":false},{"name":"Porto Amboim","country":"AO","lat":-10.7325,"lng":13.7684,"pop":91605,"capital":false},{"name":"Cubal","country":"AO","lat":-13.0386,"lng":14.2455,"pop":90367,"capital":false},{"name":"Cela","country":"AO","lat":-11.4217,"lng":15.1235,"pop":90000,"capital":false},{"name":"Quissecula","country":"AO","lat":-11.3922,"lng":15.092,"pop":90000,"capital":false},{"name":"Ecunna","country":"AO","lat":-12.6789,"lng":15.5056,"pop":82541,"capital":false},{"name":"Matala","country":"AO","lat":-14.7327,"lng":15.0348,"pop":78000,"capital":false},{"name":"Rundu","country":"NA","lat":-17.918,"lng":19.7731,"pop":75180,"capital":false},{"name":"Cahama","country":"AO","lat":-16.2856,"lng":14.3096,"pop":70061,"capital":false},{"name":"Luquembo","country":"AO","lat":-10.7391,"lng":17.7177,"pop":69420,"capital":false},{"name":"Camucuio","country":"AO","lat":-14.1138,"lng":13.2406,"pop":66112,"capital":false},{"name":"Ganda","country":"AO","lat":-13.0159,"lng":14.635,"pop":65000,"capital":false},{"name":"Camacupa","country":"AO","lat":-12.0167,"lng":17.4833,"pop":59000,"capital":false},{"name":"Andulo","country":"AO","lat":-11.4868,"lng":16.6966,"pop":50000,"capital":false},{"name":"Ucu Seles","country":"AO","lat":-11.4124,"lng":14.3066,"pop":47421,"capital":false},{"name":"Tômbua","country":"AO","lat":-15.8039,"lng":11.8448,"pop":46573,"capital":false},{"name":"Calulo","country":"AO","lat":-10.0005,"lng":14.8952,"pop":44000,"capital":false},{"name":"Oshakati","country":"NA","lat":-17.7883,"lng":15.7044,"pop":43309,"capital":false},{"name":"Virei","country":"AO","lat":-15.727,"lng":12.9496,"pop":42607,"capital":false},{"name":"Alto Hama","country":"AO","lat":-12.2333,"lng":15.55,"pop":36661,"capital":false},{"name":"Humbe","country":"AO","lat":-16.6864,"lng":14.9032,"pop":35985,"capital":false},{"name":"Xangongo","country":"AO","lat":-16.7444,"lng":14.9749,"pop":35000,"capital":false},{"name":"Mussende","country":"AO","lat":-10.5143,"lng":16.0199,"pop":33558,"capital":false},{"name":"Chindumbo","country":"AO","lat":-11.95,"lng":14.4667,"pop":32013,"capital":false},{"name":"Caluquembe","country":"AO","lat":-13.8667,"lng":14.4333,"pop":31000,"capital":false},{"name":"Santa Clara","country":"AO","lat":-10.1916,"lng":15.4341,"pop":29000,"capital":false},{"name":"Catabola","country":"AO","lat":-12.15,"lng":17.2833,"pop":28831,"capital":false},{"name":"Quibala","country":"AO","lat":-10.7337,"lng":14.98,"pop":27128,"capital":false},{"name":"Ondangwa","country":"NA","lat":-17.9082,"lng":15.9804,"pop":27049,"capital":false},{"name":"Chinguar","country":"AO","lat":-12.5571,"lng":16.3381,"pop":26811,"capital":false},{"name":"Dombe Grande","country":"AO","lat":-12.9517,"lng":13.1025,"pop":25000,"capital":false},{"name":"Chitembo","country":"AO","lat":-13.55,"lng":16.6333,"pop":25000,"capital":false},{"name":"Grootfontein","country":"NA","lat":-19.5733,"lng":18.1003,"pop":24099,"capital":false},{"name":"Ongwediva","country":"NA","lat":-17.772,"lng":15.7656,"pop":24012,"capital":false},{"name":"Quipungo","country":"AO","lat":-14.8191,"lng":14.535,"pop":23014,"capital":false},{"name":"Helao Nafidi","country":"NA","lat":-17.3932,"lng":15.8911,"pop":22963,"capital":false},{"name":"Tsumeb","country":"NA","lat":-19.2484,"lng":17.7135,"pop":22845,"capital":false},{"name":"Ucuma","country":"AO","lat":-12.9612,"lng":15.0596,"pop":21809,"capital":false},{"name":"Mungo","country":"AO","lat":-11.8327,"lng":16.2361,"pop":21662,"capital":false},{"name":"Conda","country":"AO","lat":-11.1086,"lng":14.3362,"pop":21260,"capital":false},{"name":"Capunda","country":"AO","lat":-11.1333,"lng":14.4667,"pop":21260,"capital":false},{"name":"Cuemba","country":"AO","lat":-12.15,"lng":18.0833,"pop":19995,"capital":false},{"name":"Cubal do Lumbo","country":"AO","lat":-12.3126,"lng":14.1265,"pop":18451,"capital":false},{"name":"Nharêa","country":"AO","lat":-11.4751,"lng":16.965,"pop":18000,"capital":false},{"name":"Cambundi Catembo","country":"AO","lat":-10.0753,"lng":17.5506,"pop":17212,"capital":false},{"name":"Cambundi","country":"AO","lat":-10.8948,"lng":17.764,"pop":17212,"capital":false},{"name":"Londuimbali","country":"AO","lat":-12.2371,"lng":15.317,"pop":17000,"capital":false},{"name":"Cuchi","country":"AO","lat":-14.6498,"lng":16.8993,"pop":15000,"capital":false},{"name":"Calucinga","country":"AO","lat":-11.3228,"lng":16.1959,"pop":15000,"capital":false},{"name":"Caconda","country":"AO","lat":-13.7356,"lng":15.0618,"pop":15000,"capital":false},{"name":"Calonamba","country":"AO","lat":-13.7739,"lng":15.0911,"pop":15000,"capital":false},{"name":"Caimbambo","country":"AO","lat":-13.0217,"lng":14.0028,"pop":14544,"capital":false},{"name":"Camboio","country":"AO","lat":-12.9265,"lng":14.0989,"pop":14544,"capital":false},{"name":"Quilenda","country":"AO","lat":-11.4667,"lng":14.1333,"pop":13726,"capital":false},{"name":"Cacolo","country":"AO","lat":-10.145,"lng":19.266,"pop":13498,"capital":false},{"name":"Chongoroi","country":"AO","lat":-13.5742,"lng":13.9406,"pop":12000,"capital":false},{"name":"Cunhinga","country":"AO","lat":-12.2333,"lng":16.7833,"pop":11812,"capital":false},{"name":"Waku Kungo","country":"AO","lat":-11.3567,"lng":15.1172,"pop":10970,"capital":false},{"name":"Bibala","country":"AO","lat":-14.7665,"lng":13.3491,"pop":10500,"capital":false},{"name":"Ebo","country":"AO","lat":-11.05,"lng":14.7167,"pop":10000,"capital":false},{"name":"Chipindo","country":"AO","lat":-13.8142,"lng":15.7904,"pop":10000,"capital":false},{"name":"Chibia","country":"AO","lat":-15.1831,"lng":13.6991,"pop":10000,"capital":false},{"name":"Chicomba","country":"AO","lat":-14.1333,"lng":14.9167,"pop":9428,"capital":false},{"name":"Praia Bebe","country":"AO","lat":-12.4096,"lng":13.5035,"pop":9082,"capital":false},{"name":"Opuwo","country":"NA","lat":-18.0607,"lng":13.84,"pop":9075,"capital":false},{"name":"Calandula","country":"AO","lat":-13.4667,"lng":19.6167,"pop":9000,"capital":false},{"name":"Calai","country":"AO","lat":-17.889,"lng":19.7706,"pop":8741,"capital":false},{"name":"Chissamba","country":"AO","lat":-12.1667,"lng":17.3333,"pop":7677,"capital":false},{"name":"Outapi","country":"NA","lat":-17.5037,"lng":14.9838,"pop":7629,"capital":false},{"name":"Dala","country":"AO","lat":-13.7833,"lng":16.7167,"pop":7514,"capital":false},{"name":"Okahao","country":"NA","lat":-17.8876,"lng":15.0668,"pop":7000,"capital":false},{"name":"Eenhana","country":"NA","lat":-17.4853,"lng":16.3294,"pop":6551,"capital":false},{"name":"Otavi","country":"NA","lat":-19.638,"lng":17.3399,"pop":6213,"capital":false},{"name":"Chela","country":"AO","lat":-12.3026,"lng":15.4336,"pop":5811,"capital":false},{"name":"Ondangwa East","country":"NA","lat":-17.9302,"lng":16.0172,"pop":5742,"capital":false},{"name":"Omuthiya","country":"NA","lat":-18.3646,"lng":16.5815,"pop":5000,"capital":false},{"name":"Nkurenkuru","country":"NA","lat":-17.6418,"lng":18.6197,"pop":732,"capital":false}]