[{"name":"Negage","country":"AO","lat":-7.7594,"lng":15.2722,"pop":92950,"capital":false},{"name":"Cafunfo","country":"AO","lat":-8.7672,"lng":17.9957,"pop":90000,"capital":false},{"name":"Idiofa","country":"CD","lat":-4.9659,"lng":19.5915,"pop":87882,"capital":false},{"name":"Bulungu","country":"CD","lat":-4.5444,"lng":18.6036,"pop":81393,"capital":false},{"name":"Kimpese","country":"CD","lat":-5.5615,"lng":14.4316,"pop":79539,"capital":false},{"name":"Barra do Dande","country":"AO","lat":-8.4717,"lng":13.3701,"pop":75000,"capital":false},{"name":"Moanda","country":"GA","lat":-1.5665,"lng":13.1987,"pop":71099,"capital":false},{"name":"Bailundo","country":"AO","lat":-9.575,"lng":15.9944,"pop":70481,"capital":false},{"name":"Inongo","country":"CD","lat":-1.9275,"lng":18.2881,"pop":68852,"capital":false},{"name":"Gama","country":"AO","lat":-8.5675,"lng":13.4764,"pop":66202,"capital":false},{"name":"Dondo","country":"AO","lat":-9.6846,"lng":14.4279,"pop":64643,"capital":false},{"name":"Dondo","country":"AO","lat":-9.05,"lng":15.3167,"pop":64643,"capital":false},{"name":"Tshela","country":"CD","lat":-4.9971,"lng":12.9484,"pop":64210,"capital":false},{"name":"Mangai","country":"CD","lat":-4.0233,"lng":19.5339,"pop":63713,"capital":false},{"name":"Kenge","country":"CD","lat":-5.7652,"lng":13.6571,"pop":63317,"capital":false},{"name":"Nioki","country":"CD","lat":-2.7204,"lng":17.69,"pop":62153,"capital":false},{"name":"Mushie","country":"CD","lat":-3.0173,"lng":16.9224,"pop":61336,"capital":false},{"name":"Nzagi","country":"AO","lat":-8.3855,"lng":15.3013,"pop":60000,"capital":false},{"name":"Kayes","country":"CG","lat":-4.2049,"lng":13.2861,"pop":58737,"capital":false},{"name":"Kutu","country":"CD","lat":-2.7249,"lng":18.1476,"pop":56061,"capital":false},{"name":"Dibaya-Lubwe","country":"CD","lat":-4.1587,"lng":19.8619,"pop":55672,"capital":false},{"name":"Cuango-Luzamba","country":"AO","lat":-9.1458,"lng":18.0445,"pop":55000,"capital":false},{"name":"Caxito","country":"AO","lat":-8.5785,"lng":13.6643,"pop":55000,"capital":false},{"name":"Cangandala","country":"AO","lat":-9.7833,"lng":16.4333,"pop":52220,"capital":false},{"name":"Bolobo","country":"CD","lat":-2.158,"lng":16.2325,"pop":47032,"capital":false},{"name":"Lambaréné","country":"GA","lat":-0.7001,"lng":10.2406,"pop":46605,"capital":false},{"name":"Masi-Manimba","country":"CD","lat":-4.7755,"lng":17.891,"pop":45775,"capital":false},{"name":"Kasangulu","country":"CD","lat":-4.5833,"lng":15.1655,"pop":45400,"capital":false},{"name":"Mouila","country":"GA","lat":-1.8685,"lng":11.0559,"pop":43342,"capital":false},{"name":"Maquela do Zombo","country":"AO","lat":-6.0572,"lng":15.1097,"pop":42000,"capital":false},{"name":"Cuímba","country":"AO","lat":-6.1208,"lng":14.6209,"pop":41878,"capital":false},{"name":"Úcua","country":"AO","lat":-8.6516,"lng":14.1565,"pop":41654,"capital":false},{"name":"Dungu","country":"CD","lat":-3.6244,"lng":18.8494,"pop":41076,"capital":false},{"name":"Buco Zau","country":"AO","lat":-4.7667,"lng":12.55,"pop":40953,"capital":false},{"name":"Cacuso","country":"AO","lat":-9.421,"lng":15.7467,"pop":39302,"capital":false},{"name":"Tchibanga","country":"GA","lat":-2.9332,"lng":10.9818,"pop":36108,"capital":false},{"name":"Owando","country":"CG","lat":-0.4819,"lng":15.8999,"pop":35698,"capital":false},{"name":"Cazombo","country":"AO","lat":-8.732,"lng":15.3712,"pop":34000,"capital":false},{"name":"Sibiti","country":"CG","lat":-3.6819,"lng":13.3499,"pop":33122,"capital":false},{"name":"Songo","country":"AO","lat":-7.3521,"lng":14.8463,"pop":31382,"capital":false},{"name":"Koulamoutou","country":"GA","lat":-1.1367,"lng":12.464,"pop":30830,"capital":false},{"name":"Bula Atumba","country":"AO","lat":-8.6742,"lng":14.797,"pop":30537,"capital":false},{"name":"Oyam","country":"GA","lat":-0.2,"lng":10.6833,"pop":30100,"capital":false},{"name":"N'zeto","country":"AO","lat":-7.228,"lng":12.8696,"pop":28840,"capital":false},{"name":"Loutété","country":"CG","lat":-4.2961,"lng":13.8508,"pop":27726,"capital":false},{"name":"Bouansa","country":"CG","lat":-4.2186,"lng":13.7617,"pop":27512,"capital":false},{"name":"Gamboma","country":"CG","lat":-1.8764,"lng":15.8644,"pop":26718,"capital":false},{"name":"Cuilo","country":"AO","lat":-8.2362,"lng":19.5257,"pop":26577,"capital":false},{"name":"Piri","country":"AO","lat":-8.5341,"lng":14.4356,"pop":26265,"capital":false},{"name":"Lubalo","country":"AO","lat":-9.1544,"lng":19.2814,"pop":26103,"capital":false},{"name":"Belize","country":"AO","lat":-4.65,"lng":12.7667,"pop":24430,"capital":false},{"name":"Loandjili","country":"CG","lat":-4.7561,"lng":11.8578,"pop":23204,"capital":false},{"name":"Sanza Pombo","country":"AO","lat":-7.3147,"lng":16.0024,"pop":23000,"capital":false},{"name":"Mossaka","country":"CG","lat":-1.2198,"lng":16.7992,"pop":21809,"capital":false},{"name":"Camabatela","country":"AO","lat":-8.1881,"lng":15.375,"pop":21767,"capital":false},{"name":"Muxaluando","country":"AO","lat":-8.1231,"lng":14.2884,"pop":21052,"capital":false},{"name":"Canacassala","country":"AO","lat":-8.1626,"lng":14.1166,"pop":20913,"capital":false},{"name":"Oyo","country":"CG","lat":-1.165,"lng":15.97,"pop":20630,"capital":false},{"name":"Loudima","country":"CG","lat":-4.1162,"lng":13.0676,"pop":20391,"capital":false},{"name":"Tombôco","country":"AO","lat":-6.8052,"lng":13.3302,"pop":20358,"capital":false},{"name":"Kasongo-Lunda","country":"CD","lat":-6.4783,"lng":16.8174,"pop":20060,"capital":false},{"name":"Golungo Alto","country":"AO","lat":-9.1333,"lng":14.7667,"pop":19992,"capital":false},{"name":"Lucala","country":"AO","lat":-9.2727,"lng":15.2521,"pop":19422,"capital":false},{"name":"Gombe","country":"AO","lat":-8.1244,"lng":14.2908,"pop":19209,"capital":false},{"name":"Mossendjo","country":"CG","lat":-2.9497,"lng":12.7042,"pop":19104,"capital":false},{"name":"Mouyondzi","country":"CG","lat":-3.9944,"lng":13.9272,"pop":18321,"capital":false},{"name":"Cambundi","country":"AO","lat":-7.4686,"lng":17.0377,"pop":17212,"capital":false},{"name":"Mabubas","country":"AO","lat":-8.5243,"lng":13.6862,"pop":16981,"capital":false},{"name":"Cage Mazumbo","country":"AO","lat":-8.2997,"lng":14.3449,"pop":16093,"capital":false},{"name":"Pango Aluquém","country":"AO","lat":-8.7131,"lng":14.4629,"pop":16080,"capital":false},{"name":"Kunda dya Baze","country":"AO","lat":-8.9077,"lng":17.0534,"pop":15965,"capital":false},{"name":"Djambala","country":"CG","lat":-2.5447,"lng":14.7533,"pop":15372,"capital":false},{"name":"Cacongo","country":"AO","lat":-5.2386,"lng":12.1443,"pop":15000,"capital":false},{"name":"Lukolela","country":"CD","lat":-1.0605,"lng":17.1821,"pop":15000,"capital":false},{"name":"Ngo","country":"CG","lat":-2.4872,"lng":15.7556,"pop":14606,"capital":false},{"name":"Quixico","country":"AO","lat":-7.9856,"lng":14.4198,"pop":14531,"capital":false},{"name":"Lastoursville","country":"GA","lat":-0.8174,"lng":12.7082,"pop":14411,"capital":false},{"name":"Quicunzo","country":"AO","lat":-8.1819,"lng":14.4513,"pop":13761,"capital":false},{"name":"Tsogni","country":"GA","lat":-2.8037,"lng":10.1606,"pop":13725,"capital":false},{"name":"Makabana","country":"CG","lat":-3.4633,"lng":12.6056,"pop":13401,"capital":false},{"name":"Buco","country":"AO","lat":-9.5583,"lng":16.1464,"pop":13217,"capital":false},{"name":"Tabi","country":"AO","lat":-8.1797,"lng":13.3571,"pop":13016,"capital":false},{"name":"Okondja","country":"GA","lat":-0.6549,"lng":13.6753,"pop":12962,"capital":false},{"name":"Gamba","country":"GA","lat":-2.65,"lng":10,"pop":12565,"capital":false},{"name":"Kinkala","country":"CG","lat":-4.3586,"lng":14.7647,"pop":12411,"capital":false},{"name":"Zala","country":"AO","lat":-7.8384,"lng":14.0603,"pop":12313,"capital":false},{"name":"Damba","country":"AO","lat":-6.6787,"lng":15.1313,"pop":12000,"capital":false},{"name":"Banza Damba","country":"AO","lat":-6.8883,"lng":15.0152,"pop":12000,"capital":false},{"name":"Ewo","country":"CG","lat":-0.8725,"lng":14.8206,"pop":11750,"capital":false},{"name":"Ambriz","country":"AO","lat":-7.8463,"lng":13.1078,"pop":11640,"capital":false},{"name":"Quicabo","country":"AO","lat":-8.309,"lng":13.832,"pop":10852,"capital":false},{"name":"Bela Vista","country":"AO","lat":-7.8116,"lng":13.7989,"pop":10648,"capital":false},{"name":"Boundji","country":"CG","lat":-1.026,"lng":15.3591,"pop":10224,"capital":false},{"name":"Lébamba","country":"GA","lat":-2.2121,"lng":11.4698,"pop":9287,"capital":false},{"name":"Komono","country":"CG","lat":-3.2775,"lng":13.2261,"pop":9169,"capital":false},{"name":"Kellé","country":"CG","lat":-0.0654,"lng":14.4996,"pop":9089,"capital":false},{"name":"Calandula","country":"AO","lat":-9.0898,"lng":15.9538,"pop":9000,"capital":false},{"name":"Lékoni","country":"GA","lat":-1.5843,"lng":14.2591,"pop":8810,"capital":false},{"name":"Mounana","country":"GA","lat":-1.4085,"lng":13.1586,"pop":8780,"capital":false},{"name":"Kindamba","country":"CG","lat":-3.7275,"lng":14.5211,"pop":8630,"capital":false},{"name":"Fougamou","country":"GA","lat":-1.2154,"lng":10.5838,"pop":8629,"capital":false},{"name":"Nzassi","country":"CG","lat":-4.9811,"lng":12.0397,"pop":8585,"capital":false},{"name":"Quibaxe","country":"AO","lat":-8.5005,"lng":14.5859,"pop":8268,"capital":false},{"name":"Ndjolé","country":"GA","lat":-0.1783,"lng":10.7649,"pop":8265,"capital":false},{"name":"Akiéni","country":"GA","lat":-1.1745,"lng":13.8756,"pop":8241,"capital":false},{"name":"Muxima","country":"AO","lat":-9.5199,"lng":13.9581,"pop":8166,"capital":false},{"name":"Olombo","country":"CG","lat":-1.2653,"lng":15.9,"pop":7821,"capital":false},{"name":"Loukoléla","country":"CG","lat":-1.0381,"lng":17.1139,"pop":7602,"capital":false},{"name":"Puri","country":"AO","lat":-7.6947,"lng":15.6542,"pop":7598,"capital":false},{"name":"Booué","country":"GA","lat":-0.0921,"lng":11.9385,"pop":7259,"capital":false},{"name":"Ndendé","country":"GA","lat":-2.4008,"lng":11.3581,"pop":7238,"capital":false},{"name":"Mbigou","country":"GA","lat":-1.9005,"lng":11.906,"pop":7069,"capital":false},{"name":"Mbinda","country":"CG","lat":-2.1078,"lng":12.8708,"pop":6335,"capital":false},{"name":"Paredes","country":"AO","lat":-8.6069,"lng":14.667,"pop":6300,"capital":false},{"name":"Mayumba","country":"GA","lat":-3.432,"lng":10.6554,"pop":6274,"capital":false},{"name":"Zanaga","country":"CG","lat":-2.8503,"lng":13.8261,"pop":5941,"capital":false},{"name":"Lékana","country":"CG","lat":-2.3253,"lng":14.6,"pop":5828,"capital":false},{"name":"Divenié","country":"CG","lat":-2.6772,"lng":12.0856,"pop":5739,"capital":false},{"name":"Quiage","country":"AO","lat":-8.5067,"lng":14.9498,"pop":5635,"capital":false},{"name":"Madingou","country":"CG","lat":-4.1536,"lng":13.55,"pop":1153,"capital":false},{"name":"Catete","country":"AO","lat":-9.1057,"lng":13.6882,"pop":0,"capital":false},{"name":"Loango","country":"CG","lat":-4.656,"lng":11.8103,"pop":0,"capital":false}]