[{"name":"Dschang","country":"CM","lat":5.444,"lng":10.0533,"pop":99582,"capital":false},{"name":"Kelo","country":"TD","lat":9.3086,"lng":15.8066,"pop":82677,"capital":false},{"name":"Mbalmayo","country":"CM","lat":3.5167,"lng":11.5,"pop":82384,"capital":false},{"name":"Guider","country":"CM","lat":9.9333,"lng":13.9467,"pop":81608,"capital":false},{"name":"Sangmélima","country":"CM","lat":2.9333,"lng":11.9833,"pop":80036,"capital":false},{"name":"Bolenge","country":"CD","lat":0,"lng":18.2167,"pop":79648,"capital":false},{"name":"Numan","country":"NG","lat":9.4637,"lng":12.0306,"pop":77617,"capital":false},{"name":"Foumbot","country":"CM","lat":5.508,"lng":10.6325,"pop":74319,"capital":false},{"name":"Bafia","country":"CM","lat":4.75,"lng":11.2333,"pop":74050,"capital":false},{"name":"Oyem","country":"GA","lat":1.5995,"lng":11.5793,"pop":72939,"capital":false},{"name":"Mbouda","country":"CM","lat":5.6261,"lng":10.2542,"pop":71867,"capital":false},{"name":"Bouar","country":"CF","lat":5.934,"lng":15.596,"pop":71680,"capital":false},{"name":"Doba","country":"TD","lat":8.6639,"lng":16.8532,"pop":70942,"capital":false},{"name":"Pala","country":"TD","lat":9.3646,"lng":14.9073,"pop":70677,"capital":false},{"name":"Meïganga","country":"CM","lat":6.5167,"lng":14.3,"pop":59426,"capital":false},{"name":"Bossangoa","country":"CF","lat":6.4926,"lng":17.4552,"pop":55353,"capital":false},{"name":"Kaga-Bandoro","country":"CF","lat":6.9896,"lng":19.1874,"pop":55047,"capital":false},{"name":"Bafang","country":"CM","lat":5.1571,"lng":10.1771,"pop":54505,"capital":false},{"name":"Koumra","country":"TD","lat":8.9159,"lng":17.5505,"pop":54109,"capital":false},{"name":"Déressia","country":"TD","lat":9.7602,"lng":16.2698,"pop":50113,"capital":false},{"name":"Batouri","country":"CM","lat":4.4333,"lng":14.3667,"pop":49422,"capital":false},{"name":"Impfondo","country":"CG","lat":1.618,"lng":18.0598,"pop":48939,"capital":false},{"name":"Zongo","country":"CD","lat":4.3428,"lng":18.5945,"pop":48658,"capital":false},{"name":"Banyo","country":"CM","lat":6.75,"lng":11.8167,"pop":47936,"capital":false},{"name":"Paoua","country":"CF","lat":7.2427,"lng":16.4406,"pop":47703,"capital":false},{"name":"Garoua Boulaï","country":"CM","lat":5.8833,"lng":14.55,"pop":46615,"capital":false},{"name":"Obala","country":"CM","lat":4.1667,"lng":11.5333,"pop":45321,"capital":false},{"name":"Oku","country":"CM","lat":6.25,"lng":10.4333,"pop":44443,"capital":false},{"name":"Bangangté","country":"CM","lat":5.1408,"lng":10.5254,"pop":43694,"capital":false},{"name":"Fundong","country":"CM","lat":6.28,"lng":10.283,"pop":43509,"capital":false},{"name":"Wum","country":"CM","lat":6.3833,"lng":10.0667,"pop":42457,"capital":false},{"name":"Basankusu","country":"CD","lat":1.221,"lng":19.8021,"pop":41141,"capital":false},{"name":"Ouesso","country":"CG","lat":1.6136,"lng":16.0517,"pop":40667,"capital":false},{"name":"Ngaoundal","country":"CM","lat":6.5,"lng":13.2667,"pop":40328,"capital":false},{"name":"Bébédja","country":"TD","lat":8.6761,"lng":16.566,"pop":40289,"capital":false},{"name":"Ndop","country":"CM","lat":5.9884,"lng":10.4386,"pop":40152,"capital":false},{"name":"Libenge","country":"CD","lat":3.6533,"lng":18.6357,"pop":37344,"capital":false},{"name":"Kouango","country":"CF","lat":4.9934,"lng":19.9619,"pop":36575,"capital":false},{"name":"Bocaranga","country":"CF","lat":6.9853,"lng":15.6406,"pop":36418,"capital":false},{"name":"Tibati","country":"CM","lat":6.465,"lng":12.6284,"pop":35673,"capital":false},{"name":"Tchéboa","country":"CM","lat":9.0287,"lng":13.1848,"pop":35199,"capital":false},{"name":"Garoua","country":"CM","lat":9.3014,"lng":13.3977,"pop":34957,"capital":false},{"name":"Baboua","country":"CF","lat":5.7957,"lng":14.828,"pop":33739,"capital":false},{"name":"Pitoa","country":"CM","lat":9.3839,"lng":13.5023,"pop":33610,"capital":false},{"name":"Lagdo","country":"CM","lat":9.0583,"lng":13.6661,"pop":33564,"capital":false},{"name":"Bitam","country":"GA","lat":2.076,"lng":11.5007,"pop":33561,"capital":false},{"name":"Yokadouma","country":"CM","lat":3.5167,"lng":15.05,"pop":32900,"capital":false},{"name":"Léré","country":"TD","lat":9.6447,"lng":14.2151,"pop":32721,"capital":false},{"name":"Sibut","country":"CF","lat":5.718,"lng":19.0739,"pop":31986,"capital":false},{"name":"Nola","country":"CF","lat":3.5249,"lng":16.0458,"pop":31923,"capital":false},{"name":"Bandjoun","country":"CM","lat":5.3757,"lng":10.4133,"pop":31750,"capital":false},{"name":"Fianga","country":"TD","lat":9.9146,"lng":15.1399,"pop":31668,"capital":false},{"name":"Figuil","country":"CM","lat":9.7557,"lng":13.9647,"pop":31550,"capital":false},{"name":"Goré","country":"TD","lat":8.65,"lng":16.5167,"pop":30936,"capital":false},{"name":"Magba","country":"CM","lat":5.95,"lng":11.2167,"pop":30931,"capital":false},{"name":"Akonolinga","country":"CM","lat":3.7667,"lng":12.25,"pop":30078,"capital":false},{"name":"Gounou Gaya","country":"TD","lat":9.6294,"lng":15.5132,"pop":29742,"capital":false},{"name":"Mbandjok","country":"CM","lat":4.45,"lng":11.9,"pop":29281,"capital":false},{"name":"Makak","country":"CM","lat":3.55,"lng":11.0333,"pop":29135,"capital":false},{"name":"Touboro","country":"CM","lat":7.7708,"lng":15.3568,"pop":28987,"capital":false},{"name":"Nanga Eboko","country":"CM","lat":4.6833,"lng":12.3667,"pop":28518,"capital":false},{"name":"Eséka","country":"CM","lat":3.65,"lng":10.7667,"pop":27928,"capital":false},{"name":"Nkoteng","country":"CM","lat":4.5167,"lng":12.0333,"pop":27677,"capital":false},{"name":"Bali","country":"CM","lat":5.8874,"lng":10.0118,"pop":27473,"capital":false},{"name":"Laï","country":"TD","lat":9.3972,"lng":16.3007,"pop":27071,"capital":false},{"name":"Kekem","country":"CM","lat":5.1569,"lng":10.02,"pop":27038,"capital":false},{"name":"Nkambe","country":"CM","lat":6.6333,"lng":10.6667,"pop":26816,"capital":false},{"name":"Bafut","country":"CM","lat":6.0833,"lng":10.1,"pop":25563,"capital":false},{"name":"Ambam","country":"CM","lat":2.3833,"lng":11.2833,"pop":25052,"capital":false},{"name":"Ebebiyin","country":"GQ","lat":2.1522,"lng":11.3301,"pop":24831,"capital":false},{"name":"Makokou","country":"GA","lat":0.5738,"lng":12.8642,"pop":24823,"capital":false},{"name":"Abong Mbang","country":"CM","lat":3.9833,"lng":13.1833,"pop":24433,"capital":false},{"name":"Bélabo","country":"CM","lat":4.9333,"lng":13.3,"pop":24359,"capital":false},{"name":"Batangafo","country":"CF","lat":7.3008,"lng":18.2833,"pop":24119,"capital":false},{"name":"Okoa","country":"CM","lat":3.9833,"lng":11.6,"pop":24110,"capital":false},{"name":"Tcholliré","country":"CM","lat":8.4022,"lng":14.1698,"pop":23187,"capital":false},{"name":"Kyabé","country":"TD","lat":9.4515,"lng":18.9449,"pop":22806,"capital":false},{"name":"Lolodorf","country":"CM","lat":3.2333,"lng":10.7333,"pop":22252,"capital":false},{"name":"Mbaïki","country":"CF","lat":3.8678,"lng":17.9892,"pop":21867,"capital":false},{"name":"Yaloké","country":"CF","lat":5.3195,"lng":17.1011,"pop":21710,"capital":false},{"name":"Maro","country":"TD","lat":9.2235,"lng":17.7102,"pop":21274,"capital":false},{"name":"Mindouli","country":"CG","lat":3.1028,"lng":18.5111,"pop":20985,"capital":false},{"name":"Bozoum","country":"CF","lat":6.3193,"lng":16.3799,"pop":20665,"capital":false},{"name":"Makoua","country":"CG","lat":0.0069,"lng":15.6333,"pop":20550,"capital":false},{"name":"Abba","country":"CF","lat":5.3335,"lng":15.152,"pop":20043,"capital":false},{"name":"Gembu","country":"NG","lat":6.7256,"lng":11.2565,"pop":19881,"capital":false},{"name":"Dekoa","country":"CF","lat":6.3223,"lng":19.0792,"pop":19639,"capital":false},{"name":"Bouca","country":"CF","lat":6.5073,"lng":18.2767,"pop":19320,"capital":false},{"name":"Boali","country":"CF","lat":4.8005,"lng":18.1275,"pop":18090,"capital":false},{"name":"Baoro","country":"CF","lat":5.6667,"lng":15.9667,"pop":18089,"capital":false},{"name":"Beli","country":"NG","lat":7.8587,"lng":10.9719,"pop":17467,"capital":false},{"name":"Benoy","country":"TD","lat":8.9833,"lng":16.3199,"pop":17285,"capital":false},{"name":"Moïssala","country":"TD","lat":8.3404,"lng":17.7663,"pop":17281,"capital":false},{"name":"Bossembélé","country":"CF","lat":5.2667,"lng":17.65,"pop":17203,"capital":false},{"name":"Mboursou Léré","country":"TD","lat":9.7639,"lng":14.1539,"pop":17132,"capital":false},{"name":"Bobangui","country":"CF","lat":4.05,"lng":18.1167,"pop":16486,"capital":false},{"name":"Kabo","country":"CF","lat":7.6994,"lng":18.629,"pop":16279,"capital":false},{"name":"Bétou","country":"CG","lat":3.055,"lng":18.5172,"pop":16221,"capital":false},{"name":"Tonga","country":"CM","lat":4.9667,"lng":10.7,"pop":16036,"capital":false},{"name":"Biliri","country":"NG","lat":9.8671,"lng":11.2259,"pop":15976,"capital":false},{"name":"Bédiondo","country":"TD","lat":8.6289,"lng":17.1864,"pop":15841,"capital":false},{"name":"Béré","country":"TD","lat":9.3202,"lng":16.1552,"pop":15431,"capital":false},{"name":"Ganye","country":"NG","lat":8.435,"lng":12.0511,"pop":15178,"capital":false},{"name":"Pokola","country":"CG","lat":1.405,"lng":16.3183,"pop":15102,"capital":false},{"name":"Bosobolo","country":"CD","lat":4.1898,"lng":19.8833,"pop":14553,"capital":false},{"name":"Gassol","country":"NG","lat":8.5354,"lng":10.4462,"pop":14326,"capital":false},{"name":"Baïbokoum","country":"TD","lat":7.7423,"lng":15.69,"pop":13217,"capital":false},{"name":"Bazou","country":"CM","lat":5.06,"lng":10.4675,"pop":13058,"capital":false},{"name":"Gamboula","country":"CF","lat":4.1178,"lng":15.1393,"pop":13048,"capital":false},{"name":"Beïnamar","country":"TD","lat":8.6698,"lng":15.3813,"pop":12901,"capital":false},{"name":"Lau","country":"NG","lat":9.2083,"lng":11.2754,"pop":12657,"capital":false},{"name":"Kaltungo","country":"NG","lat":9.82,"lng":11.3087,"pop":12357,"capital":false},{"name":"Bétaré Oya","country":"CM","lat":5.6,"lng":14.0833,"pop":11866,"capital":false},{"name":"Toungo","country":"NG","lat":8.1173,"lng":12.0461,"pop":11759,"capital":false},{"name":"Mutum Biyu","country":"NG","lat":8.6414,"lng":10.7736,"pop":11702,"capital":false},{"name":"Boda","country":"CF","lat":4.3189,"lng":17.4695,"pop":11688,"capital":false},{"name":"Rey Bouba","country":"CM","lat":8.6724,"lng":14.1786,"pop":11454,"capital":false},{"name":"Krim Krim","country":"TD","lat":8.9723,"lng":15.8036,"pop":11294,"capital":false},{"name":"Aconibe","country":"GQ","lat":1.2968,"lng":10.9369,"pop":11192,"capital":false},{"name":"Etoumbi","country":"CG","lat":0.0289,"lng":14.9056,"pop":11139,"capital":false},{"name":"Bossemtele I","country":"CF","lat":5.797,"lng":16.5179,"pop":11136,"capital":false},{"name":"Goundi","country":"TD","lat":9.3627,"lng":17.366,"pop":10577,"capital":false},{"name":"Mitzic","country":"GA","lat":0.7821,"lng":11.549,"pop":10522,"capital":false},{"name":"Ngouri","country":"TD","lat":8.5135,"lng":16.0068,"pop":10487,"capital":false},{"name":"Mbrés","country":"CF","lat":6.668,"lng":19.8032,"pop":10269,"capital":false},{"name":"Añisoc","country":"GQ","lat":1.8658,"lng":10.7689,"pop":10191,"capital":false},{"name":"Dongou","country":"CG","lat":2.0481,"lng":18.0547,"pop":10188,"capital":false},{"name":"Mongoumba","country":"CF","lat":3.6415,"lng":18.5936,"pop":9985,"capital":false},{"name":"Babanki","country":"CM","lat":6.1167,"lng":10.25,"pop":9851,"capital":false},{"name":"Mbengwi","country":"CM","lat":6.0167,"lng":10,"pop":9734,"capital":false},{"name":"Akom II","country":"CM","lat":2.7833,"lng":10.5667,"pop":9709,"capital":false},{"name":"Yuli","country":"NG","lat":9.6971,"lng":10.2735,"pop":9549,"capital":false},{"name":"Béboto","country":"TD","lat":8.2668,"lng":16.939,"pop":9321,"capital":false},{"name":"Holma","country":"NG","lat":9.8986,"lng":13.0545,"pop":9199,"capital":false},{"name":"Damara","country":"CF","lat":4.9608,"lng":18.7035,"pop":9117,"capital":false},{"name":"Bayanga","country":"CF","lat":2.905,"lng":16.2603,"pop":8920,"capital":false},{"name":"Baissa","country":"NG","lat":7.2309,"lng":10.6244,"pop":8911,"capital":false},{"name":"Belo","country":"CM","lat":6.175,"lng":10.346,"pop":8705,"capital":false},{"name":"Enyellé","country":"CG","lat":2.8075,"lng":18.0117,"pop":8697,"capital":false},{"name":"Olamzé","country":"CM","lat":2.2167,"lng":11.0833,"pop":8518,"capital":false},{"name":"Dimako","country":"CM","lat":4.3833,"lng":13.5667,"pop":8476,"capital":false},{"name":"Evinayong","country":"GQ","lat":1.4368,"lng":10.5512,"pop":8462,"capital":false},{"name":"Njinikom","country":"CM","lat":6.2333,"lng":10.2833,"pop":8247,"capital":false},{"name":"Ndikiniméki","country":"CM","lat":4.7667,"lng":10.8333,"pop":8247,"capital":false},{"name":"Ngurore","country":"NG","lat":9.2887,"lng":12.2403,"pop":8139,"capital":false},{"name":"Mékambo","country":"GA","lat":1.0065,"lng":13.9594,"pop":8105,"capital":false},{"name":"Kontcha","country":"CM","lat":7.9667,"lng":12.2333,"pop":8018,"capital":false},{"name":"Bansoa","country":"CM","lat":5.4484,"lng":10.3136,"pop":7560,"capital":false},{"name":"Ngou","country":"CM","lat":5.1969,"lng":10.386,"pop":7560,"capital":false},{"name":"Sémbé","country":"CG","lat":1.6481,"lng":14.5806,"pop":7153,"capital":false},{"name":"Dadiya","country":"NG","lat":9.6195,"lng":11.4412,"pop":7152,"capital":false},{"name":"Bélel","country":"CM","lat":7.05,"lng":14.4333,"pop":6831,"capital":false},{"name":"Bamendjou","country":"CM","lat":5.3899,"lng":10.3301,"pop":6643,"capital":false},{"name":"Ngambé","country":"CM","lat":4.2334,"lng":10.6153,"pop":6414,"capital":false},{"name":"Mongomo","country":"GQ","lat":1.6274,"lng":11.3135,"pop":6393,"capital":false},{"name":"Mayo-Belwa","country":"NG","lat":9.0542,"lng":12.0579,"pop":6304,"capital":false},{"name":"Ntui","country":"CM","lat":4.45,"lng":11.6333,"pop":6185,"capital":false},{"name":"Mme-Bafumen","country":"CM","lat":6.3333,"lng":10.2333,"pop":6149,"capital":false},{"name":"Ntokou-Raymondville","country":"CG","lat":0,"lng":16.3908,"pop":5909,"capital":false},{"name":"Mikomeseng","country":"GQ","lat":2.1361,"lng":10.6132,"pop":5813,"capital":false},{"name":"Mokéko","country":"CG","lat":1.5633,"lng":15.9411,"pop":5758,"capital":false},{"name":"Kango","country":"GA","lat":0.1718,"lng":10.1091,"pop":5734,"capital":false},{"name":"Saa","country":"CM","lat":4.3667,"lng":11.45,"pop":5727,"capital":false},{"name":"Poli","country":"CM","lat":8.4756,"lng":13.241,"pop":5727,"capital":false},{"name":"Bankim","country":"CM","lat":6.083,"lng":11.4905,"pop":5727,"capital":false},{"name":"Bana","country":"CM","lat":5.1466,"lng":10.2755,"pop":5727,"capital":false},{"name":"Souanké","country":"CG","lat":2.0597,"lng":14.1322,"pop":5693,"capital":false},{"name":"Doumé","country":"CM","lat":4.2333,"lng":13.45,"pop":5581,"capital":false},{"name":"Okola","country":"CM","lat":4.0167,"lng":11.3833,"pop":5390,"capital":false},{"name":"Yoko","country":"CM","lat":5.5333,"lng":12.3167,"pop":5269,"capital":false},{"name":"Jakiri","country":"CM","lat":6.1,"lng":10.65,"pop":5269,"capital":false},{"name":"Ndelele","country":"CM","lat":4.0407,"lng":14.925,"pop":5040,"capital":false}]