[{"name":"Qonce","country":"ZA","lat":-32.8808,"lng":27.3938,"pop":93072,"capital":false},{"name":"Grahamstown","country":"ZA","lat":-33.3042,"lng":26.5328,"pop":91548,"capital":false},{"name":"Mossel Bay","country":"ZA","lat":-34.1831,"lng":22.1461,"pop":78940,"capital":false},{"name":"Oudtshoorn","country":"ZA","lat":-33.6005,"lng":22.1996,"pop":73694,"capital":false},{"name":"Knysna","country":"ZA","lat":-34.0363,"lng":23.0471,"pop":68659,"capital":false},{"name":"Graaff Reinet","country":"ZA","lat":-32.2521,"lng":24.5308,"pop":62896,"capital":false},{"name":"Kokstad","country":"ZA","lat":-30.5472,"lng":29.4241,"pop":61751,"capital":false},{"name":"Fort Beaufort","country":"ZA","lat":-32.7748,"lng":26.6338,"pop":58419,"capital":false},{"name":"Butterworth","country":"ZA","lat":-32.3308,"lng":28.1498,"pop":53086,"capital":false},{"name":"Mohale's Hoek","country":"LS","lat":-30.1514,"lng":27.4769,"pop":46593,"capital":false},{"name":"Beaufort West","country":"ZA","lat":-32.3567,"lng":22.583,"pop":44737,"capital":false},{"name":"Aliwal North","country":"ZA","lat":-30.6937,"lng":26.7114,"pop":44436,"capital":false},{"name":"Cradock","country":"ZA","lat":-32.1642,"lng":25.6192,"pop":43936,"capital":false},{"name":"Plettenberg Bay","country":"ZA","lat":-34.0527,"lng":23.3716,"pop":38126,"capital":false},{"name":"Stutterheim","country":"ZA","lat":-32.5708,"lng":27.424,"pop":35510,"capital":false},{"name":"Humansdorp","country":"ZA","lat":-34.029,"lng":24.7691,"pop":34733,"capital":false},{"name":"Quthing","country":"LS","lat":-30.4,"lng":27.7003,"pop":33910,"capital":false},{"name":"Whittlesea","country":"ZA","lat":-32.1759,"lng":26.8244,"pop":33844,"capital":false},{"name":"Jeffreys Bay","country":"ZA","lat":-34.0453,"lng":24.9215,"pop":32477,"capital":false},{"name":"De Aar","country":"ZA","lat":-30.6497,"lng":24.0123,"pop":32318,"capital":false},{"name":"Port Alfred","country":"ZA","lat":-33.586,"lng":26.8833,"pop":30981,"capital":false},{"name":"Dimbaza","country":"ZA","lat":-32.8348,"lng":27.2174,"pop":26099,"capital":false},{"name":"Qacha’s Nek","country":"LS","lat":-30.1154,"lng":28.6894,"pop":25573,"capital":false},{"name":"Lady Frere","country":"ZA","lat":-31.7031,"lng":27.2329,"pop":25041,"capital":false},{"name":"Gonubie","country":"ZA","lat":-32.9443,"lng":28.015,"pop":23733,"capital":false},{"name":"Somerset East","country":"ZA","lat":-32.7217,"lng":25.588,"pop":22553,"capital":false},{"name":"Middelburg","country":"ZA","lat":-31.4928,"lng":25.0063,"pop":22380,"capital":false},{"name":"Swellendam","country":"ZA","lat":-34.0226,"lng":20.4417,"pop":20993,"capital":false},{"name":"Queensdale","country":"ZA","lat":-31.871,"lng":26.9786,"pop":20009,"capital":false},{"name":"Riversdale","country":"ZA","lat":-34.0934,"lng":21.2573,"pop":19382,"capital":false},{"name":"Burgersdorp","country":"ZA","lat":-30.9977,"lng":26.3286,"pop":19159,"capital":false},{"name":"Kruisfontein","country":"ZA","lat":-34.0033,"lng":24.7314,"pop":18991,"capital":false},{"name":"Zastron","country":"ZA","lat":-30.3022,"lng":27.084,"pop":18699,"capital":false},{"name":"Bredasdorp","country":"ZA","lat":-34.5321,"lng":20.0403,"pop":18599,"capital":false},{"name":"Clydesdale","country":"ZA","lat":-30.2983,"lng":29.9377,"pop":18357,"capital":false},{"name":"Montagu","country":"ZA","lat":-33.7866,"lng":20.1211,"pop":18182,"capital":false},{"name":"Ndevana","country":"ZA","lat":-32.9077,"lng":27.5097,"pop":18151,"capital":false},{"name":"Alice","country":"ZA","lat":-32.7875,"lng":26.8344,"pop":18141,"capital":false},{"name":"Groot-Brakrivier","country":"ZA","lat":-34.0437,"lng":22.2257,"pop":18008,"capital":false},{"name":"Khowa","country":"ZA","lat":-31.3331,"lng":27.85,"pop":17224,"capital":false},{"name":"Ugie","country":"ZA","lat":-31.1981,"lng":28.2335,"pop":16133,"capital":false},{"name":"Ashton","country":"ZA","lat":-33.8314,"lng":20.056,"pop":15964,"capital":false},{"name":"Tlokoeng","country":"ZA","lat":-30.6927,"lng":28.5061,"pop":15884,"capital":false},{"name":"Cala","country":"ZA","lat":-31.5236,"lng":27.6952,"pop":15764,"capital":false},{"name":"Dysselsdorp","country":"ZA","lat":-33.5757,"lng":22.4439,"pop":15029,"capital":false},{"name":"Matatiele","country":"ZA","lat":-30.3436,"lng":28.8116,"pop":14935,"capital":false},{"name":"Adelaide","country":"ZA","lat":-32.7075,"lng":26.2956,"pop":14606,"capital":false},{"name":"Hankey","country":"ZA","lat":-33.8331,"lng":24.8836,"pop":14091,"capital":false},{"name":"Molteno","country":"ZA","lat":-31.3967,"lng":26.3625,"pop":13840,"capital":false},{"name":"Kenton","country":"ZA","lat":-33.6667,"lng":26.65,"pop":13539,"capital":false},{"name":"Dutywa","country":"ZA","lat":-32.0962,"lng":28.3049,"pop":13270,"capital":false},{"name":"Prince Albert","country":"ZA","lat":-33.2248,"lng":22.0267,"pop":13136,"capital":false},{"name":"Nomathamasanqa","country":"ZA","lat":-33.5228,"lng":25.7104,"pop":12815,"capital":false},{"name":"Ilinge","country":"ZA","lat":-31.9768,"lng":27.0427,"pop":12806,"capital":false},{"name":"Maclear","country":"ZA","lat":-31.071,"lng":28.3518,"pop":12604,"capital":false},{"name":"Colesberg","country":"ZA","lat":-30.72,"lng":25.0972,"pop":12423,"capital":false},{"name":"Dordrecht","country":"ZA","lat":-31.372,"lng":27.0488,"pop":12292,"capital":false},{"name":"Flagstaff","country":"ZA","lat":-31.0804,"lng":29.4952,"pop":12280,"capital":false},{"name":"Alexandria","country":"ZA","lat":-33.6535,"lng":26.4127,"pop":12084,"capital":false},{"name":"Barkly East","country":"ZA","lat":-30.9683,"lng":27.5957,"pop":11965,"capital":false},{"name":"Mount Frere","country":"ZA","lat":-30.9017,"lng":28.9924,"pop":11842,"capital":false},{"name":"Ngcobo","country":"ZA","lat":-31.6754,"lng":27.9966,"pop":11783,"capital":false},{"name":"Harding","country":"ZA","lat":-30.5764,"lng":29.884,"pop":11434,"capital":false},{"name":"Bonnievale","country":"ZA","lat":-33.9322,"lng":20.0992,"pop":10893,"capital":false},{"name":"Cofimvaba","country":"ZA","lat":-32.0011,"lng":27.5805,"pop":10523,"capital":false},{"name":"Bedford","country":"ZA","lat":-32.679,"lng":26.0869,"pop":10506,"capital":false},{"name":"Kirkwood","country":"ZA","lat":-33.3983,"lng":25.4428,"pop":10148,"capital":false},{"name":"Sedgefield","country":"ZA","lat":-34.0211,"lng":22.8055,"pop":10069,"capital":false},{"name":"Bontrug","country":"ZA","lat":-33.3979,"lng":25.4828,"pop":10057,"capital":false},{"name":"Heidelberg","country":"ZA","lat":-34.0913,"lng":20.9566,"pop":9895,"capital":false},{"name":"Ilitha","country":"ZA","lat":-32.8924,"lng":27.5305,"pop":9757,"capital":false},{"name":"Touwsrivier","country":"ZA","lat":-33.3383,"lng":20.0309,"pop":9735,"capital":false},{"name":"Komga","country":"ZA","lat":-32.577,"lng":27.892,"pop":9692,"capital":false},{"name":"Bizana","country":"ZA","lat":-30.8591,"lng":29.8538,"pop":9553,"capital":false},{"name":"Indwe","country":"ZA","lat":-31.4667,"lng":27.3333,"pop":9505,"capital":false},{"name":"Willowmore","country":"ZA","lat":-33.2926,"lng":23.4895,"pop":9199,"capital":false},{"name":"Cathcart","country":"ZA","lat":-32.2985,"lng":27.1436,"pop":8818,"capital":false},{"name":"Phakamisa","country":"ZA","lat":-32.9333,"lng":27.4571,"pop":8806,"capital":false},{"name":"Rouxville","country":"ZA","lat":-30.4183,"lng":26.8366,"pop":8759,"capital":false},{"name":"Maluti","country":"ZA","lat":-30.2621,"lng":28.7924,"pop":8654,"capital":false},{"name":"Steynsburg","country":"ZA","lat":-31.2956,"lng":25.8234,"pop":8642,"capital":false},{"name":"Sterkstroom","country":"ZA","lat":-31.5571,"lng":26.5542,"pop":8584,"capital":false},{"name":"Aberdeen","country":"ZA","lat":-32.4759,"lng":24.0653,"pop":8580,"capital":false},{"name":"Ladismith","country":"ZA","lat":-33.4933,"lng":21.2676,"pop":8539,"capital":false},{"name":"Lady Grey","country":"ZA","lat":-30.7108,"lng":27.2161,"pop":8414,"capital":false},{"name":"Phamong","country":"LS","lat":-30.2481,"lng":27.8014,"pop":8402,"capital":false},{"name":"Victoria West","country":"ZA","lat":-31.4036,"lng":23.1146,"pop":8254,"capital":false},{"name":"Stilbaai","country":"ZA","lat":-34.3693,"lng":21.4075,"pop":8000,"capital":false},{"name":"Bethulie","country":"ZA","lat":-30.4986,"lng":25.9746,"pop":7783,"capital":false},{"name":"Albertina","country":"ZA","lat":-34.2054,"lng":21.58,"pop":7634,"capital":false},{"name":"Bathurst","country":"ZA","lat":-33.4998,"lng":26.8294,"pop":7630,"capital":false},{"name":"Addo","country":"ZA","lat":-33.5483,"lng":25.6899,"pop":7475,"capital":false},{"name":"Joubertina","country":"ZA","lat":-33.8255,"lng":23.8562,"pop":7472,"capital":false},{"name":"Lusikisiki","country":"ZA","lat":-31.362,"lng":29.5733,"pop":7396,"capital":false},{"name":"Wilderness","country":"ZA","lat":-33.9938,"lng":22.5757,"pop":7385,"capital":false},{"name":"Tarkastad","country":"ZA","lat":-32.0089,"lng":26.2594,"pop":7260,"capital":false},{"name":"Mount Moorosi","country":"LS","lat":-30.2731,"lng":27.8708,"pop":6992,"capital":false},{"name":"Tsolo","country":"ZA","lat":-31.3078,"lng":28.7554,"pop":6860,"capital":false},{"name":"Cookhouse","country":"ZA","lat":-32.7432,"lng":25.8004,"pop":6837,"capital":false},{"name":"Laingsburg","country":"ZA","lat":-33.1949,"lng":20.8587,"pop":6789,"capital":false},{"name":"Jansenville","country":"ZA","lat":-32.9431,"lng":24.6722,"pop":6723,"capital":false},{"name":"Kranshoek","country":"ZA","lat":-34.0878,"lng":23.2833,"pop":6705,"capital":false},{"name":"Paterson","country":"ZA","lat":-33.4406,"lng":25.9741,"pop":6687,"capital":false},{"name":"Mount Ayliff","country":"ZA","lat":-30.8082,"lng":29.3664,"pop":6431,"capital":false},{"name":"Trompsburg","country":"ZA","lat":-30.0336,"lng":25.7804,"pop":6395,"capital":false},{"name":"Patensie","country":"ZA","lat":-33.7601,"lng":24.8138,"pop":6304,"capital":false},{"name":"Murraysburg","country":"ZA","lat":-31.9605,"lng":23.762,"pop":6073,"capital":false},{"name":"Venterstad","country":"ZA","lat":-30.7762,"lng":25.7992,"pop":5977,"capital":false},{"name":"Kareedouw","country":"ZA","lat":-33.9528,"lng":24.2905,"pop":5972,"capital":false},{"name":"Port Saint John’s","country":"ZA","lat":-31.6229,"lng":29.5448,"pop":5939,"capital":false},{"name":"St Francis Bay","country":"ZA","lat":-34.1603,"lng":24.8262,"pop":5910,"capital":false},{"name":"Qumbu","country":"ZA","lat":-31.163,"lng":28.8706,"pop":5904,"capital":false},{"name":"Louterwater","country":"ZA","lat":-33.8001,"lng":23.6638,"pop":5785,"capital":false},{"name":"Carnarvon","country":"ZA","lat":-30.9683,"lng":22.133,"pop":5785,"capital":false},{"name":"Smithfield","country":"ZA","lat":-30.2137,"lng":26.5307,"pop":5725,"capital":false},{"name":"James Calata","country":"ZA","lat":-31.1214,"lng":26.8067,"pop":5590,"capital":false},{"name":"Zoar","country":"ZA","lat":-33.4956,"lng":21.4437,"pop":5582,"capital":false},{"name":"Peddie","country":"ZA","lat":-33.2006,"lng":27.1139,"pop":5580,"capital":false},{"name":"Oakglen","country":"ZA","lat":-31.0507,"lng":24.4326,"pop":5504,"capital":false},{"name":"Khaya Mnandi","country":"ZA","lat":-33.8263,"lng":25.4538,"pop":5500,"capital":false},{"name":"Libode","country":"ZA","lat":-31.5433,"lng":29.0164,"pop":5464,"capital":false},{"name":"Uniondale","country":"ZA","lat":-33.6589,"lng":23.1232,"pop":5421,"capital":false},{"name":"Pearston","country":"ZA","lat":-32.5822,"lng":25.1383,"pop":5410,"capital":false},{"name":"Struisbaai","country":"ZA","lat":-34.8036,"lng":20.0547,"pop":5301,"capital":false},{"name":"Cedarville","country":"ZA","lat":-30.3842,"lng":29.0416,"pop":5286,"capital":false},{"name":"Calitzdorp","country":"ZA","lat":-33.5275,"lng":21.6762,"pop":5133,"capital":false}]