[{"name":"Lodja","country":"CD","lat":-3.521,"lng":23.6005,"pop":91409,"capital":false},{"name":"Mulongo","country":"CD","lat":-7.8349,"lng":26.9985,"pop":89340,"capital":false},{"name":"Gitarama","country":"RW","lat":-2.0744,"lng":29.7567,"pop":87613,"capital":false},{"name":"Kongolo","country":"CD","lat":-5.3853,"lng":27.0003,"pop":86932,"capital":false},{"name":"Muhanga","country":"RW","lat":-2.0227,"lng":29.7069,"pop":82797,"capital":false},{"name":"Rutshuru","country":"CD","lat":-1.1867,"lng":29.4467,"pop":82680,"capital":false},{"name":"Manono","country":"CD","lat":-7.2986,"lng":27.3989,"pop":82465,"capital":false},{"name":"Kasongo","country":"CD","lat":-4.4274,"lng":26.6666,"pop":81629,"capital":false},{"name":"Mweka","country":"CD","lat":-4.8519,"lng":21.5595,"pop":81267,"capital":false},{"name":"Kabalo","country":"CD","lat":-6.0525,"lng":26.9143,"pop":81191,"capital":false},{"name":"Baudhuinville","country":"CD","lat":-7.0841,"lng":29.7368,"pop":81181,"capital":false},{"name":"Kanyama","country":"CD","lat":-7.5167,"lng":24.174,"pop":80043,"capital":false},{"name":"Miabi","country":"CD","lat":-6.2215,"lng":23.3925,"pop":79929,"capital":false},{"name":"Nchelenge","country":"ZM","lat":-9.3451,"lng":28.734,"pop":77746,"capital":false},{"name":"Kalima","country":"CD","lat":-5.4854,"lng":28.216,"pop":72327,"capital":false},{"name":"Butare","country":"RW","lat":-2.5967,"lng":29.7394,"pop":62823,"capital":false},{"name":"Nyunzu","country":"CD","lat":-5.9561,"lng":28.0165,"pop":62565,"capital":false},{"name":"Ngozi","country":"BI","lat":-2.9075,"lng":29.8306,"pop":61716,"capital":false},{"name":"Mpanda","country":"BI","lat":-3.1703,"lng":29.4026,"pop":58913,"capital":false},{"name":"Rumonge","country":"BI","lat":-3.9736,"lng":29.4386,"pop":55599,"capital":false},{"name":"Luputa","country":"CD","lat":-7.1618,"lng":23.7006,"pop":54676,"capital":false},{"name":"Kabale","country":"UG","lat":-1.2486,"lng":29.9899,"pop":53200,"capital":false},{"name":"Kirumba","country":"CD","lat":-1.0906,"lng":29.2925,"pop":52041,"capital":false},{"name":"Kayna","country":"CD","lat":-0.6093,"lng":29.1725,"pop":51103,"capital":false},{"name":"Boende","country":"CD","lat":-0.2816,"lng":20.8805,"pop":50794,"capital":false},{"name":"Lusambo","country":"CD","lat":-4.975,"lng":23.4439,"pop":49376,"capital":false},{"name":"Kibuye","country":"RW","lat":-2.0603,"lng":29.3478,"pop":48024,"capital":false},{"name":"Lukula","country":"CD","lat":-3.8688,"lng":23.8835,"pop":46534,"capital":false},{"name":"Kipamba","country":"CD","lat":-8.2059,"lng":26.4204,"pop":46430,"capital":false},{"name":"Luebo","country":"CD","lat":-5.3522,"lng":21.4219,"pop":45443,"capital":false},{"name":"Kanyobagonga","country":"CD","lat":-0.6998,"lng":29.1718,"pop":44146,"capital":false},{"name":"Kabeya-Kamwanga","country":"CD","lat":-5.9988,"lng":23.2539,"pop":44093,"capital":false},{"name":"Cyangugu","country":"RW","lat":-2.4846,"lng":28.9075,"pop":43866,"capital":false},{"name":"Shyorongi","country":"RW","lat":-1.8544,"lng":29.9624,"pop":43744,"capital":false},{"name":"Katanda","country":"CD","lat":-0.8253,"lng":29.3645,"pop":42105,"capital":false},{"name":"Lubero","country":"CD","lat":-0.1584,"lng":29.2386,"pop":41722,"capital":false},{"name":"Kirambo","country":"RW","lat":-2.3155,"lng":29.1415,"pop":40341,"capital":false},{"name":"Kagano","country":"RW","lat":-2.3429,"lng":29.0912,"pop":39994,"capital":false},{"name":"Ngororero","country":"RW","lat":-1.8628,"lng":29.6254,"pop":38823,"capital":false},{"name":"Pweto","country":"CD","lat":-8.466,"lng":28.9008,"pop":38298,"capital":false},{"name":"Lubao","country":"CD","lat":-5.3877,"lng":25.7489,"pop":37818,"capital":false},{"name":"Rukungiri","country":"UG","lat":-0.8411,"lng":29.9419,"pop":37200,"capital":false},{"name":"Kampene","country":"CD","lat":-3.5968,"lng":26.6672,"pop":37034,"capital":false},{"name":"Kabare","country":"CD","lat":-2.4968,"lng":28.7908,"pop":37034,"capital":false},{"name":"Cibitoke","country":"BI","lat":-2.8869,"lng":29.1248,"pop":36959,"capital":false},{"name":"Kaputa","country":"ZM","lat":-8.4689,"lng":29.6619,"pop":35663,"capital":false},{"name":"Nzega","country":"RW","lat":-2.479,"lng":29.5564,"pop":33832,"capital":false},{"name":"Kayanza","country":"BI","lat":-2.9221,"lng":29.6293,"pop":33682,"capital":false},{"name":"Macuba","country":"RW","lat":-2.2933,"lng":29.1877,"pop":33319,"capital":false},{"name":"Karengera","country":"RW","lat":-2.5169,"lng":29.0326,"pop":32504,"capital":false},{"name":"Nyanza","country":"RW","lat":-2.3519,"lng":29.7509,"pop":32016,"capital":false},{"name":"Kawambwa","country":"ZM","lat":-9.7915,"lng":29.0791,"pop":31161,"capital":false},{"name":"Bugarama","country":"RW","lat":-2.6924,"lng":29.0077,"pop":31086,"capital":false},{"name":"Bubanza","country":"BI","lat":-3.0804,"lng":29.391,"pop":30996,"capital":false},{"name":"Gihombo","country":"RW","lat":-2.219,"lng":29.2343,"pop":29843,"capital":false},{"name":"Karambi","country":"RW","lat":-2.3169,"lng":29.2441,"pop":29726,"capital":false},{"name":"Vyanda","country":"BI","lat":-4.1024,"lng":29.606,"pop":29685,"capital":false},{"name":"Bushekeri","country":"RW","lat":-2.4195,"lng":29.0908,"pop":29680,"capital":false},{"name":"Nyabitekeli","country":"RW","lat":-2.3541,"lng":29.0298,"pop":29293,"capital":false},{"name":"Busogo","country":"RW","lat":-1.5584,"lng":29.5434,"pop":28264,"capital":false},{"name":"Shangi","country":"RW","lat":-2.4036,"lng":29.0059,"pop":28064,"capital":false},{"name":"Cyato","country":"RW","lat":-2.3871,"lng":29.1929,"pop":26996,"capital":false},{"name":"Kirimbi","country":"RW","lat":-2.2647,"lng":29.1964,"pop":25647,"capital":false},{"name":"Malemba-Nkulu","country":"CD","lat":-8.0447,"lng":26.7963,"pop":25430,"capital":false},{"name":"Gitesi","country":"RW","lat":-2.1139,"lng":29.4022,"pop":24859,"capital":false},{"name":"Pepa","country":"CD","lat":-7.6981,"lng":29.7772,"pop":24767,"capital":false},{"name":"Rubanda","country":"UG","lat":-1.1883,"lng":29.8461,"pop":22800,"capital":false},{"name":"Bushenge","country":"RW","lat":-2.4421,"lng":28.9824,"pop":22624,"capital":false},{"name":"Demba","country":"CD","lat":-5.4957,"lng":22.2696,"pop":22263,"capital":false},{"name":"Kihihi","country":"UG","lat":-0.75,"lng":29.7,"pop":21800,"capital":false},{"name":"Ruhango","country":"RW","lat":-2.2246,"lng":29.7909,"pop":21478,"capital":false},{"name":"Gikongoro","country":"RW","lat":-2.464,"lng":29.5739,"pop":21029,"capital":false},{"name":"Mahembe","country":"RW","lat":-2.2386,"lng":29.2929,"pop":20043,"capital":false},{"name":"Cassanguidi","country":"AO","lat":-7.4837,"lng":21.3034,"pop":20000,"capital":false},{"name":"Mukamira","country":"RW","lat":-1.6111,"lng":29.4969,"pop":19021,"capital":false},{"name":"Mugina","country":"RW","lat":-2.1057,"lng":29.9417,"pop":18586,"capital":false},{"name":"Gatumba","country":"BI","lat":-3.3333,"lng":29.25,"pop":18104,"capital":false},{"name":"Rangiro","country":"RW","lat":-2.4045,"lng":29.1606,"pop":17967,"capital":false},{"name":"Kisoro","country":"UG","lat":-1.2854,"lng":29.685,"pop":17700,"capital":false},{"name":"Sake","country":"CD","lat":-1.5739,"lng":29.0434,"pop":17151,"capital":false},{"name":"Ntungamo","country":"UG","lat":-0.8833,"lng":29.65,"pop":16915,"capital":false},{"name":"Mwandiga","country":"TZ","lat":-4.83,"lng":29.6581,"pop":16822,"capital":false},{"name":"Kanungu","country":"UG","lat":-0.9575,"lng":29.7897,"pop":16600,"capital":false},{"name":"Kamuhanda / Ruyenzi","country":"RW","lat":-1.9657,"lng":29.9846,"pop":16369,"capital":false},{"name":"Mwansabombwe","country":"ZM","lat":-9.822,"lng":28.7604,"pop":16077,"capital":false},{"name":"Mukingo","country":"RW","lat":-1.5394,"lng":29.5558,"pop":15695,"capital":false},{"name":"Chiengi","country":"ZM","lat":-8.6604,"lng":29.1614,"pop":15165,"capital":false},{"name":"Kora","country":"RW","lat":-1.6101,"lng":29.445,"pop":15134,"capital":false},{"name":"Makamba","country":"BI","lat":-4.1348,"lng":29.804,"pop":14539,"capital":false},{"name":"Kinigi","country":"RW","lat":-1.4426,"lng":29.5902,"pop":14523,"capital":false},{"name":"Mabanza","country":"RW","lat":-2.0524,"lng":29.4092,"pop":13139,"capital":false},{"name":"Mununga","country":"ZM","lat":-9.0486,"lng":29.0427,"pop":9135,"capital":false},{"name":"Rutana","country":"BI","lat":-3.9279,"lng":29.992,"pop":9075,"capital":false},{"name":"Isamba","country":"CD","lat":-4.0333,"lng":21.9833,"pop":8723,"capital":false},{"name":"Muramvya","country":"BI","lat":-3.2678,"lng":29.6162,"pop":8445,"capital":false},{"name":"Isale","country":"BI","lat":-3.3489,"lng":29.4839,"pop":7701,"capital":false},{"name":"Bururi","country":"BI","lat":-3.9488,"lng":29.6244,"pop":6929,"capital":false},{"name":"Kanyosha","country":"BI","lat":-3.4148,"lng":29.4082,"pop":6610,"capital":false},{"name":"Kayogoro","country":"BI","lat":-4.2298,"lng":29.7662,"pop":5474,"capital":false},{"name":"Mabanda","country":"BI","lat":-4.2743,"lng":29.7749,"pop":5027,"capital":false}]