[{"name":"Al Qūşīyah","country":"EG","lat":27.4402,"lng":30.8171,"pop":99598,"capital":false},{"name":"Aqaba","country":"JO","lat":29.5267,"lng":35.0078,"pop":95048,"capital":false},{"name":"Bibā","country":"EG","lat":28.9241,"lng":30.9854,"pop":94677,"capital":false},{"name":"Al Minshāh","country":"EG","lat":26.4775,"lng":31.8039,"pop":91149,"capital":false},{"name":"Al Badrashayn","country":"EG","lat":29.85,"lng":31.2667,"pop":90833,"capital":false},{"name":"Abū Qurqāş","country":"EG","lat":27.9304,"lng":30.8383,"pop":90266,"capital":false},{"name":"Abū an Numrus","country":"EG","lat":29.95,"lng":31.2,"pop":86601,"capital":false},{"name":"Ibshawāy","country":"EG","lat":29.359,"lng":30.6806,"pop":86186,"capital":false},{"name":"Qūş","country":"EG","lat":25.9154,"lng":32.7629,"pop":84386,"capital":false},{"name":"Al Khārjah","country":"EG","lat":25.451,"lng":30.5465,"pop":83108,"capital":false},{"name":"Al-Khārijah","country":"EG","lat":25.25,"lng":30.55,"pop":83108,"capital":false},{"name":"Maţāy","country":"EG","lat":28.4187,"lng":30.7786,"pop":82328,"capital":false},{"name":"Edfu","country":"EG","lat":24.9792,"lng":32.8772,"pop":79510,"capital":false},{"name":"Armant","country":"EG","lat":25.6199,"lng":32.5431,"pop":78695,"capital":false},{"name":"Juhaynah","country":"EG","lat":26.6742,"lng":31.4969,"pop":76555,"capital":false},{"name":"Iţsā","country":"EG","lat":29.2376,"lng":30.7894,"pop":74357,"capital":false},{"name":"Ţāmiyah","country":"EG","lat":29.4764,"lng":30.9612,"pop":73070,"capital":false},{"name":"Rābigh","country":"SA","lat":22.7986,"lng":39.0349,"pop":72928,"capital":false},{"name":"Farshūţ","country":"EG","lat":26.055,"lng":32.1627,"pop":71013,"capital":false},{"name":"Al Ghanāyim","country":"EG","lat":26.8752,"lng":31.3296,"pop":70884,"capital":false},{"name":"Ihnāsyā al Madīnah","country":"EG","lat":29.0895,"lng":30.9432,"pop":68976,"capital":false},{"name":"Al Balyanā","country":"EG","lat":26.2365,"lng":32.0039,"pop":68413,"capital":false},{"name":"Sumusţā al Waqf","country":"EG","lat":28.921,"lng":30.8537,"pop":64965,"capital":false},{"name":"Dishnā","country":"EG","lat":26.1224,"lng":32.4675,"pop":64744,"capital":false},{"name":"Ihnāsīyah","country":"EG","lat":29.0929,"lng":31.0204,"pop":64058,"capital":false},{"name":"Darāw","country":"EG","lat":24.408,"lng":32.9232,"pop":61790,"capital":false},{"name":"Aş Şaff","country":"EG","lat":29.5647,"lng":31.2811,"pop":61531,"capital":false},{"name":"Dayr Mawās","country":"EG","lat":27.6415,"lng":30.8501,"pop":60835,"capital":false},{"name":"Nag Hammâdi","country":"EG","lat":26.0495,"lng":32.2414,"pop":59601,"capital":false},{"name":"Al Wāsiţah","country":"EG","lat":29.3378,"lng":31.2056,"pop":57870,"capital":false},{"name":"Al Badārī","country":"EG","lat":26.9931,"lng":31.4161,"pop":56033,"capital":false},{"name":"As Sāḩil","country":"EG","lat":27.0631,"lng":31.3443,"pop":54094,"capital":false},{"name":"Al Marāghah","country":"EG","lat":26.6998,"lng":31.6046,"pop":53643,"capital":false},{"name":"Safaga","country":"EG","lat":26.7491,"lng":33.9389,"pop":53639,"capital":false},{"name":"Eilat","country":"IL","lat":29.5581,"lng":34.9482,"pop":52299,"capital":false},{"name":"Zaafarana","country":"EG","lat":29.1101,"lng":32.6601,"pop":46993,"capital":false},{"name":"Banī ‘Ubayd","country":"EG","lat":27.9524,"lng":30.7808,"pop":46060,"capital":false},{"name":"Al ‘Ayyāţ","country":"EG","lat":29.6197,"lng":31.2575,"pop":45793,"capital":false},{"name":"Al ‘Ayn as Sukhnah","country":"EG","lat":29.589,"lng":32.336,"pop":45552,"capital":false},{"name":"Ain Sukhna","country":"EG","lat":29.6002,"lng":32.3167,"pop":45552,"capital":false},{"name":"Ras Gharib","country":"EG","lat":28.3583,"lng":33.0783,"pop":44852,"capital":false},{"name":"Aţ Ţārif","country":"EG","lat":25.7383,"lng":32.6368,"pop":38871,"capital":false},{"name":"Sharm el-Sheikh","country":"EG","lat":27.9158,"lng":34.3299,"pop":38478,"capital":false},{"name":"El-Tor","country":"EG","lat":28.2417,"lng":33.6222,"pop":38285,"capital":false},{"name":"Dār as Salām","country":"EG","lat":26.2785,"lng":32.0561,"pop":38008,"capital":false},{"name":"Taymā’","country":"SA","lat":27.6223,"lng":38.5388,"pop":37579,"capital":false},{"name":"Sumusţā as Sulţānī","country":"EG","lat":28.9167,"lng":30.85,"pop":37260,"capital":false},{"name":"Al Waqf","country":"EG","lat":26.0866,"lng":32.4227,"pop":34723,"capital":false},{"name":"Sāqultah","country":"EG","lat":26.6582,"lng":31.6714,"pop":34273,"capital":false},{"name":"Umluj","country":"SA","lat":25.0213,"lng":37.2685,"pop":33874,"capital":false},{"name":"Al Başalīyah Baḩrī","country":"EG","lat":25.15,"lng":32.7167,"pop":32920,"capital":false},{"name":"Al-`Ula","country":"SA","lat":26.6085,"lng":37.9232,"pop":32413,"capital":false},{"name":"Banī Suwayf al Jadīdah","country":"EG","lat":29.033,"lng":31.1141,"pop":32278,"capital":false},{"name":"Ţūd","country":"EG","lat":25.5828,"lng":32.5329,"pop":30780,"capital":false},{"name":"Şidfā","country":"EG","lat":26.9664,"lng":31.3795,"pop":30228,"capital":false},{"name":"New Bani Sewif City","country":"EG","lat":29.0356,"lng":31.1179,"pop":29117,"capital":false},{"name":"Badr Ḩunayn","country":"SA","lat":23.7829,"lng":38.7905,"pop":27257,"capital":false},{"name":"Hala'ib","country":"EG","lat":22.2227,"lng":36.6468,"pop":27000,"capital":false},{"name":"Thuwal","country":"SA","lat":22.2827,"lng":39.1125,"pop":26957,"capital":false},{"name":"Aţfīḩ","country":"EG","lat":29.4075,"lng":31.2525,"pop":26943,"capital":false},{"name":"Naqādah","country":"EG","lat":25.9011,"lng":32.7239,"pop":26774,"capital":false},{"name":"Al Wajh","country":"SA","lat":26.2309,"lng":36.4649,"pop":26636,"capital":false},{"name":"Al ‘Idwah","country":"EG","lat":28.6992,"lng":30.7673,"pop":26092,"capital":false},{"name":"Ḩaql","country":"SA","lat":29.2863,"lng":34.9469,"pop":25649,"capital":false},{"name":"Al Quşayr","country":"EG","lat":26.1061,"lng":34.2772,"pop":24653,"capital":false},{"name":"Qifţ","country":"EG","lat":25.9984,"lng":32.8181,"pop":24010,"capital":false},{"name":"Yūsuf aṣ-Ṣiddīq","country":"EG","lat":29.385,"lng":30.557,"pop":23965,"capital":false},{"name":"Al Bayāḑīyah","country":"EG","lat":25.6648,"lng":32.6354,"pop":23550,"capital":false},{"name":"An Nāşirīyah","country":"EG","lat":27.2058,"lng":31.1964,"pop":22435,"capital":false},{"name":"Al Jumūm","country":"SA","lat":21.6195,"lng":39.6966,"pop":22207,"capital":false},{"name":"Duba","country":"SA","lat":27.3513,"lng":35.6901,"pop":22000,"capital":false},{"name":"As Sibā‘īyah","country":"EG","lat":25.1941,"lng":32.6771,"pop":21610,"capital":false},{"name":"Jarājūs","country":"EG","lat":25.872,"lng":32.7559,"pop":20427,"capital":false},{"name":"Khulayş","country":"SA","lat":22.1555,"lng":39.3202,"pop":20139,"capital":false},{"name":"Az Zaynīyah Qiblī","country":"EG","lat":25.7509,"lng":32.6776,"pop":20000,"capital":false},{"name":"Abū Ţisht","country":"EG","lat":26.1204,"lng":32.0954,"pop":18194,"capital":false},{"name":"Al-Minyā al-Jadīdah","country":"EG","lat":28.0864,"lng":30.8146,"pop":17470,"capital":false},{"name":"Ar Radīsīyah Qiblī","country":"EG","lat":24.9065,"lng":32.8856,"pop":16190,"capital":false},{"name":"El Gouna","country":"EG","lat":27.3942,"lng":33.6783,"pop":15000,"capital":false},{"name":"Wadi Halfa","country":"SD","lat":21.7958,"lng":31.3713,"pop":14675,"capital":false},{"name":"Shalateen","country":"EG","lat":23.1324,"lng":35.5909,"pop":12443,"capital":false},{"name":"Shalātīn","country":"EG","lat":23.1391,"lng":35.5982,"pop":12421,"capital":false},{"name":"Gebeit","country":"SD","lat":21.0667,"lng":36.3167,"pop":11095,"capital":false},{"name":"Marsa Alam","country":"EG","lat":25.0631,"lng":34.8901,"pop":10000,"capital":false},{"name":"King Abdullah City","country":"SA","lat":22.4463,"lng":39.1246,"pop":10000,"capital":false},{"name":"Dahab","country":"EG","lat":28.4821,"lng":34.4951,"pop":8000,"capital":false},{"name":"Al Quwayrah","country":"JO","lat":29.8005,"lng":35.3116,"pop":7372,"capital":false}]