[{"name":"Ozerki","country":"RU","lat":60.0395,"lng":30.3113,"pop":95000,"capital":false},{"name":"Svetlanovskiy","country":"RU","lat":60.0028,"lng":30.3305,"pop":85508,"capital":false},{"name":"Komendantsky aerodrom","country":"RU","lat":60.0045,"lng":30.2752,"pop":84052,"capital":false},{"name":"Grazhdanka","country":"RU","lat":60.017,"lng":30.417,"pop":71128,"capital":false},{"name":"Parnas","country":"RU","lat":60.0696,"lng":30.3487,"pop":66693,"capital":false},{"name":"Sosnovka","country":"RU","lat":60.0167,"lng":30.35,"pop":66227,"capital":false},{"name":"Apatity","country":"RU","lat":67.5827,"lng":33.4134,"pop":61186,"capital":false},{"name":"Severomorsk","country":"RU","lat":69.0694,"lng":33.4081,"pop":53921,"capital":false},{"name":"Untolovo","country":"RU","lat":60.0122,"lng":30.209,"pop":50000,"capital":false},{"name":"Monchegorsk","country":"RU","lat":67.9397,"lng":32.8739,"pop":49868,"capital":false},{"name":"Vsevolozhsk","country":"RU","lat":60.0151,"lng":30.6731,"pop":48224,"capital":false},{"name":"Sertolovo","country":"RU","lat":60.1444,"lng":30.2017,"pop":43622,"capital":false},{"name":"Yagry","country":"RU","lat":64.5942,"lng":39.8103,"pop":40000,"capital":false},{"name":"Kolomyagi","country":"RU","lat":60.0243,"lng":30.2849,"pop":39945,"capital":false},{"name":"Kandalaksha","country":"RU","lat":67.1512,"lng":32.4128,"pop":38431,"capital":false},{"name":"Kondopoga","country":"RU","lat":62.2041,"lng":34.2693,"pop":34360,"capital":false},{"name":"Segezha","country":"RU","lat":63.7455,"lng":34.3161,"pop":33354,"capital":false},{"name":"Kostomuksha","country":"RU","lat":64.571,"lng":30.5767,"pop":30135,"capital":false},{"name":"Kirovsk","country":"RU","lat":67.6148,"lng":33.6727,"pop":29605,"capital":false},{"name":"Olenegorsk","country":"RU","lat":68.1432,"lng":33.2529,"pop":23670,"capital":false},{"name":"Onega","country":"RU","lat":63.9057,"lng":38.0994,"pop":22693,"capital":false},{"name":"Lodeynoye Pole","country":"RU","lat":60.7256,"lng":33.5606,"pop":22164,"capital":false},{"name":"Sortavala","country":"RU","lat":61.7123,"lng":30.7095,"pop":20760,"capital":false},{"name":"Podporozh’ye","country":"RU","lat":60.91,"lng":34.1619,"pop":19600,"capital":false},{"name":"Kovdor","country":"RU","lat":67.5663,"lng":30.4777,"pop":19518,"capital":false},{"name":"Priozërsk","country":"RU","lat":61.0403,"lng":30.1392,"pop":18300,"capital":false},{"name":"Zapolyarnyy","country":"RU","lat":69.426,"lng":30.811,"pop":17789,"capital":false},{"name":"Polyarnyy","country":"RU","lat":69.2028,"lng":33.437,"pop":17332,"capital":false},{"name":"Medvezh’yegorsk","country":"RU","lat":62.9145,"lng":34.4586,"pop":16551,"capital":false},{"name":"Nikel","country":"RU","lat":69.4129,"lng":30.222,"pop":15596,"capital":false},{"name":"Polyarnyye Zori","country":"RU","lat":67.3661,"lng":32.4981,"pop":15092,"capital":false},{"name":"Gadzhiyevo","country":"RU","lat":69.2551,"lng":33.3362,"pop":14225,"capital":false},{"name":"Murmashi","country":"RU","lat":68.8154,"lng":32.8115,"pop":14152,"capital":false},{"name":"Kem’","country":"RU","lat":64.957,"lng":34.5918,"pop":13829,"capital":false},{"name":"Zaozërsk","country":"RU","lat":69.4013,"lng":32.4484,"pop":13429,"capital":false},{"name":"Syas’stroy","country":"RU","lat":60.1367,"lng":32.5691,"pop":13300,"capital":false},{"name":"Pitkyaranta","country":"RU","lat":61.5739,"lng":31.4789,"pop":13090,"capital":false},{"name":"Kuz’molovskiy","country":"RU","lat":60.1092,"lng":30.4909,"pop":12794,"capital":false},{"name":"Vaskelovo","country":"RU","lat":60.3957,"lng":30.3542,"pop":12388,"capital":false},{"name":"Belomorsk","country":"RU","lat":64.53,"lng":34.7629,"pop":12165,"capital":false},{"name":"Snezhnogorsk","country":"RU","lat":69.1933,"lng":33.2531,"pop":12014,"capital":false},{"name":"Pargolovo","country":"RU","lat":60.0812,"lng":30.2763,"pop":11962,"capital":false},{"name":"Vytegra","country":"RU","lat":61.0064,"lng":36.4481,"pop":11099,"capital":false},{"name":"Belozërsk","country":"RU","lat":60.0288,"lng":37.8084,"pop":11049,"capital":false},{"name":"Novoye Devyatkino","country":"RU","lat":60.0636,"lng":30.4833,"pop":10978,"capital":false},{"name":"Kargopol’","country":"RU","lat":61.5036,"lng":38.9486,"pop":10966,"capital":false},{"name":"Suoyarvi","country":"RU","lat":62.0881,"lng":32.3733,"pop":10833,"capital":false},{"name":"Nadvoitsy","country":"RU","lat":63.889,"lng":34.258,"pop":10780,"capital":false},{"name":"Pudozh","country":"RU","lat":61.8042,"lng":36.5277,"pop":10605,"capital":false},{"name":"Kola","country":"RU","lat":68.8814,"lng":33.0177,"pop":10600,"capital":false},{"name":"Olonets","country":"RU","lat":60.9811,"lng":32.9726,"pop":10005,"capital":false},{"name":"Lieksa","country":"FI","lat":63.3167,"lng":30.0167,"pop":10002,"capital":false},{"name":"Revda","country":"RU","lat":67.9371,"lng":34.5615,"pop":9780,"capital":false},{"name":"Novaya Ladoga","country":"RU","lat":60.1025,"lng":32.3019,"pop":9680,"capital":false},{"name":"Kitee","country":"FI","lat":62.1,"lng":30.15,"pop":9483,"capital":false},{"name":"Roslyakovo","country":"RU","lat":69.043,"lng":33.1991,"pop":8921,"capital":false},{"name":"Lakhdenpokh’ya","country":"RU","lat":61.5197,"lng":30.1976,"pop":8448,"capital":false},{"name":"Pesochnyy","country":"RU","lat":60.123,"lng":30.164,"pop":8130,"capital":false},{"name":"Zelenoborskiy","country":"RU","lat":66.845,"lng":32.3622,"pop":7207,"capital":false},{"name":"Vidyayevo","country":"RU","lat":69.3191,"lng":32.8049,"pop":7062,"capital":false},{"name":"Murino","country":"RU","lat":60.048,"lng":30.452,"pop":7023,"capital":false},{"name":"Eno","country":"FI","lat":62.8051,"lng":30.1542,"pop":6891,"capital":false},{"name":"Vysokiy","country":"RU","lat":68.1358,"lng":33.4192,"pop":6860,"capital":false},{"name":"Alakurtti","country":"RU","lat":66.9672,"lng":30.3491,"pop":6293,"capital":false},{"name":"Bugry","country":"RU","lat":60.0712,"lng":30.3923,"pop":6154,"capital":false},{"name":"Umba","country":"RU","lat":66.6871,"lng":34.3429,"pop":6128,"capital":false},{"name":"Shuvalovo","country":"RU","lat":60.047,"lng":30.3,"pop":6000,"capital":false},{"name":"Sosnovo","country":"RU","lat":60.5515,"lng":30.2144,"pop":5923,"capital":false},{"name":"Toksovo","country":"RU","lat":60.1532,"lng":30.5165,"pop":5863,"capital":false},{"name":"Loukhi","country":"RU","lat":66.075,"lng":33.0487,"pop":5764,"capital":false},{"name":"Romanovka","country":"RU","lat":60.0443,"lng":30.714,"pop":5647,"capital":false},{"name":"Kalevala","country":"RU","lat":65.1987,"lng":31.19,"pop":5431,"capital":false},{"name":"Molochnyy","country":"RU","lat":68.8539,"lng":33.0205,"pop":5308,"capital":false},{"name":"Pindushi","country":"RU","lat":62.9152,"lng":34.58,"pop":5053,"capital":false},{"name":"Agalatovo","country":"RU","lat":60.2195,"lng":30.2739,"pop":5028,"capital":false}]