[{"name":"Port Shepstone","country":"ZA","lat":-30.7414,"lng":30.455,"pop":52793,"capital":false},{"name":"Margate","country":"ZA","lat":-30.8636,"lng":30.3705,"pop":34407,"capital":false},{"name":"Scottburgh","country":"ZA","lat":-30.2867,"lng":30.7532,"pop":23949,"capital":false},{"name":"eMkhomazi","country":"ZA","lat":-30.2067,"lng":30.7964,"pop":20410,"capital":false},{"name":"eMuziwezinto","country":"ZA","lat":-30.31,"lng":30.6628,"pop":19415,"capital":false},{"name":"Ga-Malakhe","country":"ZA","lat":-30.8063,"lng":30.3348,"pop":16891,"capital":false},{"name":"Ixopo","country":"ZA","lat":-30.15,"lng":30.0833,"pop":14929,"capital":false},{"name":"eManzimtoti","country":"ZA","lat":-30.0522,"lng":30.8853,"pop":13813,"capital":false},{"name":"Craigieburn","country":"ZA","lat":-30.1971,"lng":30.7522,"pop":13543,"capital":false},{"name":"Port Edward","country":"ZA","lat":-31.0507,"lng":30.228,"pop":6872,"capital":false},{"name":"Magabeni","country":"ZA","lat":-30.1724,"lng":30.7657,"pop":5904,"capital":false}]