[{"name":"Inhambane","country":"MZ","lat":-23.865,"lng":35.3833,"pop":95388,"capital":false},{"name":"Masvingo","country":"ZW","lat":-20.0637,"lng":30.8277,"pop":90286,"capital":false},{"name":"Dundee","country":"ZA","lat":-28.1668,"lng":30.2337,"pop":84413,"capital":false},{"name":"Piet Retief","country":"ZA","lat":-27.0071,"lng":30.8132,"pop":84349,"capital":false},{"name":"Chibuto","country":"MZ","lat":-24.6867,"lng":33.5306,"pop":73393,"capital":false},{"name":"Barberton","country":"ZA","lat":-25.7884,"lng":31.0532,"pop":67927,"capital":false},{"name":"Manhiça","country":"MZ","lat":-25.4022,"lng":32.8072,"pop":65240,"capital":false},{"name":"Tongaat","country":"ZA","lat":-29.5737,"lng":31.1155,"pop":64829,"capital":false},{"name":"Chokwé","country":"MZ","lat":-24.5333,"lng":32.9833,"pop":63695,"capital":false},{"name":"Zvishavane","country":"ZW","lat":-20.3267,"lng":30.0665,"pop":59717,"capital":false},{"name":"Beitbridge","country":"ZW","lat":-22.2167,"lng":30,"pop":58574,"capital":false},{"name":"Mondlo","country":"ZA","lat":-27.983,"lng":30.7177,"pop":53892,"capital":false},{"name":"Nkowakowa","country":"ZA","lat":-23.8878,"lng":30.2871,"pop":51350,"capital":false},{"name":"Musina","country":"ZA","lat":-22.3488,"lng":30.0407,"pop":51132,"capital":false},{"name":"Lydenburg","country":"ZA","lat":-25.096,"lng":30.4439,"pop":49605,"capital":false},{"name":"eSikhaleni","country":"ZA","lat":-28.871,"lng":31.8996,"pop":49265,"capital":false},{"name":"Matsulu","country":"ZA","lat":-25.523,"lng":31.3569,"pop":47306,"capital":false},{"name":"Vilankulo","country":"MZ","lat":-22,"lng":35.3167,"pop":43183,"capital":false},{"name":"Mkhuhlu","country":"ZA","lat":-24.9878,"lng":31.2385,"pop":42969,"capital":false},{"name":"Chiredzi","country":"ZW","lat":-21.05,"lng":31.6667,"pop":40100,"capital":false},{"name":"Mandeni","country":"ZA","lat":-29.1469,"lng":31.414,"pop":37533,"capital":false},{"name":"Lukwatini","country":"ZA","lat":-26.055,"lng":30.8229,"pop":37362,"capital":false},{"name":"Giyani","country":"ZA","lat":-23.3025,"lng":30.7187,"pop":37024,"capital":false},{"name":"Folweni","country":"ZA","lat":-29.9957,"lng":30.8072,"pop":36425,"capital":false},{"name":"Calcutta","country":"ZA","lat":-24.9832,"lng":31.2349,"pop":35864,"capital":false},{"name":"Dwarsloop","country":"ZA","lat":-24.7946,"lng":31.1028,"pop":35397,"capital":false},{"name":"Chipinge","country":"ZW","lat":-20.1883,"lng":32.6237,"pop":34959,"capital":false},{"name":"Acornhoek","country":"ZA","lat":-24.5878,"lng":31.0947,"pop":33529,"capital":false},{"name":"Mtubatuba","country":"ZA","lat":-28.4179,"lng":32.1848,"pop":33182,"capital":false},{"name":"Empangeni","country":"ZA","lat":-28.762,"lng":31.8933,"pop":33075,"capital":false},{"name":"Howick","country":"ZA","lat":-29.4779,"lng":30.2306,"pop":32453,"capital":false},{"name":"Richmond","country":"ZA","lat":-29.872,"lng":30.2724,"pop":32445,"capital":false},{"name":"Macia","country":"MZ","lat":-25.0269,"lng":33.0989,"pop":32286,"capital":false},{"name":"Ulundi","country":"ZA","lat":-28.3352,"lng":31.4162,"pop":31795,"capital":false},{"name":"Mpophomeni","country":"ZA","lat":-29.5682,"lng":30.1862,"pop":30830,"capital":false},{"name":"Nhlazatje","country":"ZA","lat":-26.0403,"lng":30.7927,"pop":28224,"capital":false},{"name":"Driefontein","country":"ZA","lat":-26.965,"lng":30.4357,"pop":28127,"capital":false},{"name":"Ballitoville","country":"ZA","lat":-29.539,"lng":31.2144,"pop":27718,"capital":false},{"name":"Shakaskraal","country":"ZA","lat":-29.4493,"lng":31.2153,"pop":27345,"capital":false},{"name":"Boane","country":"MZ","lat":-26.0424,"lng":32.3303,"pop":27325,"capital":false},{"name":"Praktiseer","country":"ZA","lat":-24.584,"lng":30.3168,"pop":26675,"capital":false},{"name":"White River","country":"ZA","lat":-25.3318,"lng":31.0117,"pop":25607,"capital":false},{"name":"Kamaqhekeza","country":"ZA","lat":-25.6703,"lng":31.8629,"pop":25390,"capital":false},{"name":"Duiwelskloof","country":"ZA","lat":-23.6934,"lng":30.14,"pop":24572,"capital":false},{"name":"Massinga","country":"MZ","lat":-23.3292,"lng":35.3814,"pop":24312,"capital":false},{"name":"Xilembene","country":"MZ","lat":-24.6894,"lng":33.2584,"pop":23742,"capital":false},{"name":"Schoemansdal","country":"ZA","lat":-25.7087,"lng":31.5103,"pop":23257,"capital":false},{"name":"Redhill","country":"ZA","lat":-26.2607,"lng":30.8255,"pop":23153,"capital":false},{"name":"Greytown","country":"ZA","lat":-29.0641,"lng":30.5928,"pop":23139,"capital":false},{"name":"Hlanganani","country":"ZA","lat":-24.9591,"lng":31.1703,"pop":21506,"capital":false},{"name":"Glencoe","country":"ZA","lat":-28.1783,"lng":30.147,"pop":21024,"capital":false},{"name":"Komatipoort","country":"ZA","lat":-25.4332,"lng":31.9548,"pop":20508,"capital":false},{"name":"Mafemani","country":"ZA","lat":-24.7886,"lng":31.0794,"pop":20389,"capital":false},{"name":"Carolina","country":"ZA","lat":-26.0693,"lng":30.1149,"pop":20184,"capital":false},{"name":"Belfast","country":"ZA","lat":-25.6899,"lng":30.035,"pop":20036,"capital":false},{"name":"Ncotshane","country":"ZA","lat":-27.342,"lng":31.58,"pop":19562,"capital":false},{"name":"Tshitereke","country":"ZA","lat":-22.8842,"lng":30.4936,"pop":19092,"capital":false},{"name":"Sabie","country":"ZA","lat":-25.0999,"lng":30.78,"pop":18903,"capital":false},{"name":"Driekoppies","country":"ZA","lat":-25.6978,"lng":31.564,"pop":18498,"capital":false},{"name":"Tekwane","country":"ZA","lat":-25.4778,"lng":31.1456,"pop":17846,"capital":false},{"name":"Eshowe","country":"ZA","lat":-28.8865,"lng":31.4699,"pop":17663,"capital":false},{"name":"Tzaneen","country":"ZA","lat":-23.8332,"lng":30.1635,"pop":17457,"capital":false},{"name":"Frischgewaagd","country":"ZA","lat":-27.3898,"lng":30.9547,"pop":16192,"capital":false},{"name":"Thulamahashi","country":"ZA","lat":-24.7246,"lng":31.1994,"pop":15974,"capital":false},{"name":"Fernie","country":"ZA","lat":-26.3901,"lng":30.7874,"pop":15693,"capital":false},{"name":"Malamulele","country":"ZA","lat":-22.9711,"lng":30.6736,"pop":15659,"capital":false},{"name":"Empuluzu","country":"ZA","lat":-26.305,"lng":30.7737,"pop":15008,"capital":false},{"name":"Berea","country":"ZA","lat":-29.8518,"lng":30.9934,"pop":15000,"capital":false},{"name":"Moamba","country":"MZ","lat":-25.6027,"lng":32.2461,"pop":14940,"capital":false},{"name":"Namaacha","country":"MZ","lat":-25.975,"lng":32.019,"pop":14781,"capital":false},{"name":"Namakgale","country":"ZA","lat":-23.934,"lng":31.0312,"pop":14588,"capital":false},{"name":"Lenyenye","country":"ZA","lat":-23.9706,"lng":30.2697,"pop":14496,"capital":false},{"name":"Ekuvukeni","country":"ZA","lat":-28.4675,"lng":30.1551,"pop":14331,"capital":false},{"name":"Tukakgomo","country":"ZA","lat":-24.7433,"lng":30.1076,"pop":13472,"capital":false},{"name":"Thulamahashe","country":"ZA","lat":-24.7245,"lng":31.2118,"pop":13333,"capital":false},{"name":"Xikhusese","country":"ZA","lat":-24.6024,"lng":31.1346,"pop":13324,"capital":false},{"name":"Hopewell","country":"ZA","lat":-29.7917,"lng":30.3959,"pop":13321,"capital":false},{"name":"Paulpietersburg","country":"ZA","lat":-27.4243,"lng":30.8169,"pop":13123,"capital":false},{"name":"Inhassoro","country":"MZ","lat":-21.5347,"lng":35.2022,"pop":13122,"capital":false},{"name":"Marracuene","country":"MZ","lat":-25.7369,"lng":32.6764,"pop":13051,"capital":false},{"name":"Ga-Kgapane","country":"ZA","lat":-23.6438,"lng":30.2232,"pop":13000,"capital":false},{"name":"Mashava","country":"ZW","lat":-20.0367,"lng":30.4823,"pop":12994,"capital":false},{"name":"Maboke","country":"ZA","lat":-24.7254,"lng":31.0183,"pop":12752,"capital":false},{"name":"Tjakastad","country":"ZA","lat":-25.989,"lng":30.823,"pop":12711,"capital":false},{"name":"Bolla-Tau","country":"ZA","lat":-24.6328,"lng":31.1311,"pop":12703,"capital":false},{"name":"Ka-Mhinga","country":"ZA","lat":-22.7577,"lng":30.8998,"pop":12609,"capital":false},{"name":"Embhojeni","country":"ZA","lat":-25.7179,"lng":31.4793,"pop":12589,"capital":false},{"name":"Morrumbene","country":"MZ","lat":-23.6578,"lng":35.345,"pop":12532,"capital":false},{"name":"Sundumbili","country":"ZA","lat":-29.1337,"lng":31.3975,"pop":12455,"capital":false},{"name":"Magude","country":"MZ","lat":-25.0231,"lng":32.6481,"pop":12419,"capital":false},{"name":"Quissico","country":"MZ","lat":-24.7203,"lng":34.7425,"pop":12070,"capital":false},{"name":"Oakley","country":"ZA","lat":-24.9268,"lng":31.2289,"pop":12064,"capital":false},{"name":"Manjacaze","country":"MZ","lat":-24.7239,"lng":33.8564,"pop":11984,"capital":false},{"name":"Xinavane","country":"MZ","lat":-25.1605,"lng":32.8004,"pop":11534,"capital":false},{"name":"Kgwaripe","country":"ZA","lat":-28.3701,"lng":32.3488,"pop":11519,"capital":false},{"name":"Emtfuntini","country":"ZA","lat":-25.6841,"lng":31.637,"pop":11323,"capital":false},{"name":"Machadodorp","country":"ZA","lat":-25.6688,"lng":30.2497,"pop":10712,"capital":false},{"name":"Hazelmere","country":"ZA","lat":-29.5966,"lng":31.0436,"pop":10605,"capital":false},{"name":"Buyisonto","country":"ZA","lat":-24.7901,"lng":31.1303,"pop":10472,"capital":false},{"name":"Dannhauser","country":"ZA","lat":-28.0151,"lng":30.0566,"pop":10378,"capital":false},{"name":"Darnall","country":"ZA","lat":-29.2668,"lng":31.3576,"pop":10106,"capital":false},{"name":"Inanda","country":"ZA","lat":-29.6139,"lng":30.9282,"pop":10032,"capital":false},{"name":"Malkerns","country":"SZ","lat":-26.5287,"lng":31.1919,"pop":9724,"capital":false},{"name":"Vila Eduardo Mondlane","country":"MZ","lat":-22.0792,"lng":31.6786,"pop":9665,"capital":false},{"name":"Hluvukani","country":"ZA","lat":-24.6453,"lng":31.341,"pop":9631,"capital":false},{"name":"Khokhamoya","country":"ZA","lat":-24.9537,"lng":31.3214,"pop":9466,"capital":false},{"name":"Inharrime","country":"MZ","lat":-24.4769,"lng":35.0303,"pop":9415,"capital":false},{"name":"Melmoth","country":"ZA","lat":-28.5866,"lng":31.3978,"pop":9362,"capital":false},{"name":"Bilene","country":"MZ","lat":-25.2726,"lng":33.2421,"pop":9235,"capital":false},{"name":"Mhlambanyatsi","country":"ZA","lat":-25.662,"lng":31.5159,"pop":9219,"capital":false},{"name":"Shatale","country":"ZA","lat":-24.7957,"lng":31.0471,"pop":9155,"capital":false},{"name":"Nongoma","country":"ZA","lat":-27.9097,"lng":31.6482,"pop":9140,"capital":false},{"name":"Nhlangano","country":"SZ","lat":-27.1122,"lng":31.1983,"pop":9016,"capital":false},{"name":"Tsakani","country":"ZA","lat":-24.6193,"lng":31.0513,"pop":8907,"capital":false},{"name":"Kamalamule","country":"ZA","lat":-24.8758,"lng":31.3118,"pop":8766,"capital":false},{"name":"Marite","country":"ZA","lat":-24.9716,"lng":31.1125,"pop":8657,"capital":false},{"name":"Mhlume","country":"SZ","lat":-26.0261,"lng":31.8142,"pop":8652,"capital":false},{"name":"Utrecht","country":"ZA","lat":-27.6586,"lng":30.3217,"pop":8486,"capital":false},{"name":"Homoíne","country":"MZ","lat":-23.8844,"lng":35.1514,"pop":8447,"capital":false},{"name":"eManzana","country":"ZA","lat":-25.9541,"lng":30.5627,"pop":8293,"capital":false},{"name":"Wakkerstroom","country":"ZA","lat":-27.3549,"lng":30.1438,"pop":8209,"capital":false},{"name":"Weenen","country":"ZA","lat":-28.8492,"lng":30.0772,"pop":8183,"capital":false},{"name":"eMvelo","country":"ZA","lat":-26.6245,"lng":30.6623,"pop":8110,"capital":false},{"name":"Kamhlushwa","country":"ZA","lat":-25.6636,"lng":31.6834,"pop":7917,"capital":false},{"name":"Bosfontein","country":"ZA","lat":-25.7424,"lng":31.618,"pop":7811,"capital":false},{"name":"Burgersfort","country":"ZA","lat":-24.6755,"lng":30.3288,"pop":7630,"capital":false},{"name":"Welverdiend","country":"ZA","lat":-24.5801,"lng":31.3256,"pop":7601,"capital":false},{"name":"Emgwenya","country":"ZA","lat":-25.6368,"lng":30.324,"pop":7410,"capital":false},{"name":"Magogeni","country":"ZA","lat":-25.7884,"lng":31.6076,"pop":7396,"capital":false},{"name":"Lothair","country":"ZA","lat":-26.3894,"lng":30.4353,"pop":7306,"capital":false},{"name":"Edinburgh A","country":"ZA","lat":-24.6898,"lng":31.1796,"pop":7305,"capital":false},{"name":"KwaThandeka","country":"ZA","lat":-26.6537,"lng":30.678,"pop":7289,"capital":false},{"name":"Madyembeni","country":"ZA","lat":-24.7697,"lng":31.0282,"pop":7210,"capital":false},{"name":"Glenmore","country":"ZA","lat":-26.2647,"lng":30.8436,"pop":7180,"capital":false},{"name":"Merry Pebble Stream","country":"ZA","lat":-24.7665,"lng":31.2187,"pop":6905,"capital":false},{"name":"Trust Feed","country":"ZA","lat":-29.3997,"lng":30.5428,"pop":6901,"capital":false},{"name":"Maviljan A","country":"ZA","lat":-24.8482,"lng":31.0883,"pop":6829,"capital":false},{"name":"Lillydale","country":"ZA","lat":-24.8664,"lng":31.3689,"pop":6799,"capital":false},{"name":"Hluti","country":"SZ","lat":-27.221,"lng":31.5869,"pop":6763,"capital":false},{"name":"Nondweni","country":"ZA","lat":-28.1923,"lng":30.8196,"pop":6691,"capital":false},{"name":"Madras A","country":"ZA","lat":-24.9911,"lng":31.1484,"pop":6635,"capital":false},{"name":"Caniçado","country":"MZ","lat":-24.417,"lng":32.9429,"pop":6608,"capital":false},{"name":"Nqutu","country":"ZA","lat":-28.2122,"lng":30.6754,"pop":6533,"capital":false},{"name":"Big Bend","country":"SZ","lat":-26.7905,"lng":31.9374,"pop":6433,"capital":false},{"name":"Godide","country":"ZA","lat":-24.729,"lng":31.237,"pop":6291,"capital":false},{"name":"Dullstroom","country":"ZA","lat":-25.4167,"lng":30.1061,"pop":6256,"capital":false},{"name":"Justicia","country":"ZA","lat":-24.88,"lng":31.4132,"pop":6221,"capital":false},{"name":"Siteki","country":"SZ","lat":-26.4525,"lng":31.9472,"pop":6152,"capital":false},{"name":"eMakhazeni B","country":"ZA","lat":-24.9512,"lng":31.3717,"pop":6118,"capital":false},{"name":"Thabakgolo","country":"ZA","lat":-24.8005,"lng":31.0319,"pop":5939,"capital":false},{"name":"Orinoco A","country":"ZA","lat":-24.7626,"lng":31.0652,"pop":5884,"capital":false},{"name":"Tshandama","country":"ZA","lat":-22.7457,"lng":30.5093,"pop":5842,"capital":false},{"name":"Ludlow","country":"ZA","lat":-24.6692,"lng":31.2793,"pop":5766,"capital":false},{"name":"Piggs Peak","country":"SZ","lat":-25.9608,"lng":31.2467,"pop":5750,"capital":false},{"name":"Ngema Tribal Trust","country":"ZA","lat":-27.0731,"lng":30.542,"pop":5590,"capital":false},{"name":"Manguzi","country":"ZA","lat":-26.991,"lng":32.751,"pop":5534,"capital":false},{"name":"Albert Falls","country":"ZA","lat":-29.4404,"lng":30.4334,"pop":5434,"capital":false},{"name":"Lidgetton","country":"ZA","lat":-29.4405,"lng":30.1,"pop":5416,"capital":false},{"name":"Ekulindeni","country":"ZA","lat":-26.046,"lng":31.0232,"pop":5416,"capital":false},{"name":"Senwamokgope","country":"ZA","lat":-23.4092,"lng":30.1604,"pop":5328,"capital":false},{"name":"eMkhuze","country":"ZA","lat":-27.6205,"lng":32.0339,"pop":5288,"capital":false},{"name":"Kumana","country":"ZA","lat":-24.7503,"lng":31.2211,"pop":5235,"capital":false},{"name":"Cato Ridge","country":"ZA","lat":-29.7333,"lng":30.5833,"pop":5168,"capital":false},{"name":"Matsavana","country":"ZA","lat":-24.8219,"lng":31.26,"pop":5157,"capital":false},{"name":"Hazyview","country":"ZA","lat":-25.044,"lng":31.1277,"pop":5074,"capital":false},{"name":"Kgapamadi","country":"ZA","lat":-24.6086,"lng":31.0177,"pop":5049,"capital":false},{"name":"Lobamba","country":"SZ","lat":-26.4667,"lng":31.2,"pop":4557,"capital":false}]