[{"name":"Kars","country":"TR","lat":40.5983,"lng":43.0855,"pop":91450,"capital":false},{"name":"Qaraçuxur","country":"AZ","lat":40.3967,"lng":49.9736,"pop":87349,"capital":false},{"name":"Kaspiysk","country":"RU","lat":42.8817,"lng":47.6392,"pop":81752,"capital":false},{"name":"Yessentuki","country":"RU","lat":44.0483,"lng":42.8564,"pop":81015,"capital":false},{"name":"Kropotkin","country":"RU","lat":45.4372,"lng":40.5704,"pop":79599,"capital":false},{"name":"Vanadzor","country":"AM","lat":40.8074,"lng":44.497,"pop":78100,"capital":false},{"name":"Mineralnye Vody","country":"RU","lat":44.2103,"lng":43.1353,"pop":76280,"capital":false},{"name":"Kamensk-Shakhtinsky","country":"RU","lat":48.3178,"lng":40.2595,"pop":75814,"capital":false},{"name":"Kanaker-Zeytun","country":"AM","lat":40.22,"lng":44.5383,"pop":75500,"capital":false},{"name":"Georgiyevsk","country":"RU","lat":44.1494,"lng":43.4702,"pop":72649,"capital":false},{"name":"Sunzha","country":"RU","lat":43.3206,"lng":45.049,"pop":71841,"capital":false},{"name":"Sheki","country":"AZ","lat":41.1919,"lng":47.1706,"pop":68400,"capital":false},{"name":"Ardeşen","country":"TR","lat":41.1906,"lng":40.9793,"pop":67965,"capital":false},{"name":"Budyonnovsk","country":"RU","lat":44.7839,"lng":44.1658,"pop":67962,"capital":false},{"name":"Xaçmaz","country":"AZ","lat":41.4643,"lng":48.8057,"pop":67600,"capital":false},{"name":"Bakıxanov","country":"AZ","lat":40.4189,"lng":49.9669,"pop":66686,"capital":false},{"name":"Sokhumi","country":"GE","lat":43.007,"lng":40.9893,"pop":65439,"capital":false},{"name":"Tikhoretsk","country":"RU","lat":45.8531,"lng":40.1187,"pop":64387,"capital":false},{"name":"Buynaksk","country":"RU","lat":42.818,"lng":47.1268,"pop":62689,"capital":false},{"name":"Labinsk","country":"RU","lat":44.636,"lng":40.7357,"pop":61945,"capital":false},{"name":"Sal’sk","country":"RU","lat":46.4749,"lng":41.5416,"pop":61000,"capital":false},{"name":"Prokhladnyy","country":"RU","lat":43.7574,"lng":44.0297,"pop":60800,"capital":false},{"name":"Mikhaylovsk","country":"RU","lat":45.131,"lng":42.027,"pop":59198,"capital":false},{"name":"Avan","country":"AM","lat":40.2144,"lng":44.5785,"pop":58800,"capital":false},{"name":"Davtashen","country":"AM","lat":40.2164,"lng":44.4809,"pop":52100,"capital":false},{"name":"Kizlyar","country":"RU","lat":43.8469,"lng":46.7098,"pop":50564,"capital":false},{"name":"Abovyan","country":"AM","lat":40.2717,"lng":44.6334,"pop":50556,"capital":false},{"name":"Hrazdan","country":"AM","lat":40.5169,"lng":44.7559,"pop":49500,"capital":false},{"name":"Bayburt","country":"TR","lat":40.2563,"lng":40.2229,"pop":48036,"capital":false},{"name":"Vagharshapat","country":"AM","lat":40.1656,"lng":44.2946,"pop":47989,"capital":false},{"name":"Kurganinsk","country":"RU","lat":44.8845,"lng":40.5889,"pop":47681,"capital":false},{"name":"Belaya Kalitva","country":"RU","lat":48.1793,"lng":40.7792,"pop":47521,"capital":false},{"name":"Staryy Malgobek","country":"RU","lat":43.5444,"lng":44.5959,"pop":46334,"capital":false},{"name":"Akhtubinsk","country":"RU","lat":48.2834,"lng":46.1652,"pop":44551,"capital":false},{"name":"Krasnyy Sulin","country":"RU","lat":47.8925,"lng":40.0719,"pop":44133,"capital":false},{"name":"Malgobek","country":"RU","lat":43.5112,"lng":44.5905,"pop":43400,"capital":false},{"name":"Göyçay","country":"AZ","lat":40.6506,"lng":47.7422,"pop":42500,"capital":false},{"name":"Bilajari","country":"AZ","lat":40.4444,"lng":49.8057,"pop":42194,"capital":false},{"name":"Izberbash","country":"RU","lat":42.5671,"lng":47.8755,"pop":42121,"capital":false},{"name":"Gori","country":"GE","lat":41.9853,"lng":44.1129,"pop":41933,"capital":false},{"name":"Barda","country":"AZ","lat":40.3758,"lng":47.1262,"pop":41600,"capital":false},{"name":"Urus-Martan","country":"RU","lat":43.1305,"lng":45.5379,"pop":41480,"capital":false},{"name":"Zelenokumsk","country":"RU","lat":44.4104,"lng":43.8801,"pop":41306,"capital":false},{"name":"Shamkhir","country":"AZ","lat":40.8298,"lng":46.0178,"pop":41300,"capital":false},{"name":"Aghjabadi","country":"AZ","lat":40.0502,"lng":47.4594,"pop":41200,"capital":false},{"name":"Poti","country":"GE","lat":42.1427,"lng":41.6738,"pop":41175,"capital":false},{"name":"Frolovo","country":"RU","lat":49.7688,"lng":43.6542,"pop":40882,"capital":false},{"name":"Mozdok","country":"RU","lat":43.7398,"lng":44.6516,"pop":40823,"capital":false},{"name":"Shamakhi","country":"AZ","lat":40.6314,"lng":48.6414,"pop":40300,"capital":false},{"name":"Zugdidi","country":"GE","lat":42.5084,"lng":41.868,"pop":40067,"capital":false},{"name":"Svetlograd","country":"RU","lat":45.3274,"lng":42.8562,"pop":39727,"capital":false},{"name":"Izobil’nyy","country":"RU","lat":45.3665,"lng":41.7091,"pop":39022,"capital":false},{"name":"Millerovo","country":"RU","lat":48.9252,"lng":40.3998,"pop":38527,"capital":false},{"name":"Saray","country":"AZ","lat":40.533,"lng":49.7168,"pop":37800,"capital":false},{"name":"Baksan","country":"RU","lat":43.6837,"lng":43.5351,"pop":37519,"capital":false},{"name":"Novokubansk","country":"RU","lat":45.1133,"lng":41.0365,"pop":36401,"capital":false},{"name":"Blagodarnyy","country":"RU","lat":45.0978,"lng":43.4364,"pop":35995,"capital":false},{"name":"Beslan","country":"RU","lat":43.1928,"lng":44.5327,"pop":35604,"capital":false},{"name":"Goryachevodskiy","country":"RU","lat":44.0236,"lng":43.0922,"pop":35075,"capital":false},{"name":"Gul’kevichi","country":"RU","lat":45.3538,"lng":40.6947,"pop":34953,"capital":false},{"name":"Karabulak","country":"RU","lat":43.3051,"lng":44.8995,"pop":34511,"capital":false},{"name":"Ust’-Dzheguta","country":"RU","lat":44.0834,"lng":41.9763,"pop":34001,"capital":false},{"name":"Kizilyurt","country":"RU","lat":43.2028,"lng":46.8659,"pop":33411,"capital":false},{"name":"Nartkala","country":"RU","lat":43.5544,"lng":43.855,"pop":33390,"capital":false},{"name":"Gudermes","country":"RU","lat":43.3508,"lng":46.101,"pop":32769,"capital":false},{"name":"Ts’khinvali","country":"GE","lat":42.2276,"lng":43.9686,"pop":32180,"capital":false},{"name":"Zaqatala","country":"AZ","lat":41.6316,"lng":46.6448,"pop":32171,"capital":false},{"name":"Of","country":"TR","lat":40.9406,"lng":40.2592,"pop":31951,"capital":false},{"name":"Znamensk","country":"RU","lat":48.5842,"lng":45.7338,"pop":31922,"capital":false},{"name":"Lokbatan","country":"AZ","lat":40.3256,"lng":49.7338,"pop":30694,"capital":false},{"name":"Sabirabad","country":"AZ","lat":40.0087,"lng":48.477,"pop":30612,"capital":false},{"name":"Araklı","country":"TR","lat":40.9385,"lng":40.0584,"pop":29917,"capital":false},{"name":"Haji Zeynalabdin","country":"AZ","lat":40.6233,"lng":49.5586,"pop":29900,"capital":false},{"name":"Armavir","country":"AM","lat":40.1555,"lng":44.0388,"pop":29700,"capital":false},{"name":"Morozovsk","country":"RU","lat":48.351,"lng":41.829,"pop":29289,"capital":false},{"name":"Zernograd","country":"RU","lat":46.8486,"lng":40.3116,"pop":29268,"capital":false},{"name":"Ipatovo","country":"RU","lat":45.718,"lng":42.9061,"pop":29073,"capital":false},{"name":"Inozemtsevo","country":"RU","lat":44.0926,"lng":43.0911,"pop":28779,"capital":false},{"name":"Kochubeyevskoye","country":"RU","lat":44.6442,"lng":41.8453,"pop":28491,"capital":false},{"name":"Amirdzhan","country":"AZ","lat":40.4264,"lng":49.9836,"pop":28203,"capital":false},{"name":"Argun","country":"RU","lat":43.2929,"lng":45.8669,"pop":28100,"capital":false},{"name":"Aleksandrovskoye","country":"RU","lat":44.7142,"lng":43.0008,"pop":28006,"capital":false},{"name":"Dagestanskiye Ogni","country":"RU","lat":42.1159,"lng":48.1919,"pop":27835,"capital":false},{"name":"Neftekumsk","country":"RU","lat":44.7558,"lng":44.9925,"pop":27716,"capital":false},{"name":"Novoaleksandrovsk","country":"RU","lat":45.4975,"lng":41.2253,"pop":27610,"capital":false},{"name":"Kalach-na-Donu","country":"RU","lat":48.691,"lng":43.5264,"pop":27522,"capital":false},{"name":"Ismayilli","country":"AZ","lat":40.7849,"lng":48.1514,"pop":27500,"capital":false},{"name":"Shalkar","country":"KZ","lat":48.0333,"lng":48.9,"pop":27072,"capital":false},{"name":"Stantsiya Novyy Afon","country":"GE","lat":43.0806,"lng":40.8383,"pop":26636,"capital":false},{"name":"Marneuli","country":"GE","lat":41.4876,"lng":44.7985,"pop":26400,"capital":false},{"name":"Siyazan","country":"AZ","lat":41.0781,"lng":49.1156,"pop":25900,"capital":false},{"name":"Artvin","country":"TR","lat":41.1816,"lng":41.8217,"pop":25841,"capital":false},{"name":"Ekazhevo","country":"RU","lat":43.2122,"lng":44.8231,"pop":25549,"capital":false},{"name":"Mostovskoy","country":"RU","lat":44.4115,"lng":40.7928,"pop":25188,"capital":false},{"name":"Kağızman","country":"TR","lat":40.1567,"lng":43.1342,"pop":25157,"capital":false},{"name":"Shali","country":"RU","lat":43.1481,"lng":45.9019,"pop":25000,"capital":false},{"name":"Zverevo","country":"RU","lat":48.0271,"lng":40.1231,"pop":24978,"capital":false},{"name":"Zheleznovodsk","country":"RU","lat":44.1432,"lng":43.0048,"pop":24632,"capital":false},{"name":"Çayeli","country":"TR","lat":41.0861,"lng":40.7221,"pop":24556,"capital":false},{"name":"Tbilisskaya","country":"RU","lat":45.3645,"lng":40.1968,"pop":24446,"capital":false},{"name":"Novopavlovsk","country":"RU","lat":43.9594,"lng":43.6316,"pop":24408,"capital":false},{"name":"Khashuri","country":"GE","lat":41.9973,"lng":43.5991,"pop":23949,"capital":false},{"name":"Troitskaya","country":"RU","lat":43.3066,"lng":44.984,"pop":23745,"capital":false},{"name":"Sarıkamış","country":"TR","lat":40.3277,"lng":42.5871,"pop":23665,"capital":false},{"name":"Semikarakorsk","country":"RU","lat":47.5168,"lng":40.8083,"pop":23583,"capital":false},{"name":"Ağdaş","country":"AZ","lat":40.647,"lng":47.4738,"pop":23528,"capital":false},{"name":"Oltu","country":"TR","lat":40.5395,"lng":41.9872,"pop":23504,"capital":false},{"name":"Lermontov","country":"RU","lat":44.1072,"lng":42.978,"pop":23369,"capital":false},{"name":"Divichibazar","country":"AZ","lat":41.2012,"lng":48.9871,"pop":23248,"capital":false},{"name":"Masis","country":"AM","lat":40.066,"lng":44.4367,"pop":23136,"capital":false},{"name":"Hacıqabul","country":"AZ","lat":40.0387,"lng":48.9429,"pop":23102,"capital":false},{"name":"Otradnaya","country":"RU","lat":44.3932,"lng":41.5193,"pop":22985,"capital":false},{"name":"Ardahan","country":"TR","lat":41.1087,"lng":42.7022,"pop":22927,"capital":false},{"name":"Quba","country":"AZ","lat":41.3611,"lng":48.5134,"pop":22405,"capital":false},{"name":"Aghsu","country":"AZ","lat":40.5703,"lng":48.4009,"pop":22300,"capital":false},{"name":"Charentsavan","country":"AM","lat":40.4029,"lng":44.6445,"pop":22071,"capital":false},{"name":"Zabrat","country":"AZ","lat":40.4775,"lng":49.9417,"pop":21396,"capital":false},{"name":"Terek","country":"RU","lat":43.4833,"lng":44.1378,"pop":21180,"capital":false},{"name":"Zelenchukskaya","country":"RU","lat":43.855,"lng":41.5902,"pop":21117,"capital":false},{"name":"Sabunçu","country":"AZ","lat":40.4425,"lng":49.9481,"pop":20996,"capital":false},{"name":"Dugulubgey","country":"RU","lat":43.6625,"lng":43.5369,"pop":20965,"capital":false},{"name":"Kurchaloy","country":"RU","lat":43.2049,"lng":46.0878,"pop":20903,"capital":false},{"name":"Gazakh","country":"AZ","lat":41.0925,"lng":45.3656,"pop":20800,"capital":false},{"name":"Surovikino","country":"RU","lat":48.6097,"lng":42.8569,"pop":20677,"capital":false},{"name":"Samtredia","country":"GE","lat":42.1537,"lng":42.3352,"pop":20633,"capital":false},{"name":"Mehdiabad","country":"AZ","lat":40.4969,"lng":49.8517,"pop":20500,"capital":false},{"name":"Tartar","country":"AZ","lat":40.342,"lng":46.9316,"pop":20400,"capital":false},{"name":"Karachayevsk","country":"RU","lat":43.7723,"lng":41.9137,"pop":20264,"capital":false},{"name":"Zestaponi","country":"GE","lat":42.1075,"lng":43.0329,"pop":20183,"capital":false},{"name":"Tyrnyauz","country":"RU","lat":43.3828,"lng":42.9183,"pop":20104,"capital":false},{"name":"Sürmene","country":"TR","lat":40.9059,"lng":40.1279,"pop":20039,"capital":false},{"name":"Yessentukskaya","country":"RU","lat":44.0258,"lng":42.8749,"pop":19956,"capital":false},{"name":"Telavi","country":"GE","lat":41.9196,"lng":45.47,"pop":19875,"capital":false},{"name":"Goygol","country":"AZ","lat":40.5858,"lng":46.3189,"pop":19800,"capital":false},{"name":"Alagir","country":"RU","lat":43.0425,"lng":44.2202,"pop":19665,"capital":false},{"name":"Sevan","country":"AM","lat":40.548,"lng":44.9531,"pop":19652,"capital":false},{"name":"Kotel’nikovo","country":"RU","lat":47.6301,"lng":43.1416,"pop":19622,"capital":false},{"name":"Gorodishche","country":"RU","lat":48.8026,"lng":44.4749,"pop":19509,"capital":false},{"name":"Ijevan","country":"AM","lat":40.8804,"lng":45.1478,"pop":19500,"capital":false},{"name":"Proletarsk","country":"RU","lat":46.7024,"lng":41.7249,"pop":19493,"capital":false},{"name":"Novopokrovskaya","country":"RU","lat":45.9576,"lng":40.6981,"pop":19342,"capital":false},{"name":"Orlovskiy","country":"RU","lat":46.8744,"lng":42.0522,"pop":19325,"capital":false},{"name":"Nesterovskaya","country":"RU","lat":43.2386,"lng":45.0503,"pop":19186,"capital":false},{"name":"Kyurdarmir","country":"AZ","lat":40.3426,"lng":48.1565,"pop":19088,"capital":false},{"name":"Gavar","country":"AM","lat":40.354,"lng":45.1239,"pop":18900,"capital":false},{"name":"Konstantinovsk","country":"RU","lat":47.5811,"lng":41.0934,"pop":18876,"capital":false},{"name":"Jorat","country":"AZ","lat":40.5718,"lng":49.7051,"pop":18500,"capital":false},{"name":"Nezlobnaya","country":"RU","lat":44.1181,"lng":43.4028,"pop":18412,"capital":false},{"name":"Avtury","country":"RU","lat":43.1635,"lng":46.0015,"pop":18370,"capital":false},{"name":"Ardon","country":"RU","lat":43.1789,"lng":44.2946,"pop":18313,"capital":false},{"name":"Kharabali","country":"RU","lat":47.4077,"lng":47.2539,"pop":18223,"capital":false},{"name":"Artik","country":"AM","lat":40.6192,"lng":43.9721,"pop":18145,"capital":false},{"name":"Chegem","country":"RU","lat":43.5672,"lng":43.5853,"pop":18000,"capital":false},{"name":"Belaya Glina","country":"RU","lat":46.0812,"lng":40.8735,"pop":17997,"capital":false},{"name":"Yegorlykskaya","country":"RU","lat":46.5659,"lng":40.6571,"pop":17978,"capital":false},{"name":"Zimovniki","country":"RU","lat":47.1462,"lng":42.4704,"pop":17678,"capital":false},{"name":"Svobody","country":"RU","lat":44.0256,"lng":43.0503,"pop":17661,"capital":false},{"name":"Ashtarak","country":"AM","lat":40.2976,"lng":44.3615,"pop":17600,"capital":false},{"name":"Gobu","country":"AZ","lat":40.4047,"lng":49.7131,"pop":17600,"capital":false},{"name":"Kobuleti","country":"GE","lat":41.8328,"lng":41.7782,"pop":17538,"capital":false},{"name":"Hopa","country":"TR","lat":41.3905,"lng":41.4197,"pop":17519,"capital":false},{"name":"Akhaltsikhe","country":"GE","lat":41.6395,"lng":42.986,"pop":17445,"capital":false},{"name":"Kantyshevo","country":"RU","lat":43.2282,"lng":44.6332,"pop":17363,"capital":false},{"name":"Hokmali","country":"AZ","lat":40.4311,"lng":49.7372,"pop":17300,"capital":false},{"name":"Suvorovskaya","country":"RU","lat":44.1901,"lng":42.6595,"pop":17261,"capital":false},{"name":"Horasan","country":"TR","lat":40.0388,"lng":42.1637,"pop":17067,"capital":false},{"name":"Achkhoy-Martan","country":"RU","lat":43.1922,"lng":45.2835,"pop":16779,"capital":false},{"name":"Arhavi","country":"TR","lat":41.3512,"lng":41.3046,"pop":16217,"capital":false},{"name":"Surkhakhi","country":"RU","lat":43.1875,"lng":44.9019,"pop":16215,"capital":false},{"name":"Kamyzyak","country":"RU","lat":46.105,"lng":48.0782,"pop":16191,"capital":false},{"name":"Krasnogvardeyskoye","country":"RU","lat":45.8449,"lng":41.5174,"pop":16169,"capital":false},{"name":"Belidzhi","country":"RU","lat":41.8918,"lng":48.4125,"pop":16078,"capital":false},{"name":"Qusar","country":"AZ","lat":41.4275,"lng":48.4302,"pop":16022,"capital":false},{"name":"Tsotsin-Yurt","country":"RU","lat":43.2421,"lng":46.0001,"pop":15970,"capital":false},{"name":"Dilijan","country":"AM","lat":40.7404,"lng":44.8634,"pop":15914,"capital":false},{"name":"Arzgir","country":"RU","lat":45.3741,"lng":44.2198,"pop":15838,"capital":false},{"name":"Ujar","country":"AZ","lat":40.519,"lng":47.6542,"pop":15741,"capital":false},{"name":"Divnoye","country":"RU","lat":45.9097,"lng":43.3494,"pop":15700,"capital":false},{"name":"Semender","country":"RU","lat":42.9856,"lng":47.4039,"pop":15691,"capital":false},{"name":"Govlar","country":"AZ","lat":40.946,"lng":45.7318,"pop":15600,"capital":false},{"name":"Donskoye","country":"RU","lat":45.4535,"lng":41.9724,"pop":15469,"capital":false},{"name":"Tsimlyansk","country":"RU","lat":47.648,"lng":42.0935,"pop":15341,"capital":false},{"name":"Bagayevskaya","country":"RU","lat":47.3205,"lng":40.3847,"pop":15300,"capital":false},{"name":"Dubovka","country":"RU","lat":49.0562,"lng":44.8291,"pop":15217,"capital":false},{"name":"Giaginskaya","country":"RU","lat":44.8621,"lng":40.072,"pop":15169,"capital":false},{"name":"Leninsk","country":"RU","lat":48.7031,"lng":45.1961,"pop":15167,"capital":false},{"name":"Uchkeken","country":"RU","lat":43.9451,"lng":42.5165,"pop":15118,"capital":false},{"name":"Boguchar","country":"RU","lat":49.9346,"lng":40.5545,"pop":15048,"capital":false},{"name":"Senaki","country":"GE","lat":42.2708,"lng":42.0633,"pop":14991,"capital":false},{"name":"Belokany","country":"AZ","lat":41.7263,"lng":46.4048,"pop":14800,"capital":false},{"name":"Bachi-Yurt","country":"RU","lat":43.2242,"lng":46.1942,"pop":14788,"capital":false},{"name":"Gadabay","country":"AZ","lat":40.5706,"lng":45.8123,"pop":14500,"capital":false},{"name":"Çaykara","country":"TR","lat":40.7427,"lng":40.2318,"pop":14398,"capital":false},{"name":"Krasnoslobodsk","country":"RU","lat":48.7071,"lng":44.577,"pop":14334,"capital":false},{"name":"Akhty","country":"RU","lat":41.4595,"lng":47.7325,"pop":14080,"capital":false},{"name":"Lagan’","country":"RU","lat":45.3918,"lng":47.3645,"pop":14045,"capital":false},{"name":"Binagadi","country":"AZ","lat":40.466,"lng":49.8278,"pop":14012,"capital":false},{"name":"Ozurgeti","country":"GE","lat":41.9234,"lng":42.0052,"pop":13935,"capital":false},{"name":"Leninkent","country":"RU","lat":42.969,"lng":47.352,"pop":13912,"capital":false},{"name":"Nork-Marash","country":"AM","lat":40.1742,"lng":44.5408,"pop":13900,"capital":false},{"name":"Srednyaya Akhtuba","country":"RU","lat":48.71,"lng":44.8672,"pop":13887,"capital":false},{"name":"Babayurt","country":"RU","lat":43.5998,"lng":46.7781,"pop":13857,"capital":false},{"name":"Krasnokumskoye","country":"RU","lat":44.1781,"lng":43.5019,"pop":13630,"capital":false},{"name":"Donskoy","country":"RU","lat":47.414,"lng":40.2574,"pop":13627,"capital":false},{"name":"Xudat","country":"AZ","lat":41.6305,"lng":48.6816,"pop":13625,"capital":false},{"name":"Likhovskoy","country":"RU","lat":48.1519,"lng":40.1793,"pop":13617,"capital":false},{"name":"Spitak","country":"AM","lat":40.8313,"lng":44.2702,"pop":13574,"capital":false},{"name":"Qobustan","country":"AZ","lat":40.0824,"lng":49.4121,"pop":13398,"capital":false},{"name":"Goyty","country":"RU","lat":43.1642,"lng":45.6228,"pop":13250,"capital":false},{"name":"Yeghvard","country":"AM","lat":40.3229,"lng":44.4842,"pop":13238,"capital":false},{"name":"Karabudakhkent","country":"RU","lat":42.7092,"lng":47.563,"pop":13207,"capital":false},{"name":"Svetlyy Yar","country":"RU","lat":48.4745,"lng":44.785,"pop":13131,"capital":false},{"name":"Solnechnodol’sk","country":"RU","lat":45.3179,"lng":41.5407,"pop":13068,"capital":false},{"name":"İspir","country":"TR","lat":40.4798,"lng":40.9937,"pop":12906,"capital":false},{"name":"Oyskhara","country":"RU","lat":43.264,"lng":46.248,"pop":12795,"capital":false},{"name":"Nartan","country":"RU","lat":43.5108,"lng":43.6994,"pop":12694,"capital":false},{"name":"Vardenis","country":"AM","lat":40.1827,"lng":45.7316,"pop":12651,"capital":false},{"name":"Tovuz","country":"AZ","lat":40.9925,"lng":45.6284,"pop":12626,"capital":false},{"name":"Gardabani","country":"GE","lat":41.4597,"lng":45.0899,"pop":12364,"capital":false},{"name":"Kaspi","country":"GE","lat":41.9278,"lng":44.4236,"pop":12319,"capital":false},{"name":"Kamenolomni","country":"RU","lat":47.6678,"lng":40.2048,"pop":12262,"capital":false},{"name":"Kasumkent","country":"RU","lat":41.6775,"lng":48.1518,"pop":12225,"capital":false},{"name":"Aghstafa","country":"AZ","lat":41.1189,"lng":45.4539,"pop":12200,"capital":false},{"name":"Alaverdi","country":"AM","lat":41.0977,"lng":44.6732,"pop":12152,"capital":false},{"name":"Mayskiy","country":"RU","lat":47.696,"lng":40.1026,"pop":12136,"capital":false},{"name":"Kurskaya","country":"RU","lat":44.0432,"lng":44.455,"pop":12036,"capital":false},{"name":"Martuni","country":"AM","lat":40.1403,"lng":45.3023,"pop":12034,"capital":false},{"name":"Digora","country":"RU","lat":43.1567,"lng":44.1563,"pop":11999,"capital":false},{"name":"Qax","country":"AZ","lat":41.4183,"lng":46.9204,"pop":11992,"capital":false},{"name":"Stepanavan","country":"AM","lat":41.01,"lng":44.3853,"pop":11982,"capital":false},{"name":"Chiatura","country":"GE","lat":42.2981,"lng":43.2989,"pop":11943,"capital":false},{"name":"Göle","country":"TR","lat":40.7875,"lng":42.606,"pop":11943,"capital":false},{"name":"Ilovlya","country":"RU","lat":49.3001,"lng":43.9844,"pop":11930,"capital":false},{"name":"Narimanov","country":"RU","lat":46.6931,"lng":47.8507,"pop":11905,"capital":false},{"name":"Qabala","country":"AZ","lat":40.9814,"lng":47.8458,"pop":11867,"capital":false},{"name":"Sagopshi","country":"RU","lat":43.4852,"lng":44.5906,"pop":11848,"capital":false},{"name":"Uspenskoye","country":"RU","lat":44.8318,"lng":41.3865,"pop":11843,"capital":false},{"name":"Byureghavan","country":"AM","lat":40.3134,"lng":44.5969,"pop":11819,"capital":false},{"name":"Gagra","country":"GE","lat":43.2786,"lng":40.2712,"pop":11807,"capital":false},{"name":"Kayakent","country":"RU","lat":42.3874,"lng":47.903,"pop":11805,"capital":false},{"name":"Nizhneye Kazanishche","country":"RU","lat":42.7637,"lng":47.1603,"pop":11765,"capital":false},{"name":"Kavkazskaya","country":"RU","lat":45.4439,"lng":40.667,"pop":11680,"capital":false},{"name":"Shalushka","country":"RU","lat":43.5325,"lng":43.5661,"pop":11577,"capital":false},{"name":"Sunzha","country":"RU","lat":43.0586,"lng":44.8228,"pop":11548,"capital":false},{"name":"Nogir","country":"RU","lat":43.0816,"lng":44.6365,"pop":11469,"capital":false},{"name":"Praskoveya","country":"RU","lat":44.7444,"lng":44.2031,"pop":11420,"capital":false},{"name":"Badamdar","country":"AZ","lat":40.3402,"lng":49.8045,"pop":11398,"capital":false},{"name":"Levokumskoye","country":"RU","lat":44.8219,"lng":44.6606,"pop":11377,"capital":false},{"name":"Ust’-Donetskiy","country":"RU","lat":47.6438,"lng":40.8718,"pop":11357,"capital":false},{"name":"Peschanokopskoye","country":"RU","lat":46.1945,"lng":41.0815,"pop":11340,"capital":false},{"name":"Tatsinskaya","country":"RU","lat":48.1945,"lng":41.2797,"pop":11258,"capital":false},{"name":"Borjomi","country":"GE","lat":41.8469,"lng":43.3971,"pop":11248,"capital":false},{"name":"Glubokiy","country":"RU","lat":48.5272,"lng":40.3314,"pop":11225,"capital":false},{"name":"Nubarashen","country":"AM","lat":40.0908,"lng":44.5519,"pop":11200,"capital":false},{"name":"Mesker-Yurt","country":"RU","lat":43.2515,"lng":45.9072,"pop":11147,"capital":false},{"name":"Samukh","country":"AZ","lat":40.7649,"lng":46.4087,"pop":11100,"capital":false},{"name":"Tselina","country":"RU","lat":46.5342,"lng":41.0316,"pop":11075,"capital":false},{"name":"Soldato-Aleksandrovskoye","country":"RU","lat":44.2659,"lng":43.7531,"pop":11059,"capital":false},{"name":"Kursavka","country":"RU","lat":44.4615,"lng":42.5041,"pop":11043,"capital":false},{"name":"Chertkovo","country":"RU","lat":49.3836,"lng":40.1523,"pop":11000,"capital":false},{"name":"Chegem Vtoroy","country":"RU","lat":43.5958,"lng":43.5994,"pop":10951,"capital":false},{"name":"Islamey","country":"RU","lat":43.6756,"lng":43.455,"pop":10899,"capital":false},{"name":"Krasnyy Yar","country":"RU","lat":46.5324,"lng":48.3448,"pop":10876,"capital":false},{"name":"Balakhani","country":"AZ","lat":40.4634,"lng":49.9189,"pop":10863,"capital":false},{"name":"Samashki","country":"RU","lat":43.2894,"lng":45.2979,"pop":10848,"capital":false},{"name":"Kazanskaya","country":"RU","lat":45.4106,"lng":40.4361,"pop":10794,"capital":false},{"name":"Mayrtup","country":"RU","lat":43.2035,"lng":46.1322,"pop":10778,"capital":false},{"name":"Gorodoviki","country":"RU","lat":46.1353,"lng":41.9656,"pop":10706,"capital":false},{"name":"Psebay","country":"RU","lat":44.1234,"lng":40.8107,"pop":10700,"capital":false},{"name":"Yuzhno-Sukhokumsk","country":"RU","lat":44.6603,"lng":45.6475,"pop":10665,"capital":false},{"name":"Kenzhe","country":"RU","lat":43.4986,"lng":43.5541,"pop":10636,"capital":false},{"name":"Ayutinskiy","country":"RU","lat":47.7823,"lng":40.1476,"pop":10623,"capital":false},{"name":"Zardob","country":"AZ","lat":40.2184,"lng":47.7121,"pop":10612,"capital":false},{"name":"Dashkasan","country":"AZ","lat":40.5239,"lng":46.0819,"pop":10600,"capital":false},{"name":"Al’burikent","country":"RU","lat":42.9739,"lng":47.4711,"pop":10591,"capital":false},{"name":"Zayukovo","country":"RU","lat":43.6161,"lng":43.3339,"pop":10559,"capital":false},{"name":"Tarki","country":"RU","lat":42.9442,"lng":47.4953,"pop":10554,"capital":false},{"name":"Mikhaylovskoye","country":"RU","lat":43.0997,"lng":44.6316,"pop":10479,"capital":false},{"name":"Nor Hachn","country":"AM","lat":40.303,"lng":44.5831,"pop":10460,"capital":false},{"name":"Ayntap","country":"AM","lat":40.0966,"lng":44.4646,"pop":10433,"capital":false},{"name":"Aleksandriyskaya","country":"RU","lat":44.2272,"lng":43.3453,"pop":10279,"capital":false},{"name":"Assinovskaya","country":"RU","lat":43.2417,"lng":45.1819,"pop":10270,"capital":false},{"name":"Alleroy","country":"RU","lat":43.2171,"lng":46.2821,"pop":10247,"capital":false},{"name":"Lysogorskaya","country":"RU","lat":44.1064,"lng":43.2756,"pop":10219,"capital":false},{"name":"Krivyanskaya","country":"RU","lat":47.3969,"lng":40.1668,"pop":10203,"capital":false},{"name":"Staryye Atagi","country":"RU","lat":43.1203,"lng":45.7406,"pop":10183,"capital":false},{"name":"Kvareli","country":"GE","lat":41.9549,"lng":45.8172,"pop":10177,"capital":false},{"name":"Alkhan-Kala","country":"RU","lat":43.2586,"lng":45.5392,"pop":10168,"capital":false},{"name":"Sagarejo","country":"GE","lat":41.7369,"lng":45.326,"pop":10166,"capital":false},{"name":"Sovetskaya","country":"RU","lat":44.7769,"lng":41.1722,"pop":10166,"capital":false},{"name":"Narman","country":"TR","lat":40.3445,"lng":41.8609,"pop":10104,"capital":false},{"name":"Gobustan","country":"AZ","lat":40.5336,"lng":48.9282,"pop":10100,"capital":false},{"name":"Sholokhovskiy","country":"RU","lat":48.2807,"lng":41.0459,"pop":10062,"capital":false},{"name":"Gigant","country":"RU","lat":46.5067,"lng":41.3419,"pop":10034,"capital":false},{"name":"Troitskoye","country":"RU","lat":46.413,"lng":44.2579,"pop":10025,"capital":false},{"name":"Gudauri","country":"GE","lat":42.478,"lng":44.4762,"pop":10000,"capital":false},{"name":"Zalukokoazhe","country":"RU","lat":43.9006,"lng":43.2143,"pop":9997,"capital":false},{"name":"Dalakovo","country":"RU","lat":43.2376,"lng":44.5896,"pop":9994,"capital":false},{"name":"Borçka","country":"TR","lat":41.3579,"lng":41.6658,"pop":9942,"capital":false},{"name":"Sernovodsk","country":"RU","lat":43.3128,"lng":45.1597,"pop":9882,"capital":false},{"name":"Ikryanoye","country":"RU","lat":46.0929,"lng":47.7297,"pop":9880,"capital":false},{"name":"Serafimovich","country":"RU","lat":49.5757,"lng":42.7323,"pop":9847,"capital":false},{"name":"Gorodovikovsk","country":"RU","lat":46.0878,"lng":41.9334,"pop":9809,"capital":false},{"name":"Hindarkh","country":"AZ","lat":40.0675,"lng":47.2058,"pop":9800,"capital":false},{"name":"Digah","country":"AZ","lat":40.4926,"lng":49.8748,"pop":9800,"capital":false},{"name":"Gekhi","country":"RU","lat":43.1635,"lng":45.4724,"pop":9714,"capital":false},{"name":"Kur","country":"AZ","lat":40.9058,"lng":46.1852,"pop":9700,"capital":false},{"name":"Znamenskoye","country":"RU","lat":43.6767,"lng":45.1275,"pop":9641,"capital":false},{"name":"Akhuryan","country":"AM","lat":40.7808,"lng":43.9004,"pop":9619,"capital":false},{"name":"Shelkovskaya","country":"RU","lat":43.5077,"lng":46.3362,"pop":9602,"capital":false},{"name":"Jeyranbatan","country":"AZ","lat":40.5419,"lng":49.6607,"pop":9600,"capital":false},{"name":"Sarmakovo","country":"RU","lat":43.7456,"lng":43.2003,"pop":9588,"capital":false},{"name":"Oblivskaya","country":"RU","lat":48.5362,"lng":42.5014,"pop":9528,"capital":false},{"name":"Volodarskiy","country":"RU","lat":46.4043,"lng":48.539,"pop":9509,"capital":false},{"name":"Metsamor","country":"AM","lat":40.1446,"lng":44.1148,"pop":9450,"capital":false},{"name":"Tortum","country":"TR","lat":40.2889,"lng":41.541,"pop":9429,"capital":false},{"name":"Nerkin Getashen","country":"AM","lat":40.1417,"lng":45.2709,"pop":9410,"capital":false},{"name":"Verkhniye Achaluki","country":"RU","lat":43.3469,"lng":44.6975,"pop":9393,"capital":false},{"name":"Grigoropolisskaya","country":"RU","lat":45.2972,"lng":41.0567,"pop":9310,"capital":false},{"name":"Vëshenskaya","country":"RU","lat":49.6308,"lng":41.7252,"pop":9303,"capital":false},{"name":"Gornyatskiy","country":"RU","lat":48.2965,"lng":40.924,"pop":9292,"capital":false},{"name":"Germenchuk","country":"RU","lat":43.1857,"lng":45.921,"pop":9285,"capital":false},{"name":"Katyr-Yurt","country":"RU","lat":43.1716,"lng":45.3699,"pop":9202,"capital":false},{"name":"Goranboy","country":"AZ","lat":40.6103,"lng":46.7897,"pop":9200,"capital":false},{"name":"Pokoynoye","country":"RU","lat":44.8097,"lng":44.2517,"pop":9175,"capital":false},{"name":"Kalkandere","country":"TR","lat":40.9205,"lng":40.4369,"pop":9115,"capital":false},{"name":"Aliabad","country":"AZ","lat":41.4829,"lng":46.6348,"pop":9103,"capital":false},{"name":"Pervomayskoye","country":"RU","lat":43.919,"lng":46.7102,"pop":9073,"capital":false},{"name":"Mamedkala","country":"RU","lat":42.1676,"lng":48.1167,"pop":8965,"capital":false},{"name":"Vinsady","country":"RU","lat":44.0808,"lng":42.9653,"pop":8949,"capital":false},{"name":"Tarasovskiy","country":"RU","lat":48.7296,"lng":40.3639,"pop":8949,"capital":false},{"name":"Masalovka","country":"RU","lat":48.4037,"lng":40.2606,"pop":8948,"capital":false},{"name":"Pervomayskoye","country":"RU","lat":42.4963,"lng":47.8958,"pop":8930,"capital":false},{"name":"Rodnikovskaya","country":"RU","lat":44.7644,"lng":40.6656,"pop":8925,"capital":false},{"name":"Aksay","country":"RU","lat":43.3725,"lng":46.445,"pop":8924,"capital":false},{"name":"Alkhan-Yurt","country":"RU","lat":43.2318,"lng":45.5723,"pop":8879,"capital":false},{"name":"Liman","country":"RU","lat":45.7821,"lng":47.2239,"pop":8858,"capital":false},{"name":"Ramana","country":"AZ","lat":40.4422,"lng":49.9806,"pop":8855,"capital":false},{"name":"Vesëlyy","country":"RU","lat":47.0925,"lng":40.7421,"pop":8820,"capital":false},{"name":"Fastovetskaya","country":"RU","lat":45.9189,"lng":40.1589,"pop":8806,"capital":false},{"name":"Magas","country":"RU","lat":43.2226,"lng":44.7726,"pop":8771,"capital":false},{"name":"Nor Kharberd","country":"AM","lat":40.0917,"lng":44.4805,"pop":8766,"capital":false},{"name":"Novyye Atagi","country":"RU","lat":43.1353,"lng":45.7731,"pop":8760,"capital":false},{"name":"Gudauta","country":"GE","lat":43.1019,"lng":40.6225,"pop":8752,"capital":false},{"name":"Verkhniy Baskunchak","country":"RU","lat":48.2256,"lng":46.7217,"pop":8745,"capital":false},{"name":"Novoselitskoye","country":"RU","lat":44.7508,"lng":43.4369,"pop":8723,"capital":false},{"name":"Yutsa","country":"RU","lat":43.9564,"lng":43.0128,"pop":8702,"capital":false},{"name":"Naftalan","country":"AZ","lat":40.5082,"lng":46.8203,"pop":8600,"capital":false},{"name":"Temirgoyevskaya","country":"RU","lat":45.1141,"lng":40.2803,"pop":8588,"capital":false},{"name":"Naurskaya","country":"RU","lat":43.65,"lng":45.3113,"pop":8550,"capital":false},{"name":"Chermen","country":"RU","lat":43.1519,"lng":44.7123,"pop":8550,"capital":false},{"name":"Kizlyar","country":"RU","lat":43.7038,"lng":44.5944,"pop":8544,"capital":false},{"name":"Bolnisi","country":"GE","lat":41.4512,"lng":44.5384,"pop":8461,"capital":false},{"name":"Koksovyy","country":"RU","lat":48.1974,"lng":40.6433,"pop":8458,"capital":false},{"name":"Nadezhda","country":"RU","lat":44.1,"lng":44.6,"pop":8426,"capital":false},{"name":"Kalbajar","country":"AZ","lat":40.1098,"lng":46.0445,"pop":8400,"capital":false},{"name":"Maloye Ganyushkino","country":"KZ","lat":46.6,"lng":49.2667,"pop":8387,"capital":false},{"name":"Hayrat","country":"TR","lat":40.8853,"lng":40.365,"pop":8384,"capital":false},{"name":"Shamkhal","country":"RU","lat":43.0596,"lng":47.3373,"pop":8375,"capital":false},{"name":"Garni","country":"AM","lat":40.1193,"lng":44.7344,"pop":8347,"capital":false},{"name":"Kalinovskaya","country":"RU","lat":43.5738,"lng":45.5209,"pop":8305,"capital":false},{"name":"Zayam","country":"AZ","lat":40.9033,"lng":45.8856,"pop":8300,"capital":false},{"name":"Staraya Stanitsa","country":"RU","lat":48.3458,"lng":40.2938,"pop":8284,"capital":false},{"name":"Bykovo","country":"RU","lat":49.7654,"lng":45.3874,"pop":8268,"capital":false},{"name":"Argudan","country":"RU","lat":43.416,"lng":43.9113,"pop":8250,"capital":false},{"name":"Chontaul","country":"RU","lat":43.3048,"lng":46.8597,"pop":8241,"capital":false},{"name":"Zhanibek","country":"KZ","lat":49.4228,"lng":46.8463,"pop":8212,"capital":false},{"name":"Sergokala","country":"RU","lat":42.4538,"lng":47.6602,"pop":8165,"capital":false},{"name":"Şavşat","country":"TR","lat":41.2534,"lng":42.3553,"pop":8151,"capital":false},{"name":"Dylym","country":"RU","lat":43.071,"lng":46.6345,"pop":8069,"capital":false},{"name":"Kumylzhenskaya","country":"RU","lat":49.8818,"lng":42.5861,"pop":8061,"capital":false},{"name":"Mikhaylovskaya","country":"RU","lat":44.9947,"lng":40.5964,"pop":8050,"capital":false},{"name":"Dubovskoye","country":"RU","lat":47.4104,"lng":42.7655,"pop":8019,"capital":false},{"name":"Chyorny Yar","country":"RU","lat":48.0624,"lng":46.1091,"pop":8006,"capital":false},{"name":"Gubden","country":"RU","lat":42.5681,"lng":47.5658,"pop":7997,"capital":false},{"name":"Arkhonskaya","country":"RU","lat":43.11,"lng":44.5125,"pop":7991,"capital":false},{"name":"Storozhevaya","country":"RU","lat":43.8789,"lng":41.4514,"pop":7986,"capital":false},{"name":"Yenotayevka","country":"RU","lat":47.2433,"lng":47.029,"pop":7985,"capital":false},{"name":"Aydıntepe","country":"TR","lat":40.3832,"lng":40.1427,"pop":7961,"capital":false},{"name":"Chirkey","country":"RU","lat":42.9613,"lng":46.9787,"pop":7959,"capital":false},{"name":"Tqibuli","country":"GE","lat":42.3478,"lng":42.9977,"pop":7957,"capital":false},{"name":"Khankala","country":"RU","lat":43.3021,"lng":45.7556,"pop":7925,"capital":false},{"name":"Novyy Khushet","country":"RU","lat":42.8994,"lng":47.5604,"pop":7912,"capital":false},{"name":"Novotroitskaya","country":"RU","lat":45.3267,"lng":41.5253,"pop":7910,"capital":false},{"name":"Ashaghi Guzdak","country":"AZ","lat":40.4813,"lng":49.6656,"pop":7900,"capital":false},{"name":"Sovetskaya","country":"RU","lat":44.0267,"lng":44.05,"pop":7886,"capital":false},{"name":"Nadterechnoje","country":"RU","lat":43.6227,"lng":45.3397,"pop":7877,"capital":false},{"name":"Staraya Sunzha","country":"RU","lat":43.3354,"lng":45.7438,"pop":7860,"capital":false},{"name":"Tashir","country":"AM","lat":41.1192,"lng":44.2865,"pop":7840,"capital":false},{"name":"Zaterechnyy","country":"RU","lat":44.7931,"lng":45.2097,"pop":7835,"capital":false},{"name":"Kardonikskaya","country":"RU","lat":43.8658,"lng":41.7143,"pop":7830,"capital":false},{"name":"Levashi","country":"RU","lat":42.4322,"lng":47.3237,"pop":7817,"capital":false},{"name":"Terekli-Mekteb","country":"RU","lat":44.1661,"lng":45.8719,"pop":7799,"capital":false},{"name":"Tolstoy-Yurt","country":"RU","lat":43.4444,"lng":45.7794,"pop":7772,"capital":false},{"name":"Kambileyevskoye","country":"RU","lat":43.0786,"lng":44.7522,"pop":7770,"capital":false},{"name":"Vardenik","country":"AM","lat":40.1372,"lng":45.4291,"pop":7735,"capital":false},{"name":"Diok’nisi","country":"GE","lat":41.6293,"lng":42.3917,"pop":7725,"capital":false},{"name":"Alkhan-Churt","country":"RU","lat":43.3519,"lng":44.7869,"pop":7666,"capital":false},{"name":"Khoni","country":"GE","lat":42.3254,"lng":42.4224,"pop":7651,"capital":false},{"name":"Arinj","country":"AM","lat":40.2336,"lng":44.5821,"pop":7626,"capital":false},{"name":"Ryzdvyanyy","country":"RU","lat":45.2656,"lng":41.8389,"pop":7602,"capital":false},{"name":"Ali-Yurt","country":"RU","lat":43.1425,"lng":44.8525,"pop":7593,"capital":false},{"name":"Kamennomostskiy","country":"RU","lat":44.2891,"lng":40.188,"pop":7585,"capital":false},{"name":"Novyy Rogachik","country":"RU","lat":48.6769,"lng":44.0608,"pop":7575,"capital":false},{"name":"Novyy Chirkey","country":"RU","lat":43.1621,"lng":47.0559,"pop":7556,"capital":false},{"name":"Konokovo","country":"RU","lat":44.8616,"lng":41.3266,"pop":7507,"capital":false},{"name":"Leninaul","country":"RU","lat":43.0914,"lng":46.5743,"pop":7503,"capital":false},{"name":"Gizilhajili","country":"AZ","lat":40.5772,"lng":46.8578,"pop":7500,"capital":false},{"name":"Dighomi","country":"GE","lat":41.7728,"lng":44.7321,"pop":7497,"capital":false},{"name":"Chakvi","country":"GE","lat":41.7253,"lng":41.7328,"pop":7492,"capital":false},{"name":"Kakhun","country":"RU","lat":43.5431,"lng":43.8764,"pop":7490,"capital":false},{"name":"Zovuni","country":"AM","lat":40.2331,"lng":44.5113,"pop":7483,"capital":false},{"name":"Sarukhan","country":"AM","lat":40.2917,"lng":45.1307,"pop":7475,"capital":false},{"name":"Gali","country":"GE","lat":42.627,"lng":41.7365,"pop":7452,"capital":false},{"name":"Nizhniy Dzhengutay","country":"RU","lat":42.7001,"lng":47.2449,"pop":7450,"capital":false},{"name":"Akhalkalaki","country":"GE","lat":41.4051,"lng":43.4863,"pop":7437,"capital":false},{"name":"Krasnosel’skiy","country":"RU","lat":45.3919,"lng":40.6075,"pop":7403,"capital":false},{"name":"Mart’q’opi","country":"GE","lat":41.7873,"lng":45.0231,"pop":7397,"capital":false},{"name":"Dusheti","country":"GE","lat":42.0864,"lng":44.695,"pop":7389,"capital":false},{"name":"Mtskheta","country":"GE","lat":41.8451,"lng":44.7188,"pop":7380,"capital":false},{"name":"Remontnoye","country":"RU","lat":46.5608,"lng":43.6488,"pop":7374,"capital":false},{"name":"Sadakhlo","country":"GE","lat":41.2402,"lng":44.7891,"pop":7337,"capital":false},{"name":"Koshekhabl’","country":"RU","lat":44.9001,"lng":40.5033,"pop":7313,"capital":false},{"name":"Chinarli","country":"AZ","lat":40.7754,"lng":46.1125,"pop":7300,"capital":false},{"name":"Vladimirskaya","country":"RU","lat":44.5455,"lng":40.7933,"pop":7278,"capital":false},{"name":"Gizel’","country":"RU","lat":43.04,"lng":44.5708,"pop":7256,"capital":false},{"name":"Malka","country":"RU","lat":43.8039,"lng":43.3242,"pop":7220,"capital":false},{"name":"Gurjaani","country":"GE","lat":41.7438,"lng":45.8025,"pop":7217,"capital":false},{"name":"Yashkul’","country":"RU","lat":46.1709,"lng":45.3421,"pop":7203,"capital":false},{"name":"Elin-Yurt","country":"RU","lat":43.6731,"lng":44.9589,"pop":7200,"capital":false},{"name":"Bezopasnoye","country":"RU","lat":45.6483,"lng":41.936,"pop":7176,"capital":false},{"name":"Tsqnet’i","country":"GE","lat":41.6947,"lng":44.6986,"pop":7166,"capital":false},{"name":"Shamil’kala","country":"RU","lat":42.6871,"lng":46.8685,"pop":7163,"capital":false},{"name":"Staraya Stanitsa","country":"RU","lat":45.0098,"lng":41.1512,"pop":7145,"capital":false},{"name":"Chikola","country":"RU","lat":43.1954,"lng":43.9204,"pop":7142,"capital":false},{"name":"Konstantinovskaya","country":"RU","lat":44.0456,"lng":43.1583,"pop":7137,"capital":false},{"name":"Chechen-Aul","country":"RU","lat":43.2,"lng":45.7889,"pop":7134,"capital":false},{"name":"Tsqaltubo","country":"GE","lat":42.3286,"lng":42.5981,"pop":7104,"capital":false},{"name":"28 May","country":"AZ","lat":40.4576,"lng":49.6444,"pop":7100,"capital":false},{"name":"Parakar","country":"AM","lat":40.1639,"lng":44.4057,"pop":7083,"capital":false},{"name":"Baksanenok","country":"RU","lat":43.6897,"lng":43.6547,"pop":7058,"capital":false},{"name":"Nor Geghi","country":"AM","lat":40.3167,"lng":44.5779,"pop":7048,"capital":false},{"name":"Achikulak","country":"RU","lat":44.5517,"lng":44.8378,"pop":7040,"capital":false},{"name":"Voznesenskaya","country":"RU","lat":44.5527,"lng":41.0318,"pop":7009,"capital":false},{"name":"Ivanovskoye","country":"RU","lat":44.5795,"lng":41.8764,"pop":7003,"capital":false},{"name":"Jrvezh","country":"AM","lat":40.1889,"lng":44.6241,"pop":6987,"capital":false},{"name":"Surami","country":"GE","lat":42.0243,"lng":43.5556,"pop":6973,"capital":false},{"name":"Voznesenskaya","country":"RU","lat":43.5438,"lng":44.7461,"pop":6972,"capital":false},{"name":"Psedakh","country":"RU","lat":43.4672,"lng":44.5692,"pop":6964,"capital":false},{"name":"Galashki","country":"RU","lat":43.1174,"lng":44.9906,"pop":6928,"capital":false},{"name":"Endirey","country":"RU","lat":43.1632,"lng":46.654,"pop":6927,"capital":false},{"name":"Berd","country":"AM","lat":40.8807,"lng":45.389,"pop":6900,"capital":false},{"name":"Romanovskaya","country":"RU","lat":47.5427,"lng":42.0222,"pop":6885,"capital":false},{"name":"Psygansu","country":"RU","lat":43.4134,"lng":43.7907,"pop":6885,"capital":false},{"name":"Dernekpazarı","country":"TR","lat":40.7966,"lng":40.2446,"pop":6880,"capital":false},{"name":"Pelagiada","country":"RU","lat":45.2064,"lng":42.0236,"pop":6871,"capital":false},{"name":"Kagal’nitskaya","country":"RU","lat":46.8805,"lng":40.148,"pop":6848,"capital":false},{"name":"Yusufeli","country":"TR","lat":40.8204,"lng":41.5374,"pop":6847,"capital":false},{"name":"Psyzh","country":"RU","lat":44.2331,"lng":42.0183,"pop":6840,"capital":false},{"name":"Zhumysker","country":"KZ","lat":49.3333,"lng":49.4,"pop":6834,"capital":false},{"name":"Gedzhukh","country":"RU","lat":42.1279,"lng":48.0647,"pop":6816,"capital":false},{"name":"Kochubey","country":"RU","lat":44.3861,"lng":46.5825,"pop":6815,"capital":false},{"name":"Sulak","country":"RU","lat":43.2734,"lng":47.5146,"pop":6800,"capital":false},{"name":"Kasakh","country":"AM","lat":40.2356,"lng":44.4516,"pop":6756,"capital":false},{"name":"Andzhiyevskiy","country":"RU","lat":44.2389,"lng":43.0856,"pop":6755,"capital":false},{"name":"Manas","country":"RU","lat":42.7275,"lng":47.6785,"pop":6753,"capital":false},{"name":"Kareli","country":"GE","lat":42.0215,"lng":43.8955,"pop":6746,"capital":false},{"name":"Aran","country":"AZ","lat":40.6253,"lng":46.9756,"pop":6724,"capital":false},{"name":"Girey","country":"RU","lat":45.4012,"lng":40.6587,"pop":6712,"capital":false},{"name":"Zavetnoye","country":"RU","lat":47.1189,"lng":43.8894,"pop":6711,"capital":false},{"name":"Magaramkent","country":"RU","lat":41.6151,"lng":48.3461,"pop":6708,"capital":false},{"name":"Staryy Cherek","country":"RU","lat":43.4707,"lng":43.8562,"pop":6702,"capital":false},{"name":"Sinegorskiy","country":"RU","lat":48.0139,"lng":40.8447,"pop":6660,"capital":false},{"name":"Ternevskaya","country":"RU","lat":45.8513,"lng":40.4125,"pop":6643,"capital":false},{"name":"Petropavlovskaya","country":"RU","lat":45.0819,"lng":40.4513,"pop":6632,"capital":false},{"name":"Dondukovskaya","country":"RU","lat":44.8819,"lng":40.3627,"pop":6609,"capital":false},{"name":"Oğuz","country":"AZ","lat":41.0713,"lng":47.4653,"pop":6600,"capital":false},{"name":"Kyurdakhany","country":"AZ","lat":40.5483,"lng":49.9219,"pop":6600,"capital":false},{"name":"Pregradnaya","country":"RU","lat":43.9519,"lng":41.1912,"pop":6595,"capital":false},{"name":"Aragatsavan","country":"AM","lat":40.3212,"lng":43.6621,"pop":6580,"capital":false},{"name":"Kalnibolotskaya","country":"RU","lat":46.0058,"lng":40.4568,"pop":6578,"capital":false},{"name":"Sardarapat","country":"AM","lat":40.1321,"lng":44.0097,"pop":6539,"capital":false},{"name":"Zmeyskaya","country":"RU","lat":43.3362,"lng":44.1573,"pop":6533,"capital":false},{"name":"Zolakar","country":"AM","lat":40.1251,"lng":45.3807,"pop":6529,"capital":false},{"name":"Mechetinskaya","country":"RU","lat":46.7713,"lng":40.456,"pop":6517,"capital":false},{"name":"Çinarlı","country":"AZ","lat":41.4697,"lng":46.9158,"pop":6508,"capital":false},{"name":"Kapustin Yar","country":"RU","lat":48.5818,"lng":45.7448,"pop":6476,"capital":false},{"name":"Tyube","country":"RU","lat":43.0493,"lng":47.3074,"pop":6466,"capital":false},{"name":"Trunovskoye","country":"RU","lat":45.4878,"lng":42.1358,"pop":6459,"capital":false},{"name":"Verkhneye Kazanishche","country":"RU","lat":42.7355,"lng":47.1378,"pop":6444,"capital":false},{"name":"Il’inka","country":"RU","lat":46.2383,"lng":47.9007,"pop":6427,"capital":false},{"name":"Korkmaskala","country":"RU","lat":43.0247,"lng":47.2904,"pop":6402,"capital":false},{"name":"Gundelen","country":"RU","lat":43.5975,"lng":43.1719,"pop":6363,"capital":false},{"name":"Tereze","country":"RU","lat":43.9361,"lng":42.4434,"pop":6335,"capital":false},{"name":"Sadovoye","country":"RU","lat":47.774,"lng":44.5108,"pop":6333,"capital":false},{"name":"Kamennomostskoye","country":"RU","lat":43.7372,"lng":43.0514,"pop":6316,"capital":false},{"name":"Dzhalka","country":"RU","lat":43.3186,"lng":45.9879,"pop":6306,"capital":false},{"name":"Garayeri","country":"AZ","lat":40.7867,"lng":46.3137,"pop":6300,"capital":false},{"name":"Kashary","country":"RU","lat":49.0397,"lng":41.0043,"pop":6292,"capital":false},{"name":"Poputnaya","country":"RU","lat":44.5125,"lng":41.4392,"pop":6279,"capital":false},{"name":"Krasnyye Barrikady","country":"RU","lat":46.2045,"lng":47.8535,"pop":6275,"capital":false},{"name":"Proshyan","country":"AM","lat":40.2473,"lng":44.4195,"pop":6238,"capital":false},{"name":"Mutsalaul","country":"RU","lat":43.2755,"lng":46.7308,"pop":6219,"capital":false},{"name":"Lanchkhuti","country":"GE","lat":42.0874,"lng":42.0361,"pop":6214,"capital":false},{"name":"Madzhalis","country":"RU","lat":42.1217,"lng":47.8333,"pop":6173,"capital":false},{"name":"Aparan","country":"AM","lat":40.593,"lng":44.3595,"pop":6167,"capital":false},{"name":"Yërzovka","country":"RU","lat":48.9365,"lng":44.6455,"pop":6161,"capital":false},{"name":"Temizhbekskaya","country":"RU","lat":45.4456,"lng":40.845,"pop":6111,"capital":false},{"name":"Noratus","country":"AM","lat":40.3779,"lng":45.1805,"pop":6105,"capital":false},{"name":"Khadzhalmakhi","country":"RU","lat":42.42,"lng":47.1821,"pop":6088,"capital":false},{"name":"Zhirnov","country":"RU","lat":48.1709,"lng":41.1261,"pop":6069,"capital":false},{"name":"Tatarka","country":"RU","lat":44.9589,"lng":41.9517,"pop":6062,"capital":false},{"name":"Geghhovit","country":"AM","lat":40.1048,"lng":45.2855,"pop":6025,"capital":false},{"name":"Valerik","country":"RU","lat":43.1797,"lng":45.4081,"pop":6025,"capital":false},{"name":"Metsavan","country":"AM","lat":41.2016,"lng":44.2288,"pop":6020,"capital":false},{"name":"Sartich’ala","country":"GE","lat":41.7179,"lng":45.1757,"pop":6009,"capital":false},{"name":"Mrgashat","country":"AM","lat":40.1228,"lng":44.0658,"pop":6004,"capital":false},{"name":"Novokayakent","country":"RU","lat":42.3865,"lng":47.9882,"pop":5991,"capital":false},{"name":"Güneysu","country":"TR","lat":40.9813,"lng":40.6047,"pop":5976,"capital":false},{"name":"Novoukrainskoye","country":"RU","lat":45.3783,"lng":40.5297,"pop":5928,"capital":false},{"name":"Kirovskaya","country":"RU","lat":46.9748,"lng":40.0402,"pop":5918,"capital":false},{"name":"Untsukul’","country":"RU","lat":42.7115,"lng":46.7866,"pop":5913,"capital":false},{"name":"Talovyy","country":"RU","lat":47.8077,"lng":40.1094,"pop":5909,"capital":false},{"name":"Ulluaya","country":"RU","lat":42.3738,"lng":47.3745,"pop":5905,"capital":false},{"name":"Pazaryolu","country":"TR","lat":40.4114,"lng":40.7678,"pop":5878,"capital":false},{"name":"Karagach","country":"RU","lat":43.8053,"lng":43.775,"pop":5870,"capital":false},{"name":"Besskorbnaya","country":"RU","lat":44.6447,"lng":41.311,"pop":5837,"capital":false},{"name":"Kyzburun Pervyy","country":"RU","lat":43.6517,"lng":43.395,"pop":5833,"capital":false},{"name":"Malyye Derbety","country":"RU","lat":47.9552,"lng":44.6813,"pop":5822,"capital":false},{"name":"Konstantinovskoye","country":"RU","lat":45.2992,"lng":42.6367,"pop":5816,"capital":false},{"name":"Gugark","country":"AM","lat":40.8046,"lng":44.5403,"pop":5809,"capital":false},{"name":"Khabez","country":"RU","lat":44.0442,"lng":41.7705,"pop":5806,"capital":false},{"name":"Edissiya","country":"RU","lat":44.0511,"lng":44.5408,"pop":5775,"capital":false},{"name":"Shamkhal-Termen","country":"RU","lat":43.0339,"lng":47.3105,"pop":5774,"capital":false},{"name":"Tsagan Aman","country":"RU","lat":47.5628,"lng":46.7201,"pop":5769,"capital":false},{"name":"Duba-Yurt","country":"RU","lat":43.0353,"lng":45.7305,"pop":5751,"capital":false},{"name":"Pavlodol’skaya","country":"RU","lat":43.7192,"lng":44.4782,"pop":5731,"capital":false},{"name":"Kyakhulay","country":"RU","lat":42.9684,"lng":47.483,"pop":5731,"capital":false},{"name":"Rasshevatskaya","country":"RU","lat":45.5748,"lng":41.035,"pop":5686,"capital":false},{"name":"Tsentoroy","country":"RU","lat":43.0066,"lng":46.2224,"pop":5670,"capital":false},{"name":"Akhmeta","country":"GE","lat":42.035,"lng":45.208,"pop":5664,"capital":false},{"name":"Starokucherganovka","country":"RU","lat":46.3248,"lng":47.9555,"pop":5658,"capital":false},{"name":"Azatan","country":"AM","lat":40.7196,"lng":43.8273,"pop":5655,"capital":false},{"name":"Ansalta","country":"RU","lat":42.6894,"lng":46.1178,"pop":5654,"capital":false},{"name":"Levokumka","country":"RU","lat":44.2317,"lng":43.15,"pop":5651,"capital":false},{"name":"Benoy-Yurt","country":"RU","lat":43.6931,"lng":45.0503,"pop":5642,"capital":false},{"name":"Priyutnoye","country":"RU","lat":46.101,"lng":43.5109,"pop":5632,"capital":false},{"name":"Georgiyevskaya","country":"RU","lat":44.1114,"lng":43.4922,"pop":5610,"capital":false},{"name":"Lagodekhi","country":"GE","lat":41.8275,"lng":46.2749,"pop":5607,"capital":false},{"name":"Stepnoye","country":"RU","lat":44.2698,"lng":44.5819,"pop":5600,"capital":false},{"name":"Altud","country":"RU","lat":43.7219,"lng":43.8658,"pop":5578,"capital":false},{"name":"Dubki","country":"RU","lat":43.0212,"lng":46.8375,"pop":5576,"capital":false},{"name":"Goy-Chu","country":"RU","lat":43.0561,"lng":45.6067,"pop":5559,"capital":false},{"name":"Uzundere","country":"TR","lat":40.5322,"lng":41.5383,"pop":5555,"capital":false},{"name":"Urkarakh","country":"RU","lat":42.1629,"lng":47.6303,"pop":5548,"capital":false},{"name":"Kazreti","country":"GE","lat":41.3816,"lng":44.4197,"pop":5547,"capital":false},{"name":"Barsukovskaya","country":"RU","lat":44.7632,"lng":41.8191,"pop":5529,"capital":false},{"name":"Udobnaya","country":"RU","lat":44.1932,"lng":41.5529,"pop":5519,"capital":false},{"name":"Engel’-Yurt","country":"RU","lat":43.3263,"lng":46.3605,"pop":5508,"capital":false},{"name":"Gofitskoye","country":"RU","lat":45.0792,"lng":43.0464,"pop":5493,"capital":false},{"name":"Urvan’","country":"RU","lat":43.4894,"lng":43.7638,"pop":5484,"capital":false},{"name":"Moskovskoye","country":"RU","lat":45.2842,"lng":41.9103,"pop":5482,"capital":false},{"name":"Chambarak","country":"AM","lat":40.5966,"lng":45.355,"pop":5481,"capital":false},{"name":"Maralik","country":"AM","lat":40.576,"lng":43.8706,"pop":5462,"capital":false},{"name":"Dedoplistsqaro","country":"GE","lat":41.4657,"lng":46.1039,"pop":5460,"capital":false},{"name":"Yaroslavskaya","country":"RU","lat":44.6106,"lng":40.4642,"pop":5458,"capital":false},{"name":"Chernyshkovskiy","country":"RU","lat":48.4243,"lng":42.2291,"pop":5458,"capital":false},{"name":"Novyy Sulak","country":"RU","lat":43.21,"lng":46.823,"pop":5454,"capital":false},{"name":"Alkhazurovo","country":"RU","lat":43.0639,"lng":45.6513,"pop":5452,"capital":false},{"name":"Milove","country":"UA","lat":49.3762,"lng":40.1365,"pop":5418,"capital":false},{"name":"Dallar","country":"AZ","lat":40.8628,"lng":46.0349,"pop":5400,"capital":false},{"name":"Bavtugay","country":"RU","lat":43.1681,"lng":46.8342,"pop":5398,"capital":false},{"name":"Chernolesskoye","country":"RU","lat":44.7156,"lng":43.7133,"pop":5386,"capital":false},{"name":"Martan-Chu","country":"RU","lat":43.0637,"lng":45.5622,"pop":5385,"capital":false},{"name":"Kargalinskaya","country":"RU","lat":43.7438,"lng":46.4782,"pop":5371,"capital":false},{"name":"Kashkhatau","country":"RU","lat":43.3169,"lng":43.6077,"pop":5367,"capital":false},{"name":"Kletskaya","country":"RU","lat":49.3136,"lng":43.0628,"pop":5362,"capital":false},{"name":"Pervomayskoye","country":"RU","lat":43.9385,"lng":42.476,"pop":5345,"capital":false},{"name":"Yeranos","country":"AM","lat":40.2043,"lng":45.1921,"pop":5337,"capital":false},{"name":"Podgornaya","country":"RU","lat":44.2031,"lng":43.4297,"pop":5336,"capital":false},{"name":"Novozavedennoye","country":"RU","lat":44.2628,"lng":43.6381,"pop":5336,"capital":false},{"name":"Shalazhi","country":"RU","lat":43.0948,"lng":45.359,"pop":5319,"capital":false},{"name":"Andi","country":"RU","lat":42.7836,"lng":46.2617,"pop":5318,"capital":false},{"name":"Ardanuç","country":"TR","lat":41.1195,"lng":42.0688,"pop":5318,"capital":false},{"name":"Köprübaşı","country":"TR","lat":40.8069,"lng":40.1144,"pop":5317,"capital":false},{"name":"Dalimammadli","country":"AZ","lat":40.6942,"lng":46.5738,"pop":5300,"capital":false},{"name":"Lichk","country":"AM","lat":40.1593,"lng":45.2347,"pop":5292,"capital":false},{"name":"Spokoynaya","country":"RU","lat":44.2468,"lng":41.4015,"pop":5291,"capital":false},{"name":"İyidere","country":"TR","lat":41.0119,"lng":40.3618,"pop":5273,"capital":false},{"name":"Nizhniye Achaluki","country":"RU","lat":43.4028,"lng":44.7591,"pop":5247,"capital":false},{"name":"Tarumovka","country":"RU","lat":44.0761,"lng":46.536,"pop":5245,"capital":false},{"name":"Ochamchire","country":"GE","lat":42.7123,"lng":41.4686,"pop":5238,"capital":false},{"name":"Oshakan","country":"AM","lat":40.2639,"lng":44.3167,"pop":5237,"capital":false},{"name":"Sachkhere","country":"GE","lat":42.3359,"lng":43.4058,"pop":5235,"capital":false},{"name":"Blagodatnoye","country":"RU","lat":45.3997,"lng":42.5867,"pop":5230,"capital":false},{"name":"Gumrak","country":"RU","lat":48.7826,"lng":44.3824,"pop":5227,"capital":false},{"name":"Gundorovskiy","country":"RU","lat":46.7805,"lng":41.8968,"pop":5210,"capital":false},{"name":"Zahesi","country":"GE","lat":41.8246,"lng":44.7536,"pop":5200,"capital":false},{"name":"Krasnoyarskaya","country":"RU","lat":47.6501,"lng":42.0443,"pop":5198,"capital":false},{"name":"Alpatovo","country":"RU","lat":43.7028,"lng":45.2415,"pop":5192,"capital":false},{"name":"Dorgeli","country":"RU","lat":42.667,"lng":47.2944,"pop":5185,"capital":false},{"name":"Ipnari","country":"GE","lat":43.228,"lng":40.333,"pop":5166,"capital":false},{"name":"Bamut","country":"RU","lat":43.1599,"lng":45.1973,"pop":5148,"capital":false},{"name":"Chiri-Yurt","country":"RU","lat":43.0887,"lng":45.7432,"pop":5136,"capital":false},{"name":"Arpaçay","country":"TR","lat":40.8452,"lng":43.3275,"pop":5126,"capital":false},{"name":"Hanak","country":"TR","lat":41.2334,"lng":42.8404,"pop":5122,"capital":false},{"name":"Pravokumskoye","country":"RU","lat":44.7694,"lng":44.6472,"pop":5117,"capital":false},{"name":"Ladovskaya Balka","country":"RU","lat":45.6297,"lng":41.4023,"pop":5117,"capital":false},{"name":"Sotnikovskoye","country":"RU","lat":45.0039,"lng":43.7772,"pop":5116,"capital":false},{"name":"Gergebil’","country":"RU","lat":42.5047,"lng":47.0661,"pop":5107,"capital":false},{"name":"Karanlukh","country":"AM","lat":40.1044,"lng":45.2897,"pop":5104,"capital":false},{"name":"Komsomol’skiy","country":"RU","lat":45.3294,"lng":46.0421,"pop":5099,"capital":false},{"name":"Bum","country":"AZ","lat":41.0144,"lng":47.7781,"pop":5095,"capital":false},{"name":"Ali-Berdukovskiy","country":"RU","lat":43.9895,"lng":41.7421,"pop":5093,"capital":false},{"name":"Khojasan","country":"AZ","lat":40.4129,"lng":49.769,"pop":5089,"capital":false},{"name":"Nozhay-Yurt","country":"RU","lat":43.0944,"lng":46.3758,"pop":5073,"capital":false},{"name":"Grebenskaya","country":"RU","lat":43.5309,"lng":46.3717,"pop":5066,"capital":false},{"name":"Yasnaya Polyana","country":"RU","lat":44.0225,"lng":42.7539,"pop":5064,"capital":false},{"name":"Starocherkasskaya","country":"RU","lat":47.2408,"lng":40.0419,"pop":5060,"capital":false},{"name":"Nogamerzin-Yurt","country":"RU","lat":43.6536,"lng":44.8889,"pop":5053,"capital":false},{"name":"Tqvarch'eli","country":"GE","lat":42.8404,"lng":41.6801,"pop":5044,"capital":false},{"name":"Tetritsqaro","country":"GE","lat":41.5438,"lng":44.4618,"pop":5041,"capital":false},{"name":"Dollyar-Dzhagir","country":"AZ","lat":40.8825,"lng":46.0367,"pop":5038,"capital":false},{"name":"Lakkha Nëvre","country":"RU","lat":43.6103,"lng":45.2454,"pop":5036,"capital":false},{"name":"Bokovskaya","country":"RU","lat":49.2273,"lng":41.8304,"pop":5032,"capital":false},{"name":"Pervomayskaya","country":"RU","lat":43.4033,"lng":45.5234,"pop":5026,"capital":false},{"name":"Mkhchyan","country":"AM","lat":40.0223,"lng":44.4917,"pop":5022,"capital":false},{"name":"Ambrolauri","country":"GE","lat":42.5232,"lng":43.1498,"pop":1952,"capital":false},{"name":"Khizi","country":"AZ","lat":40.9085,"lng":49.0748,"pop":1600,"capital":false}]