[{"name":"Kotlas","country":"RU","lat":61.2566,"lng":46.6537,"pop":59180,"capital":false},{"name":"Novodvinsk","country":"RU","lat":64.4164,"lng":40.8167,"pop":42900,"capital":false},{"name":"Koryazhma","country":"RU","lat":61.3124,"lng":47.1483,"pop":42627,"capital":false},{"name":"Velikiy Ustyug","country":"RU","lat":60.7619,"lng":46.3135,"pop":32642,"capital":false},{"name":"Isakogorka","country":"RU","lat":64.446,"lng":40.6531,"pop":28571,"capital":false},{"name":"Mirnyy","country":"RU","lat":62.7644,"lng":40.3386,"pop":28000,"capital":false},{"name":"Vel’sk","country":"RU","lat":61.0692,"lng":42.0992,"pop":23126,"capital":false},{"name":"Nyandoma","country":"RU","lat":61.6718,"lng":40.2122,"pop":22179,"capital":false},{"name":"Vychegodskiy","country":"RU","lat":61.247,"lng":46.8984,"pop":12923,"capital":false},{"name":"Konosha","country":"RU","lat":60.9731,"lng":40.2632,"pop":12383,"capital":false},{"name":"Yemetsk","country":"RU","lat":63.4719,"lng":41.7802,"pop":12000,"capital":false},{"name":"Luza","country":"RU","lat":60.6263,"lng":47.2644,"pop":11935,"capital":false},{"name":"Plesetsk","country":"RU","lat":62.7117,"lng":40.291,"pop":10870,"capital":false},{"name":"Zheshart","country":"RU","lat":62.0731,"lng":49.5734,"pop":9534,"capital":false},{"name":"Oktyabr’skiy","country":"RU","lat":61.0893,"lng":43.1718,"pop":9008,"capital":false},{"name":"Krasavino","country":"RU","lat":60.9623,"lng":46.4832,"pop":7912,"capital":false},{"name":"Vozhega","country":"RU","lat":60.4725,"lng":40.2213,"pop":6703,"capital":false},{"name":"Kuloy","country":"RU","lat":61.0305,"lng":42.4925,"pop":6557,"capital":false},{"name":"Berëznik","country":"RU","lat":62.8581,"lng":42.7019,"pop":6218,"capital":false},{"name":"Dem’yanovo","country":"RU","lat":60.3511,"lng":47.0842,"pop":6148,"capital":false},{"name":"Shenkursk","country":"RU","lat":62.109,"lng":42.9007,"pop":5893,"capital":false},{"name":"Savinskiy","country":"RU","lat":62.9317,"lng":40.1407,"pop":5596,"capital":false},{"name":"Tarnogskiy Gorodok","country":"RU","lat":60.4997,"lng":43.5761,"pop":5432,"capital":false},{"name":"Usogorsk","country":"RU","lat":63.4106,"lng":48.6872,"pop":5308,"capital":false},{"name":"Verkhovazh’ye","country":"RU","lat":60.7472,"lng":42.0465,"pop":5200,"capital":false}]