[{"name":"Zelenodolsk","country":"RU","lat":55.8438,"lng":48.5178,"pop":99600,"capital":false},{"name":"Balashov","country":"RU","lat":51.551,"lng":43.1707,"pop":98107,"capital":false},{"name":"Michurinsk","country":"RU","lat":52.9076,"lng":40.4823,"pop":93499,"capital":false},{"name":"Kineshma","country":"RU","lat":57.4367,"lng":42.1277,"pop":92983,"capital":false},{"name":"Kuznetsk","country":"RU","lat":53.1168,"lng":46.6004,"pop":90480,"capital":false},{"name":"Sarov","country":"RU","lat":54.948,"lng":43.3152,"pop":88000,"capital":false},{"name":"Vol’sk","country":"RU","lat":52.0417,"lng":47.3827,"pop":70500,"capital":false},{"name":"Chapayevsk","country":"RU","lat":52.9771,"lng":49.7086,"pop":70147,"capital":false},{"name":"Borisoglebsk","country":"RU","lat":51.3689,"lng":42.098,"pop":68597,"capital":false},{"name":"Kstovo","country":"RU","lat":56.1475,"lng":44.1987,"pop":67242,"capital":false},{"name":"Zarechnyy","country":"RU","lat":53.2036,"lng":45.1923,"pop":63579,"capital":false},{"name":"Pavlovo","country":"RU","lat":55.9686,"lng":43.0912,"pop":63338,"capital":false},{"name":"Novaya Balakhna","country":"RU","lat":56.4899,"lng":43.6011,"pop":63083,"capital":false},{"name":"Gus’-Khrustal’nyy","country":"RU","lat":55.6117,"lng":40.6502,"pop":62746,"capital":false},{"name":"Zarechnyy","country":"RU","lat":53.1333,"lng":46.5833,"pop":62139,"capital":false},{"name":"Vyksa","country":"RU","lat":55.3206,"lng":42.174,"pop":61664,"capital":false},{"name":"Shuya","country":"RU","lat":56.8486,"lng":41.3869,"pop":60705,"capital":false},{"name":"Bor","country":"RU","lat":56.3594,"lng":44.073,"pop":60647,"capital":false},{"name":"Mikhaylovka","country":"RU","lat":50.0619,"lng":43.2334,"pop":58898,"capital":false},{"name":"Volzhsk","country":"RU","lat":55.8666,"lng":48.3593,"pop":58000,"capital":false},{"name":"Zhigulëvsk","country":"RU","lat":53.4033,"lng":49.5106,"pop":57094,"capital":false},{"name":"Kanash","country":"RU","lat":55.5096,"lng":47.4913,"pop":49886,"capital":false},{"name":"Ruzayevka","country":"RU","lat":54.06,"lng":44.949,"pop":49311,"capital":false},{"name":"Rasskazovo","country":"RU","lat":52.6638,"lng":41.8892,"pop":45957,"capital":false},{"name":"Rtishchevo","country":"RU","lat":52.2597,"lng":43.7868,"pop":44013,"capital":false},{"name":"Morshansk","country":"RU","lat":53.4433,"lng":41.8106,"pop":43311,"capital":false},{"name":"Zavolzh’ye","country":"RU","lat":56.6405,"lng":43.3945,"pop":42900,"capital":false},{"name":"Sokol","country":"RU","lat":59.4617,"lng":40.1206,"pop":42174,"capital":false},{"name":"Alatyr’","country":"RU","lat":54.8421,"lng":46.5813,"pop":42156,"capital":false},{"name":"Uryupinsk","country":"RU","lat":50.806,"lng":42.0092,"pop":41644,"capital":false},{"name":"Pugachëv","country":"RU","lat":52.0166,"lng":48.799,"pop":41375,"capital":false},{"name":"Vyazniki","country":"RU","lat":56.2423,"lng":42.1491,"pop":39243,"capital":false},{"name":"Vichuga","country":"RU","lat":57.2145,"lng":41.9256,"pop":39071,"capital":false},{"name":"Furmanov","country":"RU","lat":57.2542,"lng":41.1112,"pop":38380,"capital":false},{"name":"Kulebaki","country":"RU","lat":55.4133,"lng":42.5325,"pop":37622,"capital":false},{"name":"Serdobsk","country":"RU","lat":52.4586,"lng":44.2169,"pop":36652,"capital":false},{"name":"Bogorodsk","country":"RU","lat":56.1015,"lng":43.5101,"pop":36652,"capital":false},{"name":"Teykovo","country":"RU","lat":56.8585,"lng":40.5403,"pop":36015,"capital":false},{"name":"Kasimov","country":"RU","lat":54.9438,"lng":41.4034,"pop":35355,"capital":false},{"name":"Shumerlya","country":"RU","lat":55.5005,"lng":46.4129,"pop":35220,"capital":false},{"name":"Petrovsk","country":"RU","lat":52.3088,"lng":45.3899,"pop":33622,"capital":false},{"name":"Kotovsk","country":"RU","lat":52.5905,"lng":41.5025,"pop":33077,"capital":false},{"name":"Kamenka","country":"RU","lat":53.1814,"lng":44.0494,"pop":33060,"capital":false},{"name":"Marks","country":"RU","lat":51.7102,"lng":46.7455,"pop":32929,"capital":false},{"name":"Privolzhskiy","country":"RU","lat":51.4094,"lng":46.0483,"pop":31849,"capital":false},{"name":"Gorodets","country":"RU","lat":56.655,"lng":43.4727,"pop":31788,"capital":false},{"name":"Sasovo","country":"RU","lat":54.3537,"lng":41.9199,"pop":29858,"capital":false},{"name":"Shar’ya","country":"RU","lat":58.3685,"lng":45.5162,"pop":29800,"capital":false},{"name":"Kokhma","country":"RU","lat":56.9321,"lng":41.0947,"pop":28984,"capital":false},{"name":"Uvarovo","country":"RU","lat":51.982,"lng":42.2618,"pop":28771,"capital":false},{"name":"Buturlinovka","country":"RU","lat":50.8262,"lng":40.598,"pop":28581,"capital":false},{"name":"Rodniki","country":"RU","lat":57.105,"lng":41.7357,"pop":27681,"capital":false},{"name":"Kotel’nich","country":"RU","lat":58.3035,"lng":48.3374,"pop":27600,"capital":false},{"name":"Atkarsk","country":"RU","lat":51.8806,"lng":45.0061,"pop":27554,"capital":false},{"name":"Kotovo","country":"RU","lat":50.3157,"lng":44.81,"pop":26981,"capital":false},{"name":"Pavlovsk","country":"RU","lat":50.4543,"lng":40.1237,"pop":26565,"capital":false},{"name":"Buy","country":"RU","lat":58.4796,"lng":41.5359,"pop":26486,"capital":false},{"name":"Oktyabr’sk","country":"RU","lat":53.1668,"lng":48.6972,"pop":26306,"capital":false},{"name":"Krasnoarmeysk","country":"RU","lat":51.0235,"lng":45.6967,"pop":25841,"capital":false},{"name":"Nerekhta","country":"RU","lat":57.458,"lng":40.5717,"pop":25352,"capital":false},{"name":"Semënov","country":"RU","lat":56.7876,"lng":44.4962,"pop":24300,"capital":false},{"name":"Nikol’sk","country":"RU","lat":53.7189,"lng":46.0712,"pop":24300,"capital":false},{"name":"Nizhniy Lomov","country":"RU","lat":53.5304,"lng":43.6766,"pop":23835,"capital":false},{"name":"Bezenchuk","country":"RU","lat":52.9806,"lng":49.432,"pop":23736,"capital":false},{"name":"Yershov","country":"RU","lat":51.356,"lng":48.2727,"pop":23681,"capital":false},{"name":"Lyskovo","country":"RU","lat":56.0293,"lng":45.0423,"pop":23570,"capital":false},{"name":"Koz’modem’yansk","country":"RU","lat":56.3321,"lng":46.5606,"pop":22700,"capital":false},{"name":"Medvedevo","country":"RU","lat":56.634,"lng":47.8035,"pop":22555,"capital":false},{"name":"Shakhun’ya","country":"RU","lat":57.676,"lng":46.6117,"pop":22400,"capital":false},{"name":"Sergach","country":"RU","lat":55.5277,"lng":45.4568,"pop":22361,"capital":false},{"name":"Ryazhsk","country":"RU","lat":53.7059,"lng":40.0805,"pop":22041,"capital":false},{"name":"Kovylkino","country":"RU","lat":54.0372,"lng":43.9187,"pop":21400,"capital":false},{"name":"Bobrov","country":"RU","lat":51.0984,"lng":40.0301,"pop":20587,"capital":false},{"name":"Sobinka","country":"RU","lat":55.99,"lng":40.0205,"pop":20458,"capital":false},{"name":"Kalach","country":"RU","lat":50.425,"lng":41.0159,"pop":20449,"capital":false},{"name":"Buinsk","country":"RU","lat":54.9742,"lng":48.2909,"pop":20266,"capital":false},{"name":"Inza","country":"RU","lat":53.8534,"lng":46.3513,"pop":19737,"capital":false},{"name":"Yaransk","country":"RU","lat":57.305,"lng":47.8739,"pop":19557,"capital":false},{"name":"Novoanninskiy","country":"RU","lat":50.5283,"lng":42.6746,"pop":19231,"capital":false},{"name":"Anna","country":"RU","lat":51.4901,"lng":40.4224,"pop":19148,"capital":false},{"name":"Manturovo","country":"RU","lat":58.3258,"lng":44.7588,"pop":18817,"capital":false},{"name":"Kalininsk","country":"RU","lat":51.4978,"lng":44.4768,"pop":18685,"capital":false},{"name":"Galich","country":"RU","lat":58.3788,"lng":42.3463,"pop":18594,"capital":false},{"name":"Barysh","country":"RU","lat":53.6498,"lng":47.1272,"pop":18547,"capital":false},{"name":"Povorino","country":"RU","lat":51.1981,"lng":42.246,"pop":18004,"capital":false},{"name":"Kirsanov","country":"RU","lat":52.6509,"lng":42.7348,"pop":17975,"capital":false},{"name":"Zhirnovsk","country":"RU","lat":50.9788,"lng":44.7789,"pop":17887,"capital":false},{"name":"Sovetsk","country":"RU","lat":57.5894,"lng":48.9553,"pop":17869,"capital":false},{"name":"Privolzhsk","country":"RU","lat":57.384,"lng":41.2916,"pop":17864,"capital":false},{"name":"Raduzhnyy","country":"RU","lat":56.0038,"lng":40.3391,"pop":17811,"capital":false},{"name":"Volgorechensk","country":"RU","lat":57.4444,"lng":41.1634,"pop":17700,"capital":false},{"name":"Arsk","country":"RU","lat":56.0925,"lng":49.8782,"pop":17243,"capital":false},{"name":"Gribanovskiy","country":"RU","lat":51.4502,"lng":41.9621,"pop":17220,"capital":false},{"name":"Pallasovka","country":"RU","lat":50.0491,"lng":46.8855,"pop":17139,"capital":false},{"name":"Novoul’yanovsk","country":"RU","lat":54.1477,"lng":48.3864,"pop":17139,"capital":false},{"name":"Novouzensk","country":"RU","lat":50.4632,"lng":48.1416,"pop":16932,"capital":false},{"name":"Danilov","country":"RU","lat":58.1908,"lng":40.1708,"pop":16808,"capital":false},{"name":"Vasil’yevo","country":"RU","lat":55.8301,"lng":48.7173,"pop":16800,"capital":false},{"name":"Shilovo","country":"RU","lat":54.3201,"lng":40.8796,"pop":16159,"capital":false},{"name":"Gryazovets","country":"RU","lat":58.88,"lng":40.2525,"pop":16133,"capital":false},{"name":"Nikolayevsk","country":"RU","lat":50.0281,"lng":45.4612,"pop":16044,"capital":false},{"name":"Zherdevka","country":"RU","lat":51.8543,"lng":41.4549,"pop":16019,"capital":false},{"name":"Melenki","country":"RU","lat":55.3358,"lng":41.6275,"pop":15902,"capital":false},{"name":"Yelan’","country":"RU","lat":50.9488,"lng":43.7371,"pop":15181,"capital":false},{"name":"Krasnyy Kut","country":"RU","lat":50.9502,"lng":46.9685,"pop":14956,"capital":false},{"name":"Petrov Val","country":"RU","lat":50.1434,"lng":45.2096,"pop":14853,"capital":false},{"name":"Navashino","country":"RU","lat":55.5432,"lng":42.1931,"pop":14830,"capital":false},{"name":"Pervomaysk","country":"RU","lat":54.8686,"lng":43.8035,"pop":14810,"capital":false},{"name":"Yuzha","country":"RU","lat":56.5837,"lng":42.0118,"pop":14678,"capital":false},{"name":"Korablino","country":"RU","lat":53.9267,"lng":40.0237,"pop":14469,"capital":false},{"name":"Arkadak","country":"RU","lat":51.9375,"lng":43.504,"pop":14392,"capital":false},{"name":"Gorokhovets","country":"RU","lat":56.1996,"lng":42.6887,"pop":14247,"capital":false},{"name":"Stepnoye","country":"RU","lat":51.3799,"lng":46.8489,"pop":14035,"capital":false},{"name":"Kameshkovo","country":"RU","lat":56.3492,"lng":40.9986,"pop":13935,"capital":false},{"name":"Chkalovsk","country":"RU","lat":56.7649,"lng":43.2469,"pop":13577,"capital":false},{"name":"Khvalynsk","country":"RU","lat":52.4911,"lng":48.1061,"pop":13437,"capital":false},{"name":"Talovaya","country":"RU","lat":51.1196,"lng":40.7251,"pop":13367,"capital":false},{"name":"Sudogda","country":"RU","lat":55.9517,"lng":40.8735,"pop":13277,"capital":false},{"name":"Tsivil’sk","country":"RU","lat":55.8697,"lng":47.4787,"pop":13252,"capital":false},{"name":"Vetluzhskiy","country":"RU","lat":58.3902,"lng":45.4654,"pop":13229,"capital":false},{"name":"Pervomayskiy","country":"RU","lat":53.2463,"lng":40.2891,"pop":13196,"capital":false},{"name":"Lukoyanov","country":"RU","lat":55.0315,"lng":44.4818,"pop":12913,"capital":false},{"name":"Zavolzhsk","country":"RU","lat":57.482,"lng":42.1382,"pop":12847,"capital":false},{"name":"Lyangasovo","country":"RU","lat":58.5176,"lng":49.4472,"pop":12626,"capital":false},{"name":"Ertil’","country":"RU","lat":51.8382,"lng":40.8017,"pop":12622,"capital":false},{"name":"Zvenigovo","country":"RU","lat":55.9748,"lng":48.0178,"pop":12484,"capital":false},{"name":"Vorsma","country":"RU","lat":55.9906,"lng":43.2725,"pop":12362,"capital":false},{"name":"Uren’","country":"RU","lat":57.4613,"lng":45.7856,"pop":12309,"capital":false},{"name":"Svetlyy","country":"RU","lat":51.6737,"lng":45.6305,"pop":12222,"capital":false},{"name":"Cherdakly","country":"RU","lat":54.355,"lng":48.8454,"pop":11939,"capital":false},{"name":"Zemetchino","country":"RU","lat":53.4973,"lng":42.6163,"pop":11928,"capital":false},{"name":"Tetyushi","country":"RU","lat":54.9377,"lng":48.8327,"pop":11826,"capital":false},{"name":"Pochinki","country":"RU","lat":54.7015,"lng":44.8576,"pop":11724,"capital":false},{"name":"Kozlovka","country":"RU","lat":55.8428,"lng":48.2492,"pop":11700,"capital":false},{"name":"Mokshan","country":"RU","lat":53.4365,"lng":44.6132,"pop":11652,"capital":false},{"name":"Kugesi","country":"RU","lat":56.029,"lng":47.2926,"pop":11547,"capital":false},{"name":"Mulino","country":"RU","lat":56.2892,"lng":42.9201,"pop":11513,"capital":false},{"name":"Pribrezhnyy","country":"RU","lat":53.4866,"lng":49.8584,"pop":11500,"capital":false},{"name":"Yur’yevets","country":"RU","lat":57.3121,"lng":43.104,"pop":11488,"capital":false},{"name":"Urzhum","country":"RU","lat":57.1144,"lng":49.9993,"pop":11333,"capital":false},{"name":"Suzdal’","country":"RU","lat":56.4241,"lng":40.4498,"pop":11183,"capital":false},{"name":"Neya","country":"RU","lat":58.2971,"lng":43.8683,"pop":11144,"capital":false},{"name":"Kharovsk","country":"RU","lat":59.9643,"lng":40.1912,"pop":11115,"capital":false},{"name":"Komsomol’skiy","country":"RU","lat":54.4452,"lng":45.8314,"pop":11070,"capital":false},{"name":"Navoloki","country":"RU","lat":57.4657,"lng":41.9634,"pop":10951,"capital":false},{"name":"Novospasskoye","country":"RU","lat":53.1508,"lng":47.7477,"pop":10941,"capital":false},{"name":"Volodarsk","country":"RU","lat":56.2255,"lng":43.1758,"pop":10862,"capital":false},{"name":"Vurnary","country":"RU","lat":55.4904,"lng":46.9648,"pop":10825,"capital":false},{"name":"Raduzhnyy","country":"RU","lat":58.499,"lng":49.6435,"pop":10792,"capital":false},{"name":"Krasnoslobodsk","country":"RU","lat":54.4255,"lng":43.7856,"pop":10748,"capital":false},{"name":"Yadrin","country":"RU","lat":55.9405,"lng":46.2062,"pop":10735,"capital":false},{"name":"Sovetskiy","country":"RU","lat":56.7621,"lng":48.4757,"pop":10674,"capital":false},{"name":"Tot’ma","country":"RU","lat":59.9738,"lng":42.7649,"pop":10500,"capital":false},{"name":"Sosnovka","country":"RU","lat":53.2309,"lng":41.3656,"pop":10475,"capital":false},{"name":"Bazarnyy Karabulak","country":"RU","lat":52.2724,"lng":46.4171,"pop":10389,"capital":false},{"name":"Nolinsk","country":"RU","lat":57.5593,"lng":49.9333,"pop":10282,"capital":false},{"name":"Inzhavino","country":"RU","lat":52.3198,"lng":42.4915,"pop":10278,"capital":false},{"name":"Novonikolayevskiy","country":"RU","lat":50.9745,"lng":42.36,"pop":10251,"capital":false},{"name":"Mariinskiy Posad","country":"RU","lat":56.115,"lng":47.7181,"pop":10199,"capital":false},{"name":"Zubova Polyana","country":"RU","lat":54.0781,"lng":42.8365,"pop":10119,"capital":false},{"name":"Dobrinka","country":"RU","lat":52.1653,"lng":40.4731,"pop":10063,"capital":false},{"name":"Isheyevka","country":"RU","lat":54.4262,"lng":48.2698,"pop":9944,"capital":false},{"name":"Aleksandrov Gay","country":"RU","lat":50.142,"lng":48.569,"pop":9919,"capital":false},{"name":"Puchezh","country":"RU","lat":56.9761,"lng":43.1666,"pop":9881,"capital":false},{"name":"Bessonovka","country":"RU","lat":53.3097,"lng":45.0407,"pop":9880,"capital":false},{"name":"Staryye Ozinki","country":"RU","lat":51.1786,"lng":49.6769,"pop":9733,"capital":false},{"name":"Bashmakovo","country":"RU","lat":53.2133,"lng":43.0342,"pop":9654,"capital":false},{"name":"Romodanovo","country":"RU","lat":54.4201,"lng":45.3404,"pop":9646,"capital":false},{"name":"Dergachi","country":"RU","lat":51.235,"lng":48.766,"pop":9570,"capital":false},{"name":"Morki","country":"RU","lat":56.4324,"lng":48.999,"pop":9568,"capital":false},{"name":"Raduzhnyy","country":"RU","lat":59.4833,"lng":49.65,"pop":9514,"capital":false},{"name":"Chamzinka","country":"RU","lat":54.405,"lng":45.7878,"pop":9500,"capital":false},{"name":"Kamenka","country":"RU","lat":51.3223,"lng":42.7678,"pop":9450,"capital":false},{"name":"Perevoz","country":"RU","lat":55.5957,"lng":44.5454,"pop":9228,"capital":false},{"name":"Krasnaya Gorbatka","country":"RU","lat":55.877,"lng":41.7551,"pop":9225,"capital":false},{"name":"Torbeyevo","country":"RU","lat":54.0774,"lng":43.2499,"pop":9138,"capital":false},{"name":"Ibresi","country":"RU","lat":55.3011,"lng":47.038,"pop":9113,"capital":false},{"name":"Neklyudovo","country":"RU","lat":56.4142,"lng":43.9772,"pop":9052,"capital":false},{"name":"Komsomol’sk","country":"RU","lat":57.0294,"lng":40.3757,"pop":8975,"capital":false},{"name":"Povolzhskiy","country":"RU","lat":53.5854,"lng":49.7629,"pop":8952,"capital":false},{"name":"Sernur","country":"RU","lat":56.9358,"lng":49.1492,"pop":8921,"capital":false},{"name":"Znamenka","country":"RU","lat":52.4184,"lng":41.4317,"pop":8915,"capital":false},{"name":"Lukhovka","country":"RU","lat":54.1484,"lng":45.2573,"pop":8892,"capital":false},{"name":"Insar","country":"RU","lat":53.8672,"lng":44.3692,"pop":8837,"capital":false},{"name":"Belinskiy","country":"RU","lat":52.9647,"lng":43.4165,"pop":8800,"capital":false},{"name":"Shatki","country":"RU","lat":55.1877,"lng":44.1207,"pop":8773,"capital":false},{"name":"Ardatov","country":"RU","lat":55.2392,"lng":43.0956,"pop":8710,"capital":false},{"name":"Spassk-Ryazanskiy","country":"RU","lat":54.4084,"lng":40.3766,"pop":8655,"capital":false},{"name":"Bolgar","country":"RU","lat":54.9742,"lng":49.0308,"pop":8640,"capital":false},{"name":"Pachelma","country":"RU","lat":53.2443,"lng":43.3521,"pop":8620,"capital":false},{"name":"Kuzovatovo","country":"RU","lat":53.5468,"lng":47.6863,"pop":8607,"capital":false},{"name":"Samoylovka","country":"RU","lat":51.1854,"lng":43.7088,"pop":8584,"capital":false},{"name":"Ardatov","country":"RU","lat":54.8447,"lng":46.244,"pop":8584,"capital":false},{"name":"Novo-Talitsy","country":"RU","lat":57.0039,"lng":40.8594,"pop":8563,"capital":false},{"name":"Nikol’sk","country":"RU","lat":59.5353,"lng":45.4574,"pop":8487,"capital":false},{"name":"Vetluga","country":"RU","lat":57.8552,"lng":45.7777,"pop":8455,"capital":false},{"name":"Orlov","country":"RU","lat":58.5392,"lng":48.8917,"pop":8400,"capital":false},{"name":"Kolyshley","country":"RU","lat":52.7005,"lng":44.5367,"pop":8371,"capital":false},{"name":"Gorodishche","country":"RU","lat":53.2775,"lng":45.7017,"pop":8334,"capital":false},{"name":"Kideksha","country":"RU","lat":56.4238,"lng":40.5215,"pop":8301,"capital":false},{"name":"Nizhniye Vyazovyye","country":"RU","lat":55.7988,"lng":48.5248,"pop":8290,"capital":false},{"name":"Srednyaya Yelyuzan’","country":"RU","lat":53.0241,"lng":45.9529,"pop":8279,"capital":false},{"name":"Verkhniy Mamon","country":"RU","lat":50.1642,"lng":40.3894,"pop":8278,"capital":false},{"name":"Lyambir’","country":"RU","lat":54.2799,"lng":45.1223,"pop":8274,"capital":false},{"name":"Temnikov","country":"RU","lat":54.6306,"lng":43.2192,"pop":8252,"capital":false},{"name":"Lunino","country":"RU","lat":53.5918,"lng":45.2271,"pop":8214,"capital":false},{"name":"Sosnovskoye","country":"RU","lat":55.8062,"lng":43.1719,"pop":8207,"capital":false},{"name":"Karsun","country":"RU","lat":54.1977,"lng":46.9772,"pop":8128,"capital":false},{"name":"Rudnya","country":"RU","lat":50.806,"lng":44.5563,"pop":8062,"capital":false},{"name":"Sengiley","country":"RU","lat":53.9585,"lng":48.795,"pop":8018,"capital":false},{"name":"Vysokaya Gora","country":"RU","lat":55.9099,"lng":49.3134,"pop":8013,"capital":false},{"name":"Murygino","country":"RU","lat":58.7383,"lng":49.4582,"pop":7996,"capital":false},{"name":"Lezhnevo","country":"RU","lat":56.7751,"lng":40.8917,"pop":7977,"capital":false},{"name":"Tamala","country":"RU","lat":52.541,"lng":43.2515,"pop":7956,"capital":false},{"name":"Krasnoye-na-Volge","country":"RU","lat":57.5148,"lng":41.239,"pop":7953,"capital":false},{"name":"Mayna","country":"RU","lat":54.116,"lng":47.6205,"pop":7904,"capital":false},{"name":"Vyyezdnoye","country":"RU","lat":55.3815,"lng":43.7864,"pop":7857,"capital":false},{"name":"Osinovo","country":"RU","lat":55.8809,"lng":48.881,"pop":7827,"capital":false},{"name":"Stavrovo","country":"RU","lat":56.1331,"lng":40.0129,"pop":7822,"capital":false},{"name":"Muchkapskiy","country":"RU","lat":51.8509,"lng":42.4765,"pop":7814,"capital":false},{"name":"Orichi","country":"RU","lat":58.4014,"lng":49.0598,"pop":7805,"capital":false},{"name":"Yavas","country":"RU","lat":54.4159,"lng":42.8491,"pop":7783,"capital":false},{"name":"Romanovka","country":"RU","lat":51.7431,"lng":42.7526,"pop":7746,"capital":false},{"name":"Laishevo","country":"RU","lat":55.4056,"lng":49.5521,"pop":7744,"capital":false},{"name":"Krasnyy Yar","country":"RU","lat":50.6965,"lng":44.7279,"pop":7727,"capital":false},{"name":"Sursk","country":"RU","lat":53.0754,"lng":45.6846,"pop":7623,"capital":false},{"name":"Makar’yev","country":"RU","lat":57.885,"lng":43.8064,"pop":7600,"capital":false},{"name":"Novyye Lapsary","country":"RU","lat":56.0685,"lng":47.2142,"pop":7582,"capital":false},{"name":"Lysyye Gory","country":"RU","lat":51.5508,"lng":44.8398,"pop":7501,"capital":false},{"name":"Gidrotorf","country":"RU","lat":56.4756,"lng":43.5381,"pop":7424,"capital":false},{"name":"Tatishchevo","country":"RU","lat":51.6728,"lng":45.5924,"pop":7377,"capital":false},{"name":"Lesnoy","country":"RU","lat":54.2125,"lng":40.4713,"pop":7335,"capital":false},{"name":"Surskoye","country":"RU","lat":54.4804,"lng":46.7211,"pop":7324,"capital":false},{"name":"Krasnye Baki","country":"RU","lat":57.131,"lng":45.1599,"pop":7312,"capital":false},{"name":"Pestretsy","country":"RU","lat":55.7541,"lng":49.6511,"pop":7311,"capital":false},{"name":"Grabovo","country":"RU","lat":53.3875,"lng":45.064,"pop":7303,"capital":false},{"name":"Sosnovoborsk","country":"RU","lat":53.2907,"lng":46.2485,"pop":7299,"capital":false},{"name":"Ilyinogorsk","country":"RU","lat":56.2278,"lng":42.9539,"pop":7267,"capital":false},{"name":"Kurlovo","country":"RU","lat":55.4325,"lng":40.4854,"pop":7263,"capital":false},{"name":"Darovskoy","country":"RU","lat":58.7699,"lng":47.9579,"pop":7261,"capital":false},{"name":"Murashi","country":"RU","lat":59.3984,"lng":48.9637,"pop":7190,"capital":false},{"name":"Spassk","country":"RU","lat":53.9256,"lng":43.1839,"pop":7175,"capital":false},{"name":"Panino","country":"RU","lat":51.6543,"lng":40.1313,"pop":7164,"capital":false},{"name":"Mordovo","country":"RU","lat":52.0866,"lng":40.7726,"pop":7112,"capital":false},{"name":"Vokhtoga","country":"RU","lat":58.8095,"lng":41.0625,"pop":7107,"capital":false},{"name":"Veshkayma","country":"RU","lat":54.0502,"lng":47.122,"pop":7087,"capital":false},{"name":"Chaadayevka","country":"RU","lat":53.1427,"lng":45.9122,"pop":7072,"capital":false},{"name":"Krasnogorskiy","country":"RU","lat":56.1525,"lng":48.3258,"pop":7065,"capital":false},{"name":"Gornyy","country":"RU","lat":51.7575,"lng":48.5369,"pop":7045,"capital":false},{"name":"Novokhopërsk","country":"RU","lat":51.0969,"lng":41.6252,"pop":7000,"capital":false},{"name":"Bol’shoye Murashkino","country":"RU","lat":55.7826,"lng":44.7754,"pop":7000,"capital":false},{"name":"Kovernino","country":"RU","lat":57.128,"lng":43.8146,"pop":6988,"capital":false},{"name":"Sennoy","country":"RU","lat":52.1509,"lng":46.9631,"pop":6979,"capital":false},{"name":"Gavrilov Posad","country":"RU","lat":56.5589,"lng":40.1204,"pop":6948,"capital":false},{"name":"Staraya Mayna","country":"RU","lat":54.606,"lng":48.9249,"pop":6927,"capital":false},{"name":"Knyaginino","country":"RU","lat":55.8221,"lng":45.0348,"pop":6923,"capital":false},{"name":"Melekhovo","country":"RU","lat":56.2773,"lng":41.2935,"pop":6922,"capital":false},{"name":"Staroyur’yevo","country":"RU","lat":53.3195,"lng":40.7023,"pop":6900,"capital":false},{"name":"Soligalich","country":"RU","lat":59.0784,"lng":42.2871,"pop":6886,"capital":false},{"name":"Pil’na","country":"RU","lat":55.554,"lng":45.9181,"pop":6835,"capital":false},{"name":"Turki","country":"RU","lat":51.9869,"lng":43.2748,"pop":6821,"capital":false},{"name":"Bekovo","country":"RU","lat":52.4663,"lng":43.712,"pop":6800,"capital":false},{"name":"Tumbotino","country":"RU","lat":55.9993,"lng":43.0236,"pop":6791,"capital":false},{"name":"Orshanka","country":"RU","lat":56.9173,"lng":47.8964,"pop":6750,"capital":false},{"name":"Mokrous","country":"RU","lat":51.2376,"lng":47.514,"pop":6738,"capital":false},{"name":"Bol’shoye Kozino","country":"RU","lat":56.404,"lng":43.7142,"pop":6723,"capital":false},{"name":"Reshetikha","country":"RU","lat":56.2157,"lng":43.288,"pop":6710,"capital":false},{"name":"Sharanga","country":"RU","lat":57.177,"lng":46.538,"pop":6709,"capital":false},{"name":"Vad","country":"RU","lat":55.5302,"lng":44.2067,"pop":6698,"capital":false},{"name":"Dmitriyevka","country":"RU","lat":52.8812,"lng":40.7901,"pop":6695,"capital":false},{"name":"Shikhany","country":"RU","lat":52.1161,"lng":47.199,"pop":6688,"capital":false},{"name":"Pestravka","country":"RU","lat":52.4033,"lng":49.9584,"pop":6623,"capital":false},{"name":"Kichmengskiy Gorodok","country":"RU","lat":59.9816,"lng":45.7854,"pop":6623,"capital":false},{"name":"Shemysheyka","country":"RU","lat":52.892,"lng":45.3928,"pop":6619,"capital":false},{"name":"Vacha","country":"RU","lat":55.8003,"lng":42.7746,"pop":6618,"capital":false},{"name":"Paran’ga","country":"RU","lat":56.7037,"lng":49.4037,"pop":6600,"capital":false},{"name":"Staroye Arakchino","country":"RU","lat":55.8041,"lng":48.9709,"pop":6587,"capital":false},{"name":"Semenovka","country":"RU","lat":56.6472,"lng":47.9797,"pop":6495,"capital":false},{"name":"Sokol’skoye","country":"RU","lat":57.1395,"lng":43.1626,"pop":6474,"capital":false},{"name":"Novyye Burasy","country":"RU","lat":52.1298,"lng":46.0763,"pop":6469,"capital":false},{"name":"Tokaryovka","country":"RU","lat":52.0001,"lng":41.1497,"pop":6468,"capital":false},{"name":"Novaya Mayna","country":"RU","lat":54.15,"lng":49.75,"pop":6448,"capital":false},{"name":"Sarayi","country":"RU","lat":53.7295,"lng":41.0022,"pop":6439,"capital":false},{"name":"Yekaterinovka","country":"RU","lat":52.0492,"lng":44.3462,"pop":6435,"capital":false},{"name":"Tuma","country":"RU","lat":55.148,"lng":40.5537,"pop":6432,"capital":false},{"name":"Poretskoye","country":"RU","lat":55.1974,"lng":46.3291,"pop":6420,"capital":false},{"name":"Nikolayevka","country":"RU","lat":53.1309,"lng":47.2115,"pop":6419,"capital":false},{"name":"Diveyevo","country":"RU","lat":55.0407,"lng":43.2476,"pop":6390,"capital":false},{"name":"Buturlino","country":"RU","lat":55.5669,"lng":44.895,"pop":6388,"capital":false},{"name":"Mullovka","country":"RU","lat":54.2,"lng":49.4,"pop":6383,"capital":false},{"name":"Nekrasovskoye","country":"RU","lat":57.6796,"lng":40.365,"pop":6353,"capital":false},{"name":"Urmary","country":"RU","lat":55.6789,"lng":47.944,"pop":6256,"capital":false},{"name":"Voznesenskoye","country":"RU","lat":54.8898,"lng":42.757,"pop":6252,"capital":false},{"name":"Nikologory","country":"RU","lat":56.1413,"lng":41.9922,"pop":6244,"capital":false},{"name":"Yalga","country":"RU","lat":54.1257,"lng":45.1296,"pop":6204,"capital":false},{"name":"Sokolovyy","country":"RU","lat":51.5686,"lng":45.8331,"pop":6183,"capital":false},{"name":"Vorotynets","country":"RU","lat":56.061,"lng":45.8652,"pop":6151,"capital":false},{"name":"Savino","country":"RU","lat":56.593,"lng":41.2131,"pop":6133,"capital":false},{"name":"Ivanteyevka","country":"RU","lat":52.2676,"lng":49.1051,"pop":6127,"capital":false},{"name":"Lyubim","country":"RU","lat":58.3618,"lng":40.687,"pop":6057,"capital":false},{"name":"Bazarnyy Syzgan","country":"RU","lat":53.7497,"lng":46.7586,"pop":6039,"capital":false},{"name":"Voskresenskoye","country":"RU","lat":56.8382,"lng":45.4322,"pop":6028,"capital":false},{"name":"Kadom","country":"RU","lat":54.5591,"lng":42.4676,"pop":6027,"capital":false},{"name":"Staraya Kulatka","country":"RU","lat":52.7293,"lng":47.6215,"pop":6022,"capital":false},{"name":"Talitsy","country":"RU","lat":56.528,"lng":42.3323,"pop":6003,"capital":false},{"name":"Sukhobezvodnoye","country":"RU","lat":57.0491,"lng":44.8891,"pop":5970,"capital":false},{"name":"Danilovka","country":"RU","lat":50.3579,"lng":44.1149,"pop":5956,"capital":false},{"name":"Pavlovka","country":"RU","lat":52.6901,"lng":47.1413,"pop":5944,"capital":false},{"name":"Dukhovnitskoye","country":"RU","lat":52.4793,"lng":48.2089,"pop":5943,"capital":false},{"name":"Spas-Klepiki","country":"RU","lat":55.1376,"lng":40.18,"pop":5942,"capital":false},{"name":"Atyashevo","country":"RU","lat":54.5644,"lng":46.0691,"pop":5935,"capital":false},{"name":"Mari-Turek","country":"RU","lat":56.7901,"lng":49.6224,"pop":5900,"capital":false},{"name":"Pavlovka","country":"RU","lat":53.5957,"lng":46.7663,"pop":5878,"capital":false},{"name":"Kuzhener","country":"RU","lat":56.8112,"lng":48.9152,"pop":5797,"capital":false},{"name":"Rzhaksa","country":"RU","lat":52.1392,"lng":42.0276,"pop":5692,"capital":false},{"name":"Shatsk","country":"RU","lat":54.0237,"lng":41.717,"pop":5686,"capital":false},{"name":"Obsharovka","country":"RU","lat":53.125,"lng":48.8531,"pop":5668,"capital":false},{"name":"Batyrevo","country":"RU","lat":55.0675,"lng":47.6111,"pop":5648,"capital":false},{"name":"Zavoronezhskoye","country":"RU","lat":52.8801,"lng":40.5526,"pop":5645,"capital":false},{"name":"Novyy Toryal","country":"RU","lat":57.0039,"lng":48.7342,"pop":5629,"capital":false},{"name":"Palekh","country":"RU","lat":56.801,"lng":41.8573,"pop":5616,"capital":false},{"name":"Novovyazniki","country":"RU","lat":56.1975,"lng":42.1711,"pop":5611,"capital":false},{"name":"Staraya Vichuga","country":"RU","lat":57.2683,"lng":41.8787,"pop":5599,"capital":false},{"name":"Ukholovo","country":"RU","lat":53.7921,"lng":40.4866,"pop":5558,"capital":false},{"name":"Sanchursk","country":"RU","lat":56.9412,"lng":47.2495,"pop":5544,"capital":false},{"name":"Issa","country":"RU","lat":53.8705,"lng":44.8578,"pop":5532,"capital":false},{"name":"Linda","country":"RU","lat":56.6157,"lng":44.0954,"pop":5489,"capital":false},{"name":"Khrenovoye","country":"RU","lat":51.1183,"lng":40.2904,"pop":5476,"capital":false},{"name":"Preobrazhenskaya","country":"RU","lat":50.7407,"lng":43.0526,"pop":5475,"capital":false},{"name":"Mstera","country":"RU","lat":56.3789,"lng":41.92,"pop":5470,"capital":false},{"name":"Piterka","country":"RU","lat":50.6787,"lng":47.4436,"pop":5437,"capital":false},{"name":"Chukhloma","country":"RU","lat":58.753,"lng":42.6863,"pop":5430,"capital":false},{"name":"Tonkino","country":"RU","lat":57.3714,"lng":46.4582,"pop":5406,"capital":false},{"name":"Vetluzhskiy","country":"RU","lat":57.1736,"lng":45.1227,"pop":5340,"capital":false},{"name":"Bazarnyye Mataki","country":"RU","lat":54.9069,"lng":49.9342,"pop":5339,"capital":false},{"name":"Linëvo","country":"RU","lat":50.8885,"lng":44.8308,"pop":5335,"capital":false},{"name":"Leninskoye","country":"RU","lat":58.3155,"lng":47.0884,"pop":5323,"capital":false},{"name":"Kadnikov","country":"RU","lat":59.5022,"lng":40.338,"pop":5312,"capital":false},{"name":"Russkiy Kameshkir","country":"RU","lat":52.8596,"lng":46.0886,"pop":5305,"capital":false},{"name":"Yelan’-Koleno","country":"RU","lat":51.1523,"lng":41.2306,"pop":5270,"capital":false},{"name":"Shigony","country":"RU","lat":53.3862,"lng":48.6741,"pop":5268,"capital":false},{"name":"Kiknur","country":"RU","lat":57.3041,"lng":47.2004,"pop":5246,"capital":false},{"name":"Sudislavl’","country":"RU","lat":57.882,"lng":41.7075,"pop":5236,"capital":false},{"name":"Rovnoye","country":"RU","lat":50.7758,"lng":46.0495,"pop":5228,"capital":false},{"name":"Makhalino","country":"RU","lat":53.0854,"lng":46.2211,"pop":5210,"capital":false},{"name":"Andreyevo","country":"RU","lat":55.9465,"lng":41.1505,"pop":5204,"capital":false},{"name":"Turgenevo","country":"RU","lat":54.8456,"lng":46.3297,"pop":5168,"capital":false},{"name":"Sechenovo","country":"RU","lat":55.2245,"lng":45.8886,"pop":5151,"capital":false},{"name":"Teren’ga","country":"RU","lat":53.7161,"lng":48.3692,"pop":5144,"capital":false},{"name":"Ostrovskoye","country":"RU","lat":57.8055,"lng":42.2433,"pop":5138,"capital":false},{"name":"Gremyachevo","country":"RU","lat":55.3919,"lng":43.0273,"pop":5131,"capital":false},{"name":"Novosmolinskiy","country":"RU","lat":56.2841,"lng":43.0507,"pop":5128,"capital":false},{"name":"Doschatoye","country":"RU","lat":55.3886,"lng":42.1032,"pop":5125,"capital":false},{"name":"Neverkino","country":"RU","lat":52.7854,"lng":46.7417,"pop":5105,"capital":false},{"name":"Chistyye Bory","country":"RU","lat":58.369,"lng":41.65,"pop":5103,"capital":false},{"name":"Bol’shoye Boldino","country":"RU","lat":55.0056,"lng":45.3129,"pop":5100,"capital":false},{"name":"Kumëny","country":"RU","lat":58.108,"lng":49.9133,"pop":5090,"capital":false},{"name":"Nikolayevka","country":"RU","lat":54.1451,"lng":45.1444,"pop":5081,"capital":false},{"name":"Vorontsovka","country":"RU","lat":50.6132,"lng":40.3549,"pop":5067,"capital":false},{"name":"Pervomayskiy","country":"RU","lat":59.0639,"lng":49.2883,"pop":5054,"capital":false},{"name":"Pokrovo-Prigorodnoye","country":"RU","lat":52.683,"lng":41.4235,"pop":5012,"capital":false},{"name":"Sadovoye","country":"RU","lat":51.5306,"lng":40.5016,"pop":5011,"capital":false},{"name":"Tuzha","country":"RU","lat":57.6064,"lng":47.9353,"pop":5002,"capital":false},{"name":"Chemodanovka","country":"RU","lat":53.2316,"lng":45.2474,"pop":5002,"capital":false}]