[{"name":"Naxçıvan","country":"AZ","lat":39.2089,"lng":45.4122,"pop":97200,"capital":false},{"name":"Zaxo","country":"IQ","lat":37.1487,"lng":42.6859,"pop":95052,"capital":false},{"name":"Al-Qāsim","country":"IQ","lat":32.298,"lng":44.6828,"pop":93546,"capital":false},{"name":"Al Hārithah","country":"IQ","lat":30.5848,"lng":47.7611,"pop":92395,"capital":false},{"name":"Erciş","country":"TR","lat":39.0259,"lng":43.3596,"pop":91915,"capital":false},{"name":"Soran","country":"IQ","lat":36.6556,"lng":44.5422,"pop":91589,"capital":false},{"name":"Eslāmābād-e Gharb","country":"IR","lat":34.1089,"lng":46.5299,"pop":90559,"capital":false},{"name":"Lankaran","country":"AZ","lat":38.7543,"lng":48.8506,"pop":89300,"capital":false},{"name":"Alīgūdarz","country":"IR","lat":33.404,"lng":49.6918,"pop":89268,"capital":false},{"name":"Kūhdasht","country":"IR","lat":33.5334,"lng":47.61,"pop":89091,"capital":false},{"name":"Nusaybin","country":"TR","lat":37.0703,"lng":41.2147,"pop":88977,"capital":false},{"name":"Qorveh","country":"IR","lat":35.1664,"lng":47.8056,"pop":87953,"capital":false},{"name":"Patnos","country":"TR","lat":39.2249,"lng":42.8569,"pop":87451,"capital":false},{"name":"Lerik","country":"AZ","lat":38.7739,"lng":48.415,"pop":87000,"capital":false},{"name":"Muş","country":"TR","lat":38.7316,"lng":41.4848,"pop":82536,"capital":false},{"name":"Sahand","country":"IR","lat":37.951,"lng":46.1103,"pop":82494,"capital":false},{"name":"Salmās","country":"IR","lat":38.1973,"lng":44.7653,"pop":81606,"capital":false},{"name":"Naqadeh","country":"IR","lat":36.9553,"lng":45.388,"pop":81598,"capital":false},{"name":"Bonāb","country":"IR","lat":37.3404,"lng":46.0561,"pop":80359,"capital":false},{"name":"Hajiawa","country":"IQ","lat":36.2358,"lng":44.7947,"pop":80000,"capital":false},{"name":"Bandar-e Emam Khomeyni","country":"IR","lat":30.437,"lng":49.1029,"pop":78353,"capital":false},{"name":"Al Ḩayy","country":"IQ","lat":32.1742,"lng":46.0435,"pop":78272,"capital":false},{"name":"Hakkâri","country":"TR","lat":37.5744,"lng":43.7408,"pop":77699,"capital":false},{"name":"Aş Şuwayrah","country":"IQ","lat":32.9256,"lng":44.7758,"pop":77200,"capital":false},{"name":"Shūsh","country":"IR","lat":32.1942,"lng":48.2436,"pop":77148,"capital":false},{"name":"Midyat","country":"TR","lat":37.4191,"lng":41.3391,"pop":76268,"capital":false},{"name":"Nahāvand","country":"IR","lat":34.1909,"lng":48.3745,"pop":76250,"capital":false},{"name":"Bismil","country":"TR","lat":37.8451,"lng":40.6593,"pop":74493,"capital":false},{"name":"Rāmhormoz","country":"IR","lat":31.28,"lng":49.6035,"pop":74285,"capital":false},{"name":"Meshgīn Shahr","country":"IR","lat":38.399,"lng":47.682,"pop":74109,"capital":false},{"name":"Al Qā’im","country":"IQ","lat":34.3925,"lng":40.9895,"pop":74100,"capital":false},{"name":"Tatvan","country":"TR","lat":38.4922,"lng":42.2827,"pop":73222,"capital":false},{"name":"Yüksekova","country":"TR","lat":37.5736,"lng":44.2872,"pop":71729,"capital":false},{"name":"Tākestān","country":"IR","lat":36.0706,"lng":49.6957,"pop":71499,"capital":false},{"name":"Şirvan","country":"AZ","lat":39.9378,"lng":48.929,"pop":70220,"capital":false},{"name":"Doğubayazıt","country":"TR","lat":39.5469,"lng":44.0842,"pop":70171,"capital":false},{"name":"Khāliş","country":"IQ","lat":33.8081,"lng":44.5334,"pop":70046,"capital":false},{"name":"Abhar","country":"IR","lat":36.1468,"lng":49.218,"pop":69889,"capital":false},{"name":"Şırnak","country":"TR","lat":37.5139,"lng":42.4543,"pop":67662,"capital":false},{"name":"Omīdīyeh","country":"IR","lat":30.7628,"lng":49.7023,"pop":67427,"capital":false},{"name":"Silvan","country":"TR","lat":38.1371,"lng":41.0082,"pop":65956,"capital":false},{"name":"Nūrābād","country":"IR","lat":34.0734,"lng":47.9725,"pop":65547,"capital":false},{"name":"Ahlat","country":"TR","lat":38.7489,"lng":42.4801,"pop":64695,"capital":false},{"name":"Ash Shāmīyah","country":"IQ","lat":31.9626,"lng":44.6008,"pop":57661,"capital":false},{"name":"Harsīn","country":"IR","lat":34.2721,"lng":47.5861,"pop":57647,"capital":false},{"name":"Ālbū Kamāl","country":"SY","lat":34.4523,"lng":40.9185,"pop":57572,"capital":false},{"name":"Halabja","country":"IQ","lat":35.1778,"lng":45.9861,"pop":57333,"capital":false},{"name":"Kāmyārān","country":"IR","lat":34.7954,"lng":46.9368,"pop":57077,"capital":false},{"name":"Kūt-e ‘Abdollāh","country":"IR","lat":31.2392,"lng":48.6564,"pop":56252,"capital":false},{"name":"Asadābād","country":"IR","lat":34.7824,"lng":48.1201,"pop":55703,"capital":false},{"name":"Eqbālīyeh","country":"IR","lat":36.2308,"lng":49.925,"pop":55066,"capital":false},{"name":"Al Mayādīn","country":"SY","lat":35.0198,"lng":40.4515,"pop":54534,"capital":false},{"name":"Javānrūd","country":"IR","lat":34.8067,"lng":46.4913,"pop":54354,"capital":false},{"name":"Bitlis","country":"TR","lat":38.4012,"lng":42.1078,"pop":53023,"capital":false},{"name":"Adilcevaz","country":"TR","lat":38.7991,"lng":42.7316,"pop":52781,"capital":false},{"name":"Takāb","country":"IR","lat":36.4009,"lng":47.1133,"pop":51541,"capital":false},{"name":"Sūsangerd","country":"IR","lat":31.5635,"lng":48.1896,"pop":51431,"capital":false},{"name":"Kangāvar","country":"IR","lat":34.5043,"lng":47.9653,"pop":51352,"capital":false},{"name":"Khalkhāl","country":"IR","lat":37.6184,"lng":48.5293,"pop":51024,"capital":false},{"name":"Oshnavīyeh","country":"IR","lat":37.0397,"lng":45.0983,"pop":50661,"capital":false},{"name":"Khorramdarreh","country":"IR","lat":36.2078,"lng":49.1953,"pop":50528,"capital":false},{"name":"Tūyserkān","country":"IR","lat":34.551,"lng":48.4435,"pop":50455,"capital":false},{"name":"Bījār","country":"IR","lat":35.8668,"lng":47.6051,"pop":50014,"capital":false},{"name":"Al-Hamdaniya","country":"IQ","lat":36.2709,"lng":43.3776,"pop":50000,"capital":false},{"name":"Aznā","country":"IR","lat":33.4564,"lng":49.4565,"pop":47489,"capital":false},{"name":"Aznā","country":"IR","lat":33.6095,"lng":48.9307,"pop":47482,"capital":false},{"name":"Ar Rumaythah","country":"IQ","lat":31.5285,"lng":45.2038,"pop":47248,"capital":false},{"name":"Şowme‘eh Sarā","country":"IR","lat":37.3013,"lng":49.315,"pop":47083,"capital":false},{"name":"Maku","country":"IR","lat":39.2899,"lng":44.4604,"pop":46581,"capital":false},{"name":"Sardasht","country":"IR","lat":36.1552,"lng":45.4788,"pop":46412,"capital":false},{"name":"Dehlorān","country":"IR","lat":32.6941,"lng":47.2679,"pop":46002,"capital":false},{"name":"Sarpol-e Z̄ahāb","country":"IR","lat":34.4611,"lng":45.8626,"pop":45481,"capital":false},{"name":"Hashtpar","country":"IR","lat":37.7966,"lng":48.9052,"pop":45305,"capital":false},{"name":"Sarāb","country":"IR","lat":37.9408,"lng":47.5367,"pop":45031,"capital":false},{"name":"Koysinceq","country":"IQ","lat":36.0829,"lng":44.6287,"pop":44987,"capital":false},{"name":"Āstāneh-ye Ashrafīyeh","country":"IR","lat":37.2632,"lng":49.9433,"pop":44941,"capital":false},{"name":"Āz̄arshahr","country":"IR","lat":37.759,"lng":45.9783,"pop":44887,"capital":false},{"name":"Al ‘Azīzīyah","country":"IQ","lat":32.9094,"lng":45.0636,"pop":44751,"capital":false},{"name":"Sonqor","country":"IR","lat":34.7819,"lng":47.5995,"pop":44256,"capital":false},{"name":"Jamjamāl","country":"IQ","lat":35.5336,"lng":44.8343,"pop":42593,"capital":false},{"name":"Tikrīt","country":"IQ","lat":34.6158,"lng":43.6786,"pop":42477,"capital":false},{"name":"Poldasht","country":"IR","lat":39.348,"lng":45.071,"pop":42170,"capital":false},{"name":"Balad","country":"IQ","lat":34.0149,"lng":44.1457,"pop":42088,"capital":false},{"name":"Shādegān","country":"IR","lat":30.6492,"lng":48.665,"pop":41733,"capital":false},{"name":"Shāhīn Dezh","country":"IR","lat":36.6793,"lng":46.5669,"pop":41442,"capital":false},{"name":"Qal‘at Şāliḩ","country":"IQ","lat":31.528,"lng":47.2936,"pop":39698,"capital":false},{"name":"Āstārā","country":"IR","lat":38.4308,"lng":48.8699,"pop":39065,"capital":false},{"name":"Pīrmām","country":"IQ","lat":36.3852,"lng":44.197,"pop":38686,"capital":false},{"name":"Sinjār","country":"IQ","lat":36.3209,"lng":41.8766,"pop":38294,"capital":false},{"name":"Aghdam","country":"AZ","lat":39.991,"lng":46.9274,"pop":37700,"capital":false},{"name":"Salyan","country":"AZ","lat":39.5962,"lng":48.9848,"pop":36555,"capital":false},{"name":"Sheybān","country":"IR","lat":31.4079,"lng":48.7946,"pop":36374,"capital":false},{"name":"Jalilabad","country":"AZ","lat":39.2096,"lng":48.4919,"pop":36259,"capital":false},{"name":"Fūman","country":"IR","lat":37.224,"lng":49.3125,"pop":35841,"capital":false},{"name":"Saddat al Hindīyah","country":"IQ","lat":32.7156,"lng":44.2786,"pop":35720,"capital":false},{"name":"‘Afak","country":"IQ","lat":32.0643,"lng":45.2474,"pop":35536,"capital":false},{"name":"Şaḩneh","country":"IR","lat":34.4813,"lng":47.6908,"pop":35508,"capital":false},{"name":"Hınıs","country":"TR","lat":39.3577,"lng":41.6925,"pop":35472,"capital":false},{"name":"Qīdar","country":"IR","lat":36.1147,"lng":48.5911,"pop":34921,"capital":false},{"name":"Hādīshahr","country":"IR","lat":38.8479,"lng":45.6623,"pop":34346,"capital":false},{"name":"Imishli","country":"AZ","lat":39.871,"lng":48.06,"pop":34178,"capital":false},{"name":"Dīvāndarreh","country":"IR","lat":35.9139,"lng":47.0239,"pop":34007,"capital":false},{"name":"Chamrān","country":"IR","lat":30.7084,"lng":49.1627,"pop":33505,"capital":false},{"name":"Kapan","country":"AM","lat":39.2076,"lng":46.4068,"pop":32900,"capital":false},{"name":"Shaqlāwah","country":"IQ","lat":36.4042,"lng":44.3256,"pop":32599,"capital":false},{"name":"Ḩarir","country":"IQ","lat":36.5511,"lng":44.3526,"pop":32171,"capital":false},{"name":"Kurtalan","country":"TR","lat":37.9253,"lng":41.6849,"pop":32114,"capital":false},{"name":"Yeşilli","country":"TR","lat":37.3381,"lng":40.8174,"pop":32072,"capital":false},{"name":"Hīt","country":"IQ","lat":33.6366,"lng":42.8277,"pop":31901,"capital":false},{"name":"Ceylanpınar","country":"TR","lat":36.8472,"lng":40.05,"pop":31488,"capital":false},{"name":"Bulanık","country":"TR","lat":39.0866,"lng":42.2716,"pop":31430,"capital":false},{"name":"Eyvān","country":"IR","lat":33.8272,"lng":46.3097,"pop":31299,"capital":false},{"name":"Al Maḩāwīl","country":"IQ","lat":32.6614,"lng":44.4085,"pop":31200,"capital":false},{"name":"Ḩadīthah","country":"IQ","lat":34.1366,"lng":42.3773,"pop":30925,"capital":false},{"name":"Nahiyat Ghammas","country":"IQ","lat":31.7431,"lng":44.6196,"pop":30909,"capital":false},{"name":"Kifrī","country":"IQ","lat":34.6896,"lng":44.9606,"pop":30143,"capital":false},{"name":"Shūrash","country":"IQ","lat":35.5156,"lng":44.8427,"pop":29960,"capital":false},{"name":"Mandalī","country":"IQ","lat":33.7481,"lng":45.555,"pop":29785,"capital":false},{"name":"Sardrūd","country":"IR","lat":38.0261,"lng":46.1476,"pop":29739,"capital":false},{"name":"Karakoçan","country":"TR","lat":38.9518,"lng":40.0271,"pop":29735,"capital":false},{"name":"Karahrūd","country":"IR","lat":34.061,"lng":49.6446,"pop":29721,"capital":false},{"name":"Ajab Shīr","country":"IR","lat":37.4776,"lng":45.8943,"pop":29675,"capital":false},{"name":"Kozluk","country":"TR","lat":38.1912,"lng":41.4778,"pop":29502,"capital":false},{"name":"Hajīn","country":"SY","lat":34.6951,"lng":40.8314,"pop":29237,"capital":false},{"name":"Hendījān","country":"IR","lat":30.2363,"lng":49.7119,"pop":29015,"capital":false},{"name":"Germī","country":"IR","lat":39.0215,"lng":48.0801,"pop":28967,"capital":false},{"name":"Bahār","country":"IR","lat":34.9072,"lng":48.4414,"pop":28645,"capital":false},{"name":"Batifa","country":"IQ","lat":37.1745,"lng":43.0123,"pop":28000,"capital":false},{"name":"Aleshtar","country":"IR","lat":33.8642,"lng":48.2626,"pop":27701,"capital":false},{"name":"Malekān","country":"IR","lat":37.1426,"lng":46.1035,"pop":27431,"capital":false},{"name":"Baynjiwayn","country":"IQ","lat":35.6205,"lng":45.9491,"pop":27116,"capital":false},{"name":"‘Anah","country":"IQ","lat":34.3686,"lng":41.9819,"pop":27000,"capital":false},{"name":"‘Āmūdā","country":"SY","lat":37.1042,"lng":40.93,"pop":26821,"capital":false},{"name":"Qarah Ẕīā’ od Dīn","country":"IR","lat":38.8915,"lng":45.0255,"pop":26767,"capital":false},{"name":"Kulp","country":"TR","lat":38.4975,"lng":41.0067,"pop":26569,"capital":false},{"name":"Ad Dujayl","country":"IQ","lat":33.8467,"lng":44.2344,"pop":26362,"capital":false},{"name":"Poldokhtar","country":"IR","lat":33.1525,"lng":47.7101,"pop":26352,"capital":false},{"name":"Bāgh-e Malek","country":"IR","lat":31.524,"lng":49.8856,"pop":26343,"capital":false},{"name":"Al Mālikīyah","country":"SY","lat":37.177,"lng":42.1401,"pop":26311,"capital":false},{"name":"Malazgirt","country":"TR","lat":39.1465,"lng":42.5354,"pop":26108,"capital":false},{"name":"Güroymak","country":"TR","lat":38.5758,"lng":42.0156,"pop":25826,"capital":false},{"name":"Pāveh","country":"IR","lat":35.0434,"lng":46.3565,"pop":25771,"capital":false},{"name":"Al-'Alam","country":"IQ","lat":34.709,"lng":43.6951,"pop":25662,"capital":false},{"name":"Subaykhān","country":"SY","lat":34.8531,"lng":40.5999,"pop":25514,"capital":false},{"name":"Showţ","country":"IR","lat":39.2192,"lng":44.77,"pop":25381,"capital":false},{"name":"Fuzuli","country":"AZ","lat":39.6009,"lng":47.1453,"pop":25100,"capital":false},{"name":"Rāmshīr","country":"IR","lat":30.8932,"lng":49.4079,"pop":25009,"capital":false},{"name":"Darreh Shahr","country":"IR","lat":33.1445,"lng":47.3799,"pop":24961,"capital":false},{"name":"Pasinler","country":"TR","lat":39.9798,"lng":41.67,"pop":24553,"capital":false},{"name":"Ravānsar","country":"IR","lat":34.7153,"lng":46.6533,"pop":24527,"capital":false},{"name":"Gotvand","country":"IR","lat":32.2459,"lng":48.8132,"pop":24216,"capital":false},{"name":"Ābdānān","country":"IR","lat":32.9926,"lng":47.4198,"pop":23946,"capital":false},{"name":"Tallkayf","country":"IQ","lat":36.4912,"lng":43.1211,"pop":23524,"capital":false},{"name":"Al Mishkhāb","country":"IQ","lat":31.8044,"lng":44.4893,"pop":23189,"capital":false},{"name":"‘Aqrah","country":"IQ","lat":36.7604,"lng":43.8943,"pop":23000,"capital":false},{"name":"İdil","country":"TR","lat":37.3348,"lng":41.8894,"pop":22960,"capital":false},{"name":"Ṟuwandiz","country":"IQ","lat":36.6114,"lng":44.5219,"pop":22943,"capital":false},{"name":"Şafwān","country":"IQ","lat":30.1165,"lng":47.7164,"pop":22929,"capital":false},{"name":"Artashat","country":"AM","lat":39.9548,"lng":44.5487,"pop":22800,"capital":false},{"name":"Nāḩiyat ash Shināfīyah","country":"IQ","lat":31.5838,"lng":44.6468,"pop":22643,"capital":false},{"name":"Genç","country":"TR","lat":38.7477,"lng":40.5534,"pop":22493,"capital":false},{"name":"Ar Ruţbah","country":"IQ","lat":33.0372,"lng":40.2859,"pop":22370,"capital":false},{"name":"Shabestar","country":"IR","lat":38.1804,"lng":45.7028,"pop":22181,"capital":false},{"name":"Ḥamīdiyeh","country":"IR","lat":31.4829,"lng":48.4332,"pop":22057,"capital":false},{"name":"Maḩmūdābād Nemūneh","country":"IR","lat":36.2897,"lng":49.9014,"pop":21982,"capital":false},{"name":"Khosrowshahr","country":"IR","lat":37.9497,"lng":46.0528,"pop":21972,"capital":false},{"name":"Tāzah Khūrmātū","country":"IQ","lat":35.3024,"lng":44.3264,"pop":21788,"capital":false},{"name":"Aghajari","country":"IR","lat":30.7006,"lng":49.8315,"pop":21785,"capital":false},{"name":"Bostānābād","country":"IR","lat":37.8463,"lng":46.8354,"pop":21734,"capital":false},{"name":"Nāḩiyat al Fuhūd","country":"IQ","lat":30.9697,"lng":46.7228,"pop":21551,"capital":false},{"name":"Ad Darbāsīyah","country":"SY","lat":37.0728,"lng":40.652,"pop":21481,"capital":false},{"name":"Shāzand","country":"IR","lat":33.9313,"lng":49.4063,"pop":21181,"capital":false},{"name":"Khomām","country":"IR","lat":37.3902,"lng":49.6585,"pop":20897,"capital":false},{"name":"Dargeçit","country":"TR","lat":37.5462,"lng":41.7165,"pop":20793,"capital":false},{"name":"Hashtrūd","country":"IR","lat":37.4779,"lng":47.0508,"pop":20572,"capital":false},{"name":"Karaçoban","country":"TR","lat":39.3436,"lng":42.0992,"pop":20467,"capital":false},{"name":"Mahājerān","country":"IR","lat":34.0504,"lng":49.435,"pop":20346,"capital":false},{"name":"Saatlı","country":"AZ","lat":39.9321,"lng":48.3689,"pop":20300,"capital":false},{"name":"Sīāhkal","country":"IR","lat":37.1533,"lng":49.8714,"pop":19924,"capital":false},{"name":"Khalīfān","country":"IQ","lat":36.6087,"lng":44.4048,"pop":19891,"capital":false},{"name":"‘Anat al Qadīmah","country":"IQ","lat":34.4693,"lng":41.9422,"pop":19719,"capital":false},{"name":"‘Alī al Gharbī","country":"IQ","lat":32.4619,"lng":46.6879,"pop":19711,"capital":false},{"name":"Reẕvānshahr","country":"IR","lat":37.5495,"lng":49.1374,"pop":19519,"capital":false},{"name":"Hoveyzeh","country":"IR","lat":31.4619,"lng":48.074,"pop":19481,"capital":false},{"name":"Shusha","country":"AZ","lat":39.7601,"lng":46.7499,"pop":19400,"capital":false},{"name":"Kabūdarāhang","country":"IR","lat":35.2092,"lng":48.7234,"pop":19216,"capital":false},{"name":"Şemdinli","country":"TR","lat":37.3051,"lng":44.5742,"pop":18978,"capital":false},{"name":"Varto","country":"TR","lat":39.1738,"lng":41.454,"pop":18691,"capital":false},{"name":"Neftçala","country":"AZ","lat":39.3768,"lng":49.247,"pop":18661,"capital":false},{"name":"Qaşr-e Shīrīn","country":"IR","lat":34.5156,"lng":45.5791,"pop":18473,"capital":false},{"name":"Lālī","country":"IR","lat":32.3298,"lng":49.0932,"pop":18473,"capital":false},{"name":"Oskū","country":"IR","lat":37.915,"lng":46.1226,"pop":18459,"capital":false},{"name":"Pushkino","country":"AZ","lat":39.4583,"lng":48.545,"pop":18182,"capital":false},{"name":"Diyadin","country":"TR","lat":39.5406,"lng":43.6713,"pop":18172,"capital":false},{"name":"Māsāl","country":"IR","lat":37.3631,"lng":49.1329,"pop":17901,"capital":false},{"name":"Seyah Cheshmeh","country":"IR","lat":39.0651,"lng":44.3842,"pop":17804,"capital":false},{"name":"‘Eyn-e Do","country":"IR","lat":31.3456,"lng":48.6006,"pop":17653,"capital":false},{"name":"Ararat","country":"AM","lat":39.8549,"lng":44.6947,"pop":17598,"capital":false},{"name":"Goris","country":"AM","lat":39.5111,"lng":46.3417,"pop":17592,"capital":false},{"name":"Pādegān-e Manjīl","country":"IR","lat":36.7415,"lng":49.4161,"pop":17396,"capital":false},{"name":"Əhmədbəyli","country":"AZ","lat":39.8807,"lng":48.3916,"pop":17242,"capital":false},{"name":"Nehram","country":"AZ","lat":39.116,"lng":45.4617,"pop":17200,"capital":false},{"name":"Īlkhchī","country":"IR","lat":37.9373,"lng":45.979,"pop":16574,"capital":false},{"name":"Lice","country":"TR","lat":38.4582,"lng":40.6389,"pop":16336,"capital":false},{"name":"Haftkel","country":"IR","lat":31.4469,"lng":49.5295,"pop":15802,"capital":false},{"name":"Manjīl","country":"IR","lat":36.7445,"lng":49.4008,"pop":15630,"capital":false},{"name":"Beylagan","country":"AZ","lat":39.7756,"lng":47.6186,"pop":15599,"capital":false},{"name":"Çat","country":"TR","lat":39.6064,"lng":40.9684,"pop":15556,"capital":false},{"name":"Aşkale","country":"TR","lat":39.9208,"lng":40.695,"pop":15462,"capital":false},{"name":"Veys","country":"IR","lat":31.486,"lng":48.8752,"pop":15312,"capital":false},{"name":"Solhan","country":"TR","lat":38.9653,"lng":41.0544,"pop":15303,"capital":false},{"name":"Hizan","country":"TR","lat":38.225,"lng":42.4183,"pop":15302,"capital":false},{"name":"Shāl","country":"IR","lat":35.8981,"lng":49.7691,"pop":15290,"capital":false},{"name":"Astara","country":"AZ","lat":38.456,"lng":48.875,"pop":15190,"capital":false},{"name":"Begova","country":"IQ","lat":37.2375,"lng":43.1628,"pop":15000,"capital":false},{"name":"Barţalah","country":"IQ","lat":36.3537,"lng":43.3813,"pop":15000,"capital":false},{"name":"AlZwya","country":"IQ","lat":35.2608,"lng":43.4067,"pop":15000,"capital":false},{"name":"Lālejīn","country":"IR","lat":34.9746,"lng":48.4758,"pop":14916,"capital":false},{"name":"Başkale","country":"TR","lat":38.0453,"lng":44.0172,"pop":14516,"capital":false},{"name":"Razan","country":"IR","lat":35.3862,"lng":49.0334,"pop":14275,"capital":false},{"name":"Fāmenīn","country":"IR","lat":35.1159,"lng":48.9734,"pop":14208,"capital":false},{"name":"Kīāshahr","country":"IR","lat":37.4205,"lng":49.9469,"pop":14022,"capital":false},{"name":"Bīleh Savār","country":"IR","lat":39.3796,"lng":48.3546,"pop":14000,"capital":false},{"name":"Hīdaj","country":"IR","lat":36.2563,"lng":49.1326,"pop":13840,"capital":false},{"name":"Rostamābād","country":"IR","lat":36.9022,"lng":49.4975,"pop":13746,"capital":false},{"name":"Julfa","country":"AZ","lat":38.954,"lng":45.6296,"pop":13700,"capital":false},{"name":"Namīn","country":"IR","lat":38.4269,"lng":48.4839,"pop":13659,"capital":false},{"name":"Geytepe","country":"AZ","lat":39.12,"lng":48.5938,"pop":13340,"capital":false},{"name":"Sisian","country":"AM","lat":39.5219,"lng":46.027,"pop":13176,"capital":false},{"name":"Mazıdağı","country":"TR","lat":37.478,"lng":40.4815,"pop":13138,"capital":false},{"name":"Lowshān","country":"IR","lat":36.6298,"lng":49.5128,"pop":13032,"capital":false},{"name":"Dicle","country":"TR","lat":38.3657,"lng":40.0645,"pop":13017,"capital":false},{"name":"Rāwah","country":"IQ","lat":34.4823,"lng":41.919,"pop":13000,"capital":false},{"name":"Çey","country":"TR","lat":37.2621,"lng":44.0409,"pop":13000,"capital":false},{"name":"Mehrabān","country":"IR","lat":38.0813,"lng":47.1317,"pop":12937,"capital":false},{"name":"Ilıca","country":"TR","lat":39.9465,"lng":41.0952,"pop":12922,"capital":false},{"name":"Bāsmenj","country":"IR","lat":37.9958,"lng":46.4748,"pop":12692,"capital":false},{"name":"Sangar","country":"IR","lat":37.1794,"lng":49.6938,"pop":12583,"capital":false},{"name":"Sarābleh","country":"IR","lat":33.7677,"lng":46.5658,"pop":12393,"capital":false},{"name":"Asfarvarīn","country":"IR","lat":35.9345,"lng":49.7491,"pop":12371,"capital":false},{"name":"Koshksarāy","country":"IR","lat":38.4584,"lng":45.5671,"pop":12250,"capital":false},{"name":"Senjān","country":"IR","lat":34.0529,"lng":49.6214,"pop":12249,"capital":false},{"name":"Tercan","country":"TR","lat":39.7771,"lng":40.3778,"pop":12235,"capital":false},{"name":"Bāgh-e Ma‘rūf","country":"IR","lat":38.0427,"lng":46.1069,"pop":12068,"capital":false},{"name":"Vedi","country":"AM","lat":39.9129,"lng":44.7208,"pop":12060,"capital":false},{"name":"Arkavaz","country":"IR","lat":33.3828,"lng":46.5983,"pop":11977,"capital":false},{"name":"Mamqān","country":"IR","lat":37.843,"lng":45.9757,"pop":11892,"capital":false},{"name":"Gevaş","country":"TR","lat":38.2921,"lng":43.1019,"pop":11879,"capital":false},{"name":"Mehrān","country":"IR","lat":33.1222,"lng":46.1646,"pop":11831,"capital":false},{"name":"Darvīsheh","country":"IR","lat":31.2439,"lng":48.666,"pop":11820,"capital":false},{"name":"Sharāfat","country":"IR","lat":32.0877,"lng":48.7684,"pop":11757,"capital":false},{"name":"Gūgān","country":"IR","lat":37.7831,"lng":45.904,"pop":11742,"capital":false},{"name":"Sason","country":"TR","lat":38.3277,"lng":41.4138,"pop":11403,"capital":false},{"name":"Shahr-e Emām","country":"IR","lat":32.2277,"lng":48.426,"pop":11393,"capital":false},{"name":"Baykan","country":"TR","lat":38.1575,"lng":41.7733,"pop":11346,"capital":false},{"name":"Lavandevīl","country":"IR","lat":38.3095,"lng":48.8724,"pop":11235,"capital":false},{"name":"Hani","country":"TR","lat":38.4074,"lng":40.3858,"pop":11055,"capital":false},{"name":"Shamsābād","country":"IR","lat":32.2984,"lng":48.4291,"pop":10858,"capital":false},{"name":"Maryānaj","country":"IR","lat":34.831,"lng":48.4593,"pop":10848,"capital":false},{"name":"Ordubad","country":"AZ","lat":38.9096,"lng":46.0227,"pop":10800,"capital":false},{"name":"Asālem","country":"IR","lat":37.7331,"lng":48.9533,"pop":10720,"capital":false},{"name":"Jahri","country":"AZ","lat":39.3484,"lng":45.4156,"pop":10700,"capital":false},{"name":"Lasht-e Neshā","country":"IR","lat":37.3612,"lng":49.8611,"pop":10539,"capital":false},{"name":"Herīs","country":"IR","lat":38.2482,"lng":47.1168,"pop":10515,"capital":false},{"name":"Khalīlābād","country":"IR","lat":36.8091,"lng":49.4149,"pop":10504,"capital":false},{"name":"Yāmchī","country":"IR","lat":38.5234,"lng":45.6377,"pop":10392,"capital":false},{"name":"Nūkān","country":"IR","lat":34.3609,"lng":47.1715,"pop":10377,"capital":false},{"name":"Mīānrūd","country":"IR","lat":32.1537,"lng":48.4403,"pop":10110,"capital":false},{"name":"Kūcheşfahān","country":"IR","lat":37.2782,"lng":49.7717,"pop":10026,"capital":false},{"name":"Kays Qal‘ah","country":"IQ","lat":36.6301,"lng":43.3038,"pop":10000,"capital":false},{"name":"Bāzargān","country":"IR","lat":39.3915,"lng":44.3875,"pop":9979,"capital":false},{"name":"Şūfīān","country":"IR","lat":38.2775,"lng":45.9806,"pop":9963,"capital":false},{"name":"Şafīābād","country":"IR","lat":32.263,"lng":48.4187,"pop":9879,"capital":false},{"name":"Eleşkirt","country":"TR","lat":39.798,"lng":42.6757,"pop":9788,"capital":false},{"name":"Masally","country":"AZ","lat":39.0353,"lng":48.6654,"pop":9604,"capital":false},{"name":"Jabrayil","country":"AZ","lat":39.3992,"lng":47.0284,"pop":9600,"capital":false},{"name":"Qorveh-ye Dargazīn","country":"IR","lat":35.3095,"lng":49.1002,"pop":9540,"capital":false},{"name":"Beşiri","country":"TR","lat":37.9157,"lng":41.2865,"pop":9513,"capital":false},{"name":"Dānesfahān","country":"IR","lat":35.8115,"lng":49.7432,"pop":9434,"capital":false},{"name":"Chahār Borj","country":"IR","lat":37.1254,"lng":45.9782,"pop":9406,"capital":false},{"name":"Moḩammad Yār","country":"IR","lat":36.9861,"lng":45.5169,"pop":9313,"capital":false},{"name":"Mīlājerd","country":"IR","lat":34.6221,"lng":49.208,"pop":9288,"capital":false},{"name":"Kabala","country":"TR","lat":37.3505,"lng":40.8029,"pop":9275,"capital":false},{"name":"Badalābād","country":"IR","lat":38.5734,"lng":44.9251,"pop":9256,"capital":false},{"name":"Jūraqān","country":"IR","lat":34.8849,"lng":48.5544,"pop":9234,"capital":false},{"name":"Fīrūraq","country":"IR","lat":38.58,"lng":44.8359,"pop":9190,"capital":false},{"name":"Ḩorr","country":"IR","lat":32.1449,"lng":48.3911,"pop":9177,"capital":false},{"name":"Şenköy","country":"TR","lat":37.4644,"lng":41.1906,"pop":8975,"capital":false},{"name":"Çukurca","country":"TR","lat":37.2481,"lng":43.6136,"pop":8843,"capital":false},{"name":"Uludere","country":"TR","lat":37.4407,"lng":42.8524,"pop":8827,"capital":false},{"name":"Julfa","country":"IR","lat":38.9379,"lng":45.6333,"pop":8810,"capital":false},{"name":"Karlıova","country":"TR","lat":39.2904,"lng":41.0059,"pop":8801,"capital":false},{"name":"As Sūsah","country":"SY","lat":34.5337,"lng":40.9582,"pop":8797,"capital":false},{"name":"Savur","country":"TR","lat":37.5354,"lng":40.8788,"pop":8658,"capital":false},{"name":"Gercüş","country":"TR","lat":37.5625,"lng":41.3775,"pop":8590,"capital":false},{"name":"Çavuşlu","country":"TR","lat":37.5002,"lng":41.2511,"pop":8555,"capital":false},{"name":"Şuwayr","country":"SA","lat":30.1171,"lng":40.3892,"pop":8515,"capital":false},{"name":"Yaycı","country":"AZ","lat":38.9405,"lng":45.7324,"pop":8500,"capital":false},{"name":"Karkaj","country":"IR","lat":38.0364,"lng":46.4316,"pop":8496,"capital":false},{"name":"Shendābād","country":"IR","lat":38.1437,"lng":45.6297,"pop":8489,"capital":false},{"name":"Bostān","country":"IR","lat":31.7195,"lng":47.9912,"pop":8476,"capital":false},{"name":"Nūshīn","country":"IR","lat":37.7349,"lng":45.0513,"pop":8380,"capital":false},{"name":"Beytüşşebap","country":"TR","lat":37.5632,"lng":43.1658,"pop":8354,"capital":false},{"name":"Ararat village","country":"AM","lat":39.8317,"lng":44.7049,"pop":8287,"capital":false},{"name":"Dīzaj Dīz","country":"IR","lat":38.4619,"lng":45.0245,"pop":8282,"capital":false},{"name":"Tekman","country":"TR","lat":39.6411,"lng":41.5054,"pop":8270,"capital":false},{"name":"Ẕīā’ābād","country":"IR","lat":35.9933,"lng":49.4464,"pop":8262,"capital":false},{"name":"Özalp","country":"TR","lat":38.6546,"lng":43.9887,"pop":8249,"capital":false},{"name":"Shaft","country":"IR","lat":37.1702,"lng":49.3998,"pop":8184,"capital":false},{"name":"Ābbar","country":"IR","lat":36.9263,"lng":48.9583,"pop":8091,"capital":false},{"name":"Chūbīn Dar","country":"IR","lat":36.2284,"lng":49.9496,"pop":8083,"capital":false},{"name":"Korkut","country":"TR","lat":38.7339,"lng":41.784,"pop":8078,"capital":false},{"name":"Pareh Sar","country":"IR","lat":37.6004,"lng":49.0713,"pop":8016,"capital":false},{"name":"Chū’ebdeh-ye Yek","country":"IR","lat":30.2035,"lng":48.5538,"pop":7906,"capital":false},{"name":"Şāleḩābād","country":"IR","lat":34.9237,"lng":48.3427,"pop":7899,"capital":false},{"name":"Eruh","country":"TR","lat":37.7418,"lng":42.1742,"pop":7868,"capital":false},{"name":"Khondāb","country":"IR","lat":34.3928,"lng":49.1841,"pop":7810,"capital":false},{"name":"Kindirip","country":"TR","lat":37.4471,"lng":41.2198,"pop":7798,"capital":false},{"name":"Kūhnānī","country":"IR","lat":33.4026,"lng":47.3273,"pop":7768,"capital":false},{"name":"Zargān-e Karāneh","country":"IR","lat":31.3659,"lng":48.7602,"pop":7744,"capital":false},{"name":"Horadiz","country":"AZ","lat":39.4502,"lng":47.335,"pop":7700,"capital":false},{"name":"Ma‘mūlān","country":"IR","lat":33.3793,"lng":47.9596,"pop":7656,"capital":false},{"name":"Elhāyī","country":"IR","lat":31.6537,"lng":48.5952,"pop":7651,"capital":false},{"name":"Solţānīyeh","country":"IR","lat":36.4332,"lng":48.7947,"pop":7638,"capital":false},{"name":"Qalaqayın","country":"AZ","lat":39.9837,"lng":48.4836,"pop":7631,"capital":false},{"name":"Yardımlı","country":"AZ","lat":38.9077,"lng":48.2405,"pop":7623,"capital":false},{"name":"Şenoba","country":"TR","lat":37.4629,"lng":42.7228,"pop":7556,"capital":false},{"name":"Acırlı","country":"TR","lat":37.4562,"lng":41.2951,"pop":7553,"capital":false},{"name":"Shahbāz","country":"IR","lat":33.8794,"lng":49.5319,"pop":7536,"capital":false},{"name":"Sharur City","country":"AZ","lat":39.553,"lng":44.9799,"pop":7500,"capital":false},{"name":"Ortaköy","country":"TR","lat":37.223,"lng":40.784,"pop":7486,"capital":false},{"name":"Zangilan","country":"AZ","lat":39.0837,"lng":46.6599,"pop":7483,"capital":false},{"name":"Kolvānaq","country":"IR","lat":38.1002,"lng":46.9894,"pop":7465,"capital":false},{"name":"Edremit","country":"TR","lat":38.4207,"lng":43.2589,"pop":7464,"capital":false},{"name":"Torkamān","country":"IR","lat":37.5853,"lng":47.3896,"pop":7443,"capital":false},{"name":"Bahramtepe","country":"AZ","lat":39.745,"lng":47.9549,"pop":7442,"capital":false},{"name":"Lūlamān","country":"IR","lat":37.2556,"lng":49.8163,"pop":7426,"capital":false},{"name":"Komījān","country":"IR","lat":34.7214,"lng":49.3265,"pop":7358,"capital":false},{"name":"Karayazı","country":"TR","lat":39.696,"lng":42.1428,"pop":7340,"capital":false},{"name":"Mohājerān","country":"IR","lat":35.0762,"lng":48.6163,"pop":7331,"capital":false},{"name":"Ṣāleḥ Shahr","country":"IR","lat":32.2128,"lng":48.6724,"pop":7309,"capital":false},{"name":"Yeghegnadzor","country":"AM","lat":39.7644,"lng":45.3327,"pop":7300,"capital":false},{"name":"Khoshk Bījār","country":"IR","lat":37.3739,"lng":49.7584,"pop":7245,"capital":false},{"name":"Ja‘farābād","country":"IR","lat":39.4346,"lng":48.0939,"pop":7226,"capital":false},{"name":"Başverimli","country":"TR","lat":37.2033,"lng":42.5376,"pop":7214,"capital":false},{"name":"Ömerli","country":"TR","lat":37.399,"lng":40.9544,"pop":7194,"capital":false},{"name":"Āstāneh","country":"IR","lat":33.8835,"lng":49.3523,"pop":7166,"capital":false},{"name":"Gīvī","country":"IR","lat":37.6859,"lng":48.342,"pop":7101,"capital":false},{"name":"Severo-Vostotchnyi Bank","country":"AZ","lat":39.4112,"lng":49.2479,"pop":7075,"capital":false},{"name":"Sojās","country":"IR","lat":36.2391,"lng":48.549,"pop":7037,"capital":false},{"name":"Qubadlı","country":"AZ","lat":39.3444,"lng":46.5818,"pop":6890,"capital":false},{"name":"Maḩmūdābād","country":"IR","lat":36.7197,"lng":46.5145,"pop":6866,"capital":false},{"name":"Boneh-ye ‘Alvān","country":"IR","lat":32.1117,"lng":48.4588,"pop":6860,"capital":false},{"name":"Mazāri‘ al ‘Abdalī","country":"KW","lat":30.0422,"lng":47.7221,"pop":6835,"capital":false},{"name":"Marjaghal","country":"IR","lat":37.2798,"lng":49.3727,"pop":6735,"capital":false},{"name":"Salat","country":"TR","lat":37.8417,"lng":40.8865,"pop":6677,"capital":false},{"name":"Khoramdasht","country":"IR","lat":35.9265,"lng":49.5153,"pop":6554,"capital":false},{"name":"Deh Pahn","country":"IR","lat":34.3456,"lng":47.1382,"pop":6548,"capital":false},{"name":"Kajaran","country":"AM","lat":39.1509,"lng":46.1567,"pop":6519,"capital":false},{"name":"Ābī Beyglū","country":"IR","lat":38.2813,"lng":48.5509,"pop":6515,"capital":false},{"name":"Givrag","country":"AZ","lat":39.3994,"lng":45.1151,"pop":6500,"capital":false},{"name":"Kocaköy","country":"TR","lat":38.2889,"lng":40.4979,"pop":6485,"capital":false},{"name":"Gelinkaya","country":"TR","lat":37.4173,"lng":41.2695,"pop":6470,"capital":false},{"name":"Kahrīz","country":"IR","lat":34.3835,"lng":47.0554,"pop":6457,"capital":false},{"name":"Shahrak-e Salmān Fārsī","country":"IR","lat":32.2021,"lng":48.2808,"pop":6418,"capital":false},{"name":"Leylān","country":"IR","lat":37.011,"lng":46.2065,"pop":6356,"capital":false},{"name":"Mincivan","country":"AZ","lat":39.0302,"lng":46.7233,"pop":6353,"capital":false},{"name":"Aşlān Dūz","country":"IR","lat":39.4439,"lng":47.4056,"pop":6348,"capital":false},{"name":"Hazro","country":"TR","lat":38.249,"lng":40.7713,"pop":6291,"capital":false},{"name":"Āsmānābād","country":"IR","lat":33.8531,"lng":46.4613,"pop":6280,"capital":false},{"name":"Sīs","country":"IR","lat":38.1998,"lng":45.8126,"pop":6106,"capital":false},{"name":"Bakhshāyesh","country":"IR","lat":38.1325,"lng":46.946,"pop":6102,"capital":false},{"name":"Shahrak-e Madanī","country":"IR","lat":30.5474,"lng":49.2593,"pop":6089,"capital":false},{"name":"Kujuvar","country":"IR","lat":38.0599,"lng":46.1381,"pop":6001,"capital":false},{"name":"Babak","country":"AZ","lat":39.1546,"lng":45.4428,"pop":6000,"capital":false},{"name":"Mīrābād","country":"IR","lat":36.4053,"lng":45.372,"pop":6000,"capital":false},{"name":"Pervari","country":"TR","lat":37.9357,"lng":42.5493,"pop":5974,"capital":false},{"name":"Dünyamalılar","country":"AZ","lat":39.7728,"lng":47.7589,"pop":5968,"capital":false},{"name":"Uzungeçit","country":"TR","lat":37.4943,"lng":42.993,"pop":5916,"capital":false},{"name":"Boradigah","country":"AZ","lat":38.9301,"lng":48.7092,"pop":5904,"capital":false},{"name":"Nīr","country":"IR","lat":38.0346,"lng":47.9986,"pop":5873,"capital":false},{"name":"Chavār","country":"IR","lat":33.6953,"lng":46.2979,"pop":5831,"capital":false},{"name":"Khojaly","country":"AZ","lat":39.9136,"lng":46.7921,"pop":5810,"capital":false},{"name":"Aralık","country":"TR","lat":39.8728,"lng":44.5192,"pop":5809,"capital":false},{"name":"‘Anbarān","country":"IR","lat":38.4875,"lng":48.4319,"pop":5757,"capital":false},{"name":"Farmahīn","country":"IR","lat":34.5038,"lng":49.6844,"pop":5756,"capital":false},{"name":"Bāzār Jom‘eh-ye Shānderman","country":"IR","lat":37.4052,"lng":49.1193,"pop":5729,"capital":false},{"name":"Hashatjīn","country":"IR","lat":37.3689,"lng":48.3216,"pop":5725,"capital":false},{"name":"Gāvmīshābād","country":"IR","lat":32.0144,"lng":48.8478,"pop":5722,"capital":false},{"name":"Torkālakī","country":"IR","lat":32.2437,"lng":48.8469,"pop":5688,"capital":false},{"name":"Dārkhovīn","country":"IR","lat":30.7445,"lng":48.4228,"pop":5655,"capital":false},{"name":"Narjeh","country":"IR","lat":35.9912,"lng":49.6252,"pop":5604,"capital":false},{"name":"Kayabağlar","country":"TR","lat":37.986,"lng":41.6676,"pop":5601,"capital":false},{"name":"Avşar","country":"AZ","lat":39.9739,"lng":47.4239,"pop":5600,"capital":false},{"name":"Kūt-e Navāşer","country":"IR","lat":31.2226,"lng":48.6604,"pop":5560,"capital":false},{"name":"Chūbar","country":"IR","lat":38.1803,"lng":48.893,"pop":5554,"capital":false},{"name":"Gürbüz","country":"TR","lat":38.3791,"lng":40.3625,"pop":5550,"capital":false},{"name":"Shādbād-e Mashāyekh","country":"IR","lat":37.9891,"lng":46.3585,"pop":5524,"capital":false},{"name":"Oshtorīnān","country":"IR","lat":34.0167,"lng":48.6431,"pop":5520,"capital":false},{"name":"Şirvan","country":"TR","lat":38.0625,"lng":42.0252,"pop":5510,"capital":false},{"name":"Mutki","country":"TR","lat":38.4062,"lng":41.9202,"pop":5510,"capital":false},{"name":"Abū Ḩomeyz̧eh","country":"IR","lat":31.529,"lng":48.2202,"pop":5506,"capital":false},{"name":"Saggez Ābād","country":"IR","lat":35.7733,"lng":49.9369,"pop":5492,"capital":false},{"name":"Dāvūdābād","country":"IR","lat":34.2939,"lng":49.8556,"pop":5491,"capital":false},{"name":"Taşlıçay","country":"TR","lat":39.6297,"lng":43.3688,"pop":5477,"capital":false},{"name":"Sara'eyn","country":"IR","lat":38.1502,"lng":48.0707,"pop":5459,"capital":false},{"name":"Vayk","country":"AM","lat":39.6903,"lng":45.4692,"pop":5453,"capital":false},{"name":"Cham Golak","country":"IR","lat":32.4449,"lng":48.4425,"pop":5446,"capital":false},{"name":"Akarsu","country":"TR","lat":37.2262,"lng":41.0514,"pop":5440,"capital":false},{"name":"Lāhījān","country":"IR","lat":37.9849,"lng":46.0863,"pop":5430,"capital":false},{"name":"Aznāv","country":"IR","lat":34.2999,"lng":48.8576,"pop":5411,"capital":false},{"name":"Yolbaşı","country":"TR","lat":37.3874,"lng":41.3166,"pop":5400,"capital":false},{"name":"Pīr Bāzār","country":"IR","lat":37.3435,"lng":49.5481,"pop":5373,"capital":false},{"name":"Jannat Makān","country":"IR","lat":32.1847,"lng":48.8151,"pop":5360,"capital":false},{"name":"Varazqān","country":"IR","lat":38.6755,"lng":46.1121,"pop":5348,"capital":false},{"name":"Zarnaq","country":"IR","lat":38.0911,"lng":47.0828,"pop":5343,"capital":false},{"name":"Sardārān","country":"IR","lat":32.021,"lng":48.7906,"pop":5240,"capital":false},{"name":"Kayapınar","country":"TR","lat":37.5576,"lng":41.1623,"pop":5226,"capital":false},{"name":"Fīrūzān","country":"IR","lat":34.3608,"lng":48.1154,"pop":5173,"capital":false},{"name":"Arıcak","country":"TR","lat":38.5634,"lng":40.1248,"pop":5168,"capital":false},{"name":"Sarvābād","country":"IR","lat":35.3126,"lng":46.3669,"pop":5121,"capital":false},{"name":"Daghāgheleh","country":"IR","lat":31.3889,"lng":48.6888,"pop":5116,"capital":false},{"name":"Karakoyunlu","country":"TR","lat":39.8704,"lng":43.6301,"pop":5073,"capital":false},{"name":"Vosketap","country":"AM","lat":39.8811,"lng":44.6492,"pop":5065,"capital":false},{"name":"Ambar","country":"TR","lat":37.8531,"lng":40.528,"pop":5063,"capital":false},{"name":"Ardāq","country":"IR","lat":36.0527,"lng":49.8241,"pop":5043,"capital":false},{"name":"Kumçatı","country":"TR","lat":37.4733,"lng":42.3163,"pop":5005,"capital":false},{"name":"Ām Ālṭamīr","country":"IR","lat":31.2503,"lng":48.5555,"pop":5004,"capital":false},{"name":"Altınsu","country":"TR","lat":37.3217,"lng":44.5521,"pop":5004,"capital":false},{"name":"Khojavend","country":"AZ","lat":39.795,"lng":47.1117,"pop":3700,"capital":false},{"name":"Laçın","country":"AZ","lat":39.6374,"lng":46.5498,"pop":2300,"capital":false}]