[{"name":"‘Amrān","country":"YE","lat":15.6594,"lng":43.9439,"pop":90792,"capital":false},{"name":"Bariq","country":"SA","lat":18.9297,"lng":41.9295,"pop":75351,"capital":false},{"name":"Bosaso","country":"SO","lat":11.2842,"lng":49.1816,"pop":74287,"capital":false},{"name":"Abū ‘Arīsh","country":"SA","lat":16.9689,"lng":42.8325,"pop":69632,"capital":false},{"name":"Sayyān","country":"YE","lat":15.1718,"lng":44.3244,"pop":69404,"capital":false},{"name":"Zabīd","country":"YE","lat":14.1951,"lng":43.3152,"pop":52590,"capital":false},{"name":"Sa'dah","country":"YE","lat":16.9402,"lng":43.7639,"pop":51870,"capital":false},{"name":"Baljurashi","country":"SA","lat":19.8594,"lng":41.5572,"pop":51787,"capital":false},{"name":"Ali Sabih","country":"DJ","lat":11.1558,"lng":42.7125,"pop":50006,"capital":false},{"name":"Samara","country":"ET","lat":11.7934,"lng":41.0058,"pop":50000,"capital":false},{"name":"Bājil","country":"YE","lat":15.059,"lng":43.2873,"pop":48218,"capital":false},{"name":"Ḩajjah","country":"YE","lat":15.6943,"lng":43.6058,"pop":43549,"capital":false},{"name":"Asaita","country":"ET","lat":11.5684,"lng":41.4387,"pop":39400,"capital":false},{"name":"Dhī as Sufāl","country":"YE","lat":13.8345,"lng":44.1147,"pop":37997,"capital":false},{"name":"Al Bayda","country":"YE","lat":13.9852,"lng":45.5727,"pop":37821,"capital":false},{"name":"Batī","country":"ET","lat":11.1915,"lng":40.0168,"pop":37600,"capital":false},{"name":"Ataq","country":"YE","lat":14.5377,"lng":46.8319,"pop":37315,"capital":false},{"name":"Dubti","country":"ET","lat":11.7329,"lng":41.082,"pop":36100,"capital":false},{"name":"Logīya","country":"ET","lat":11.7262,"lng":40.9797,"pop":34500,"capital":false},{"name":"Bayt al Faqīh","country":"YE","lat":14.5164,"lng":43.3245,"pop":34204,"capital":false},{"name":"Ceerigaabo","country":"SO","lat":10.6162,"lng":47.368,"pop":33853,"capital":false},{"name":"Yarīm","country":"YE","lat":14.298,"lng":44.378,"pop":33050,"capital":false},{"name":"Dikhil","country":"DJ","lat":11.1045,"lng":42.3697,"pop":32801,"capital":false},{"name":"Saḩar","country":"YE","lat":15.3164,"lng":44.3088,"pop":31859,"capital":false},{"name":"Fayfā’","country":"SA","lat":17.2806,"lng":43.1374,"pop":29793,"capital":false},{"name":"Şāmitah","country":"SA","lat":16.596,"lng":42.9444,"pop":26945,"capital":false},{"name":"Ḑamad","country":"SA","lat":17.1043,"lng":42.7816,"pop":26079,"capital":false},{"name":"An Nimas","country":"SA","lat":19.1455,"lng":42.1201,"pop":24153,"capital":false},{"name":"Laḩij","country":"YE","lat":13.0567,"lng":44.8819,"pop":23375,"capital":false},{"name":"Al Mash‘ilīyah","country":"SA","lat":17.7556,"lng":44.468,"pop":23252,"capital":false},{"name":"Arerti","country":"ET","lat":13.95,"lng":40.6667,"pop":23000,"capital":false},{"name":"Sifra","country":"ET","lat":11.6046,"lng":40.0166,"pop":22400,"capital":false},{"name":"Mīlē","country":"ET","lat":11.4217,"lng":40.7628,"pop":21700,"capital":false},{"name":"Assab","country":"ER","lat":13.0092,"lng":42.7394,"pop":21300,"capital":false},{"name":"Ghayl Bā Wazīr","country":"YE","lat":14.7761,"lng":49.3661,"pop":21259,"capital":false},{"name":"Zinjibār","country":"YE","lat":13.1287,"lng":45.3807,"pop":19879,"capital":false},{"name":"Sarāt ‘Abīdah","country":"SA","lat":18.089,"lng":43.132,"pop":19855,"capital":false},{"name":"Tadjoura","country":"DJ","lat":11.7878,"lng":42.8822,"pop":19533,"capital":false},{"name":"Qandala","country":"SO","lat":11.472,"lng":49.8728,"pop":19300,"capital":false},{"name":"Saylac","country":"SO","lat":11.3539,"lng":43.4731,"pop":18600,"capital":false},{"name":"Al Ḩazm","country":"YE","lat":16.1641,"lng":44.7769,"pop":18241,"capital":false},{"name":"Arta","country":"DJ","lat":11.5264,"lng":42.8519,"pop":17477,"capital":false},{"name":"Ma'rib","country":"YE","lat":15.4625,"lng":45.3258,"pop":16794,"capital":false},{"name":"Mocha","country":"YE","lat":13.3181,"lng":43.2499,"pop":16794,"capital":false},{"name":"Obock","country":"DJ","lat":11.9669,"lng":43.2884,"pop":15429,"capital":false},{"name":"Al Majāridah","country":"SA","lat":19.132,"lng":41.924,"pop":14830,"capital":false},{"name":"Aḑ Ḑāli‘","country":"YE","lat":13.6957,"lng":44.7314,"pop":14760,"capital":false},{"name":"Jawf al Maqbābah","country":"YE","lat":13.8378,"lng":45.8349,"pop":14175,"capital":false},{"name":"Ḩabūnā","country":"SA","lat":17.8472,"lng":44.0208,"pop":12738,"capital":false},{"name":"Az̧ Z̧abyah","country":"SA","lat":17.1179,"lng":42.6669,"pop":11287,"capital":false},{"name":"Gawanē","country":"ET","lat":10.1666,"lng":40.6469,"pop":11279,"capital":false},{"name":"Edd","country":"ER","lat":13.9309,"lng":41.6938,"pop":11259,"capital":false},{"name":"Al Maḩwīt","country":"YE","lat":15.4701,"lng":43.5448,"pop":10593,"capital":false},{"name":"Farasān","country":"SA","lat":16.7022,"lng":42.1183,"pop":10527,"capital":false},{"name":"Jadder Cemetery","country":"YE","lat":15.467,"lng":44.1779,"pop":10000,"capital":false},{"name":"Dhahabān","country":"SA","lat":18.0998,"lng":41.6161,"pop":9436,"capital":false},{"name":"Al Wadī‘ah","country":"SA","lat":17.0584,"lng":47.089,"pop":8365,"capital":false},{"name":"Al Jarādīyah","country":"SA","lat":16.5795,"lng":42.9124,"pop":7396,"capital":false},{"name":"Khubāsh","country":"SA","lat":17.5563,"lng":44.748,"pop":7182,"capital":false},{"name":"Shibām","country":"YE","lat":15.9269,"lng":48.6267,"pop":7000,"capital":false},{"name":"Las Khorey","country":"SO","lat":11.1595,"lng":48.1967,"pop":6941,"capital":false},{"name":"Mislīyah","country":"SA","lat":17.4599,"lng":42.5572,"pop":6117,"capital":false},{"name":"Ash Shuqayrī","country":"SA","lat":17.1311,"lng":42.8267,"pop":6069,"capital":false},{"name":"CPF","country":"YE","lat":15.5917,"lng":49.136,"pop":6000,"capital":false},{"name":"Mizhirah","country":"SA","lat":16.8261,"lng":42.7333,"pop":5529,"capital":false},{"name":"Ad Darb","country":"SA","lat":17.7229,"lng":42.2526,"pop":5378,"capital":false},{"name":"‘As ‘Êla","country":"DJ","lat":11.0036,"lng":42.1025,"pop":5173,"capital":false},{"name":"Tabālah","country":"SA","lat":19.95,"lng":42.4,"pop":5151,"capital":false},{"name":"Damêrdjôg","country":"DJ","lat":11.4856,"lng":43.1872,"pop":5115,"capital":false},{"name":"Al Jabīn","country":"YE","lat":14.7039,"lng":43.5992,"pop":0,"capital":false}]