[{"name":"Tôlanaro","country":"MG","lat":-25.0325,"lng":46.9833,"pop":71258,"capital":false},{"name":"Ambovombe","country":"MG","lat":-25.1784,"lng":46.0872,"pop":69265,"capital":false},{"name":"Morondava","country":"MG","lat":-20.2887,"lng":44.3178,"pop":56671,"capital":false},{"name":"Amboasary","country":"MG","lat":-25.0333,"lng":46.3833,"pop":48705,"capital":false},{"name":"Manakara","country":"MG","lat":-22.1486,"lng":48.0106,"pop":46850,"capital":false},{"name":"Ambalavao","country":"MG","lat":-21.8333,"lng":46.9333,"pop":45784,"capital":false},{"name":"Ambositra","country":"MG","lat":-20.5303,"lng":47.2434,"pop":43504,"capital":false},{"name":"Ihosy","country":"MG","lat":-22.4029,"lng":46.1258,"pop":41892,"capital":false},{"name":"Vangaindrano","country":"MG","lat":-23.35,"lng":47.6,"pop":40813,"capital":false},{"name":"Ampanihy","country":"MG","lat":-24.6937,"lng":44.7458,"pop":40244,"capital":false},{"name":"Ambatofinandrahana","country":"MG","lat":-20.5528,"lng":46.8037,"pop":39618,"capital":false},{"name":"Ikongo","country":"MG","lat":-21.8833,"lng":47.4333,"pop":38851,"capital":false},{"name":"Nosy Varika","country":"MG","lat":-20.5833,"lng":48.5333,"pop":37152,"capital":false},{"name":"Farafangana","country":"MG","lat":-22.8222,"lng":47.8262,"pop":36724,"capital":false},{"name":"Itampolo","country":"MG","lat":-24.6833,"lng":43.95,"pop":32000,"capital":false},{"name":"Fandriana","country":"MG","lat":-20.2333,"lng":47.3833,"pop":30958,"capital":false},{"name":"Tsiombe","country":"MG","lat":-25.3,"lng":45.4833,"pop":29825,"capital":false},{"name":"Sahavato","country":"MG","lat":-20.6,"lng":48.3333,"pop":28000,"capital":false},{"name":"Betioky","country":"MG","lat":-23.7206,"lng":44.3807,"pop":27125,"capital":false},{"name":"Vohipaho","country":"MG","lat":-23.55,"lng":47.5,"pop":27000,"capital":false},{"name":"Mananjary","country":"MG","lat":-21.2303,"lng":48.3417,"pop":26712,"capital":false},{"name":"Marolambo","country":"MG","lat":-20.05,"lng":48.1167,"pop":26160,"capital":false},{"name":"Ankazoabo","country":"MG","lat":-22.2833,"lng":44.5167,"pop":25961,"capital":false},{"name":"Morombe","country":"MG","lat":-21.745,"lng":43.3606,"pop":23961,"capital":false},{"name":"Beloha","country":"MG","lat":-25.1667,"lng":45.05,"pop":23021,"capital":false},{"name":"Ivohibe","country":"MG","lat":-22.4833,"lng":46.8833,"pop":22290,"capital":false},{"name":"Jafaro","country":"MG","lat":-24.9167,"lng":45.5167,"pop":22000,"capital":false},{"name":"Sakaraha","country":"MG","lat":-22.9,"lng":44.5333,"pop":21826,"capital":false},{"name":"Bekily","country":"MG","lat":-24.2167,"lng":45.3167,"pop":20915,"capital":false},{"name":"Vondrozo","country":"MG","lat":-22.8167,"lng":47.2833,"pop":19949,"capital":false},{"name":"Beroroha","country":"MG","lat":-21.6667,"lng":45.1667,"pop":18632,"capital":false},{"name":"Betroka","country":"MG","lat":-23.2667,"lng":46.0833,"pop":18350,"capital":false},{"name":"Amboanjo","country":"MG","lat":-22,"lng":47.85,"pop":17000,"capital":false},{"name":"Ifanadiana","country":"MG","lat":-21.3,"lng":47.6333,"pop":16607,"capital":false},{"name":"Vohipeno","country":"MG","lat":-22.35,"lng":47.8333,"pop":15622,"capital":false},{"name":"Ikalamavony","country":"MG","lat":-21.15,"lng":46.5833,"pop":15601,"capital":false},{"name":"Kopoky","country":"MG","lat":-25.2,"lng":45.2,"pop":15000,"capital":false},{"name":"Ifatsy","country":"MG","lat":-22.4,"lng":47.75,"pop":15000,"capital":false},{"name":"Tranovaho","country":"MG","lat":-25.3,"lng":44.9667,"pop":13000,"capital":false},{"name":"Ambohimahasoa","country":"MG","lat":-21.1167,"lng":47.2167,"pop":12291,"capital":false},{"name":"Fandrandava","country":"MG","lat":-21.5167,"lng":47.25,"pop":9000,"capital":false},{"name":"Ivato","country":"MG","lat":-22.4167,"lng":47.2667,"pop":8000,"capital":false},{"name":"Manato","country":"MG","lat":-22.4,"lng":47.4833,"pop":7000,"capital":false},{"name":"Beteza","country":"MG","lat":-24.45,"lng":45.1167,"pop":7000,"capital":false},{"name":"Behompy","country":"MG","lat":-23.25,"lng":43.85,"pop":7000,"capital":false},{"name":"Vohimanitra","country":"MG","lat":-21.7,"lng":47.7,"pop":6000,"capital":false},{"name":"Ranohira","country":"MG","lat":-22.4833,"lng":45.4,"pop":6000,"capital":false}]