[{"name":"Kaambooni","country":"SO","lat":-1.6377,"lng":41.5866,"pop":79000,"capital":false},{"name":"Masalani","country":"KE","lat":-1.694,"lng":40.1702,"pop":43642,"capital":false},{"name":"Watamu","country":"KE","lat":-3.3533,"lng":40.021,"pop":27857,"capital":false},{"name":"Lamu","country":"KE","lat":-2.2717,"lng":40.902,"pop":25385,"capital":false},{"name":"Hola","country":"KE","lat":-1.4826,"lng":40.0334,"pop":20912,"capital":false},{"name":"Ijara","country":"KE","lat":-1.5952,"lng":40.5144,"pop":11792,"capital":false},{"name":"Gongoni","country":"KE","lat":-3.0367,"lng":40.1375,"pop":10993,"capital":false},{"name":"Garsen","country":"KE","lat":-2.2664,"lng":40.1098,"pop":7176,"capital":false},{"name":"Marereni","country":"KE","lat":-2.8604,"lng":40.1506,"pop":7085,"capital":false},{"name":"Mpeketoni","country":"KE","lat":-2.3891,"lng":40.6981,"pop":5957,"capital":false},{"name":"Witu","country":"KE","lat":-2.3889,"lng":40.4383,"pop":5380,"capital":false}]