[{"name":"Burao","country":"SO","lat":9.5221,"lng":45.5336,"pop":99270,"capital":false},{"name":"Wajir","country":"KE","lat":1.7471,"lng":40.0573,"pop":90116,"capital":false},{"name":"Gebiley","country":"SO","lat":9.7003,"lng":43.6244,"pop":77320,"capital":false},{"name":"Beled Hawo","country":"SO","lat":3.9284,"lng":41.88,"pop":73000,"capital":false},{"name":"Balanbale","country":"SO","lat":5.769,"lng":45.763,"pop":68000,"capital":false},{"name":"Gode","country":"ET","lat":5.9506,"lng":43.5519,"pop":67900,"capital":false},{"name":"Afgooye","country":"SO","lat":2.1381,"lng":45.1212,"pop":65461,"capital":false},{"name":"‘Alemaya","country":"ET","lat":9.3933,"lng":42.0097,"pop":63700,"capital":false},{"name":"Gaalkacyo","country":"SO","lat":6.7697,"lng":47.4308,"pop":61200,"capital":false},{"name":"El Wak","country":"KE","lat":2.8092,"lng":40.9288,"pop":60732,"capital":false},{"name":"Laascaanood","country":"SO","lat":8.4774,"lng":47.3597,"pop":60100,"capital":false},{"name":"Garoowe","country":"SO","lat":8.4021,"lng":48.4828,"pop":57300,"capital":false},{"name":"Beledweyne","country":"SO","lat":4.7358,"lng":45.2036,"pop":55410,"capital":false},{"name":"Qoryooley","country":"SO","lat":1.7878,"lng":44.53,"pop":51720,"capital":false},{"name":"Degeh Bur","country":"ET","lat":8.2206,"lng":43.5572,"pop":47200,"capital":false},{"name":"Jawhar","country":"SO","lat":2.7809,"lng":45.5005,"pop":47086,"capital":false},{"name":"Kebri Dahar","country":"ET","lat":6.74,"lng":44.2781,"pop":45900,"capital":false},{"name":"Jilib","country":"SO","lat":0.4883,"lng":42.7854,"pop":43694,"capital":false},{"name":"Jamaame","country":"SO","lat":0.0697,"lng":42.745,"pop":42270,"capital":false},{"name":"Baardheere","country":"SO","lat":2.3446,"lng":42.2764,"pop":42240,"capital":false},{"name":"Lasoano","country":"ET","lat":6.2553,"lng":45.3853,"pop":38000,"capital":false},{"name":"Bedēsa","country":"ET","lat":8.9,"lng":40.7833,"pop":37700,"capital":false},{"name":"Qorof","country":"ET","lat":6.5822,"lng":46.4333,"pop":37080,"capital":false},{"name":"Babīlē","country":"ET","lat":9.2256,"lng":42.3322,"pop":36700,"capital":false},{"name":"Āwash","country":"ET","lat":8.9936,"lng":40.1664,"pop":36500,"capital":false},{"name":"Yamarugley","country":"ET","lat":6.8077,"lng":46.0848,"pop":36000,"capital":false},{"name":"Dhabad","country":"SO","lat":6.4317,"lng":46.4619,"pop":36000,"capital":false},{"name":"Ramu","country":"KE","lat":3.9315,"lng":41.223,"pop":35644,"capital":false},{"name":"Ghinnir","country":"ET","lat":7.1395,"lng":40.7108,"pop":35500,"capital":false},{"name":"Gelemso","country":"ET","lat":8.8167,"lng":40.5167,"pop":34200,"capital":false},{"name":"Fadhigaradle","country":"ET","lat":6.1756,"lng":45.2987,"pop":34000,"capital":false},{"name":"Neefkuceliye","country":"ET","lat":6.5546,"lng":45.3899,"pop":34000,"capital":false},{"name":"Luuq","country":"SO","lat":3.8032,"lng":42.5442,"pop":33820,"capital":false},{"name":"Bale Robe","country":"ET","lat":7.1229,"lng":40.0041,"pop":31400,"capital":false},{"name":"Āsbe Teferī","country":"ET","lat":9.0857,"lng":40.8671,"pop":30772,"capital":false},{"name":"Buurhakaba","country":"SO","lat":2.8026,"lng":44.0781,"pop":27792,"capital":false},{"name":"Mī’ēso","country":"ET","lat":9.2348,"lng":40.7559,"pop":27700,"capital":false},{"name":"Dhamas","country":"SO","lat":3.153,"lng":41.3357,"pop":27000,"capital":false},{"name":"Deder","country":"ET","lat":9.3117,"lng":41.443,"pop":26900,"capital":false},{"name":"Ceeldheer","country":"SO","lat":3.8488,"lng":47.1806,"pop":26562,"capital":false},{"name":"Felana","country":"ET","lat":9.465,"lng":42.1845,"pop":26200,"capital":false},{"name":"Saaxo","country":"SO","lat":6.7729,"lng":46.7969,"pop":26000,"capital":false},{"name":"Chinahsen","country":"ET","lat":9.5062,"lng":42.6094,"pop":25400,"capital":false},{"name":"Raqo","country":"ET","lat":6.4192,"lng":45.8525,"pop":25090,"capital":false},{"name":"Funyan Bīra","country":"ET","lat":9.4025,"lng":42.3175,"pop":25000,"capital":false},{"name":"Hīrna","country":"ET","lat":9.2167,"lng":41.1,"pop":24200,"capital":false},{"name":"Waal","country":"ET","lat":6.8866,"lng":46.2151,"pop":24000,"capital":false},{"name":"Gedeb","country":"ET","lat":9.5725,"lng":43.1814,"pop":24000,"capital":false},{"name":"El Bahay","country":"ET","lat":6.3466,"lng":45.4781,"pop":23000,"capital":false},{"name":"Ara Ali","country":"ET","lat":5.9667,"lng":41.0333,"pop":23000,"capital":false},{"name":"Lafey","country":"KE","lat":3.1511,"lng":41.1858,"pop":22882,"capital":false},{"name":"Tog Wajaale","country":"SO","lat":9.5997,"lng":43.335,"pop":22700,"capital":false},{"name":"Wanlaweyn","country":"SO","lat":2.6185,"lng":44.8938,"pop":22022,"capital":false},{"name":"Hartīshēk","country":"ET","lat":9.1572,"lng":43.3542,"pop":22000,"capital":false},{"name":"Digih Habar Es","country":"ET","lat":6.4426,"lng":45.9833,"pop":22000,"capital":false},{"name":"Takaba","country":"KE","lat":3.3553,"lng":40.2228,"pop":21517,"capital":false},{"name":"Chelenko","country":"ET","lat":9.3975,"lng":41.561,"pop":20900,"capital":false},{"name":"Golwayn","country":"ET","lat":6.5073,"lng":45.8349,"pop":20000,"capital":false},{"name":"Diinsoor","country":"SO","lat":2.4085,"lng":42.9771,"pop":20000,"capital":false},{"name":"Baki","country":"SO","lat":9.8921,"lng":43.3853,"pop":20000,"capital":false},{"name":"Eyl","country":"SO","lat":7.9803,"lng":49.8164,"pop":18904,"capital":false},{"name":"Kahandhale","country":"ET","lat":5.7528,"lng":45.646,"pop":18000,"capital":false},{"name":"Bu’aale","country":"SO","lat":1.0833,"lng":42.5833,"pop":17475,"capital":false},{"name":"Buulobarde","country":"SO","lat":3.8538,"lng":45.5674,"pop":16928,"capital":false},{"name":"Duuban","country":"ET","lat":6.6799,"lng":46.0662,"pop":15000,"capital":false},{"name":"Banissa","country":"KE","lat":3.941,"lng":40.3425,"pop":14974,"capital":false},{"name":"Garbahaarrey","country":"SO","lat":3.3289,"lng":42.2209,"pop":12652,"capital":false},{"name":"Hobyo","country":"SO","lat":5.3505,"lng":48.5268,"pop":12564,"capital":false},{"name":"Xuddur","country":"SO","lat":4.1213,"lng":43.8894,"pop":12500,"capital":false},{"name":"Yagoori","country":"SO","lat":8.7517,"lng":46.9636,"pop":12190,"capital":false},{"name":"Dadaab","country":"KE","lat":0.0524,"lng":40.3085,"pop":11525,"capital":false},{"name":"Buhodle","country":"SO","lat":8.2306,"lng":46.3267,"pop":11373,"capital":false},{"name":"Garadag","country":"SO","lat":9.4883,"lng":46.8674,"pop":10000,"capital":false},{"name":"Jalalaqsi","country":"SO","lat":3.3766,"lng":45.5996,"pop":9743,"capital":false},{"name":"Ceelbuur","country":"SO","lat":4.685,"lng":46.6176,"pop":9031,"capital":false},{"name":"Dhuusamarreeb","country":"SO","lat":5.536,"lng":46.3867,"pop":9000,"capital":false},{"name":"Yeed","country":"SO","lat":4.55,"lng":43.0333,"pop":8429,"capital":false},{"name":"Mahaddayweyne","country":"SO","lat":2.9726,"lng":45.5347,"pop":8273,"capital":false},{"name":"Saacow","country":"SO","lat":1.6279,"lng":42.4407,"pop":7893,"capital":false},{"name":"Waajid","country":"SO","lat":3.8096,"lng":43.2463,"pop":6666,"capital":false},{"name":"Agabar","country":"SO","lat":9.9262,"lng":43.9167,"pop":6547,"capital":false},{"name":"Oodweyne","country":"SO","lat":9.4092,"lng":45.064,"pop":5491,"capital":false},{"name":"Cadale","country":"SO","lat":2.7603,"lng":46.3222,"pop":5385,"capital":false}]