[{"name":"Ezhva","country":"RU","lat":61.8128,"lng":50.7283,"pop":56000,"capital":false},{"name":"Pechora","country":"RU","lat":65.1472,"lng":57.2244,"pop":46113,"capital":false},{"name":"Usinsk","country":"RU","lat":66.0087,"lng":57.5305,"pop":44078,"capital":false},{"name":"Severoural’sk","country":"RU","lat":60.1533,"lng":59.9521,"pop":33500,"capital":false},{"name":"Sosnogorsk","country":"RU","lat":63.5967,"lng":53.8918,"pop":29343,"capital":false},{"name":"Narian-Mar","country":"RU","lat":67.6678,"lng":53.0979,"pop":22912,"capital":false},{"name":"Krasnovishersk","country":"RU","lat":60.4073,"lng":57.0829,"pop":18185,"capital":false},{"name":"Nar'yan-Mar","country":"RU","lat":67.6387,"lng":53.0037,"pop":18041,"capital":false},{"name":"Yemva","country":"RU","lat":62.5879,"lng":50.8634,"pop":16404,"capital":false},{"name":"Vuktyl","country":"RU","lat":63.8478,"lng":57.3099,"pop":13693,"capital":false},{"name":"Mikun’","country":"RU","lat":62.3547,"lng":50.0771,"pop":11502,"capital":false},{"name":"Nizhniy Odes","country":"RU","lat":63.6445,"lng":54.856,"pop":11165,"capital":false},{"name":"Troitsko-Pechorsk","country":"RU","lat":62.7193,"lng":56.1717,"pop":8414,"capital":false},{"name":"Yarega","country":"RU","lat":63.4354,"lng":53.5765,"pop":8092,"capital":false},{"name":"Nyrob","country":"RU","lat":60.733,"lng":56.7202,"pop":7314,"capital":false},{"name":"Krasnozatonskiy","country":"RU","lat":61.6758,"lng":50.9794,"pop":7305,"capital":false},{"name":"Cherëmukhovo","country":"RU","lat":60.3484,"lng":59.9851,"pop":7270,"capital":false},{"name":"Vizinga","country":"RU","lat":61.0732,"lng":50.0776,"pop":6788,"capital":false},{"name":"Iskateley","country":"RU","lat":67.6803,"lng":53.1512,"pop":6545,"capital":false},{"name":"Vodnyy","country":"RU","lat":63.5046,"lng":53.4095,"pop":6307,"capital":false},{"name":"Cherdyn’","country":"RU","lat":60.401,"lng":56.4796,"pop":5585,"capital":false},{"name":"Ust’-Kulom","country":"RU","lat":61.6875,"lng":53.6894,"pop":5205,"capital":false},{"name":"Ust-Tsilma","country":"RU","lat":65.441,"lng":52.1498,"pop":5100,"capital":false}]