[{"name":"Türkmenbaşy","country":"TM","lat":40.0222,"lng":52.9552,"pop":91745,"capital":false},{"name":"Qŭnghirot","country":"UZ","lat":43.0433,"lng":58.8394,"pop":80090,"capital":false},{"name":"Xo‘jayli Shahri","country":"UZ","lat":42.4088,"lng":59.4454,"pop":67800,"capital":false},{"name":"Oltinko‘l","country":"UZ","lat":43.0687,"lng":58.9037,"pop":59122,"capital":false},{"name":"Qulsary","country":"KZ","lat":46.9531,"lng":54.0198,"pop":51216,"capital":false},{"name":"Maştağa","country":"AZ","lat":40.5298,"lng":50.0062,"pop":40092,"capital":false},{"name":"Boldumsaz","country":"TM","lat":42.1282,"lng":59.671,"pop":39532,"capital":false},{"name":"Köneürgenç","country":"TM","lat":42.3277,"lng":59.1544,"pop":37176,"capital":false},{"name":"Yylanly","country":"TM","lat":41.8333,"lng":59.65,"pop":36594,"capital":false},{"name":"Hövsan","country":"AZ","lat":40.3744,"lng":50.0853,"pop":36293,"capital":false},{"name":"Mangistau","country":"KZ","lat":43.6909,"lng":51.3224,"pop":31368,"capital":false},{"name":"Kandyagash","country":"KZ","lat":49.4692,"lng":57.4187,"pop":28196,"capital":false},{"name":"Shalqar","country":"KZ","lat":47.8315,"lng":59.6193,"pop":27399,"capital":false},{"name":"Görogly","country":"TM","lat":41.6504,"lng":59.9164,"pop":26770,"capital":false},{"name":"Buzovna","country":"AZ","lat":40.519,"lng":50.1144,"pop":24795,"capital":false},{"name":"Biny Selo","country":"AZ","lat":40.4508,"lng":50.0869,"pop":24596,"capital":false},{"name":"Oýrat","country":"TM","lat":41.9458,"lng":59.9089,"pop":21160,"capital":false},{"name":"Balykshi","country":"KZ","lat":47.0667,"lng":51.8667,"pop":19260,"capital":false},{"name":"Embi","country":"KZ","lat":48.8298,"lng":58.1504,"pop":18760,"capital":false},{"name":"Gubadag","country":"TM","lat":42.0795,"lng":59.9496,"pop":17118,"capital":false},{"name":"Yeni Suraxanı","country":"AZ","lat":40.4303,"lng":50.036,"pop":16127,"capital":false},{"name":"Mardakan","country":"AZ","lat":40.4918,"lng":50.1429,"pop":15267,"capital":false},{"name":"Beyneu","country":"KZ","lat":45.3167,"lng":55.2,"pop":14245,"capital":false},{"name":"Akdepe","country":"TM","lat":42.0551,"lng":59.3788,"pop":14177,"capital":false},{"name":"Maqat","country":"KZ","lat":47.6497,"lng":53.3429,"pop":14082,"capital":false},{"name":"Shumanay","country":"UZ","lat":42.6428,"lng":58.9135,"pop":14000,"capital":false},{"name":"Mŭynoq","country":"UZ","lat":43.7683,"lng":59.0214,"pop":13500,"capital":false},{"name":"Pirallahı","country":"AZ","lat":40.4701,"lng":50.3248,"pop":13435,"capital":false},{"name":"Inderbor","country":"KZ","lat":48.55,"lng":51.7833,"pop":13254,"capital":false},{"name":"Kegeyli Shahar","country":"UZ","lat":42.7767,"lng":59.6078,"pop":12400,"capital":false},{"name":"Shetpe","country":"KZ","lat":44.1392,"lng":52.1531,"pop":11836,"capital":false},{"name":"Kuryk","country":"KZ","lat":43.1803,"lng":51.6812,"pop":11836,"capital":false},{"name":"Shubarkuduk","country":"KZ","lat":49.1439,"lng":56.482,"pop":11733,"capital":false},{"name":"Zhetybay","country":"KZ","lat":43.5893,"lng":52.1031,"pop":11731,"capital":false},{"name":"Zyrya","country":"AZ","lat":40.3661,"lng":50.292,"pop":10099,"capital":false},{"name":"Türkan","country":"AZ","lat":40.3646,"lng":50.2208,"pop":9699,"capital":false},{"name":"Aşyr Kakabaýew","country":"TM","lat":42.2817,"lng":58.7194,"pop":9603,"capital":false},{"name":"Dossor","country":"KZ","lat":47.5323,"lng":52.9709,"pop":9526,"capital":false},{"name":"Bilajer","country":"AZ","lat":40.5644,"lng":50.04,"pop":8983,"capital":false},{"name":"Makhambet","country":"KZ","lat":47.6706,"lng":51.586,"pop":8905,"capital":false},{"name":"Karaton","country":"KZ","lat":46.4369,"lng":53.4891,"pop":8905,"capital":false},{"name":"Shubarshi","country":"KZ","lat":48.5802,"lng":57.1829,"pop":8651,"capital":false},{"name":"Akkistau","country":"KZ","lat":47.2211,"lng":51.0063,"pop":8486,"capital":false},{"name":"Garabogaz","country":"TM","lat":41.5401,"lng":52.5734,"pop":7877,"capital":false},{"name":"Nardaran","country":"AZ","lat":40.5561,"lng":50.0056,"pop":7700,"capital":false},{"name":"Bayganin","country":"KZ","lat":48.6897,"lng":55.8751,"pop":7657,"capital":false},{"name":"Gökçäge","country":"TM","lat":42.017,"lng":59.8554,"pop":7569,"capital":false},{"name":"Türkmenbaşy","country":"TM","lat":40.0115,"lng":53.1152,"pop":7334,"capital":false},{"name":"Saparmurat Turkmenbashy","country":"TM","lat":42.3799,"lng":58.814,"pop":6770,"capital":false},{"name":"Akdaş","country":"TM","lat":40.0422,"lng":53.1261,"pop":6750,"capital":false},{"name":"Oyyl","country":"KZ","lat":49.0725,"lng":54.663,"pop":6472,"capital":false},{"name":"Miyaly","country":"KZ","lat":48.8855,"lng":53.7917,"pop":6213,"capital":false},{"name":"Zhangaqala","country":"KZ","lat":49.2153,"lng":50.2901,"pop":5954,"capital":false},{"name":"Fort-Shevchenko","country":"KZ","lat":44.5065,"lng":50.2639,"pop":5213,"capital":false}]