[{"name":"Dhahran","country":"SA","lat":26.2886,"lng":50.114,"pop":99540,"capital":false},{"name":"Bam","country":"IR","lat":29.106,"lng":58.357,"pop":99268,"capital":false},{"name":"Al Qaţīf","country":"SA","lat":26.5654,"lng":50.0089,"pop":98259,"capital":false},{"name":"Fasā","country":"IR","lat":28.9383,"lng":53.6482,"pop":98061,"capital":false},{"name":"Mīnāb","country":"IR","lat":27.131,"lng":57.0872,"pop":97986,"capital":false},{"name":"Dubai Silicon Oasis","country":"AE","lat":25.1199,"lng":55.3872,"pop":90000,"capital":false},{"name":"Ar Rumaylah","country":"AE","lat":25.4034,"lng":55.4334,"pop":86000,"capital":false},{"name":"Khalifah A City","country":"AE","lat":24.4259,"lng":54.605,"pop":85374,"capital":false},{"name":"Tārūt","country":"SA","lat":26.5733,"lng":50.0403,"pop":85371,"capital":false},{"name":"Mohammed Bin Zayed City","country":"AE","lat":24.3479,"lng":54.5537,"pop":85000,"capital":false},{"name":"Hawr al ‘Anz","country":"AE","lat":25.2774,"lng":55.3368,"pop":84661,"capital":false},{"name":"Reef Al Fujairah City","country":"AE","lat":25.1448,"lng":56.2476,"pop":82310,"capital":false},{"name":"Barkā’","country":"OM","lat":23.6787,"lng":57.8861,"pop":81647,"capital":false},{"name":"Samā’il","country":"OM","lat":23.2984,"lng":57.9531,"pop":80538,"capital":false},{"name":"Bani Yas City","country":"AE","lat":24.3098,"lng":54.6294,"pop":80498,"capital":false},{"name":"Dubai Festival City","country":"AE","lat":25.2218,"lng":55.3573,"pop":77000,"capital":false},{"name":"Al Maţār al ‘Atīq","country":"QA","lat":25.2514,"lng":51.5557,"pop":76774,"capital":false},{"name":"Al Karama","country":"AE","lat":25.24,"lng":55.3011,"pop":75560,"capital":false},{"name":"Al Buraymī","country":"OM","lat":24.2509,"lng":55.7931,"pop":73670,"capital":false},{"name":"Sitrah","country":"BH","lat":26.1547,"lng":50.6206,"pop":72601,"capital":false},{"name":"Nizwá","country":"OM","lat":22.9333,"lng":57.5333,"pop":72076,"capital":false},{"name":"Sur","country":"OM","lat":22.5667,"lng":59.5289,"pop":71152,"capital":false},{"name":"Dārāb","country":"IR","lat":28.7517,"lng":54.5407,"pop":70232,"capital":false},{"name":"Sayhāt","country":"SA","lat":26.4835,"lng":50.0485,"pop":66702,"capital":false},{"name":"Jidd Ḩafş","country":"BH","lat":26.2186,"lng":50.5478,"pop":66588,"capital":false},{"name":"Al Manşūrah","country":"QA","lat":25.2681,"lng":51.5322,"pop":65493,"capital":false},{"name":"Dār Kulayb","country":"BH","lat":26.0686,"lng":50.5039,"pop":65466,"capital":false},{"name":"Fīrūzābād","country":"IR","lat":28.8446,"lng":52.5715,"pop":65417,"capital":false},{"name":"Zayed City","country":"AE","lat":23.6542,"lng":53.7052,"pop":63482,"capital":false},{"name":"Qurayyāt","country":"OM","lat":23.263,"lng":58.9201,"pop":63133,"capital":false},{"name":"Ras Tanura","country":"SA","lat":26.7074,"lng":50.0674,"pop":62314,"capital":false},{"name":"Lār","country":"IR","lat":27.6834,"lng":54.3417,"pop":62045,"capital":false},{"name":"Al Shamkhah City","country":"AE","lat":24.3927,"lng":54.7078,"pop":61710,"capital":false},{"name":"Mirdif","country":"AE","lat":25.2244,"lng":55.4141,"pop":60288,"capital":false},{"name":"Bandar-e Kangān","country":"IR","lat":27.8343,"lng":52.0631,"pop":60187,"capital":false},{"name":"Ābādeh","country":"IR","lat":28.8349,"lng":53.1726,"pop":59116,"capital":false},{"name":"Al Warqaa","country":"AE","lat":25.1927,"lng":55.4201,"pop":59111,"capital":false},{"name":"Umm Al Quwain City","country":"AE","lat":25.5647,"lng":55.5552,"pop":59098,"capital":false},{"name":"Az̧ Z̧a‘āyin","country":"QA","lat":25.5774,"lng":51.4831,"pop":54339,"capital":false},{"name":"Bahlā’","country":"OM","lat":22.9789,"lng":57.3047,"pop":54338,"capital":false},{"name":"Al Sajaah","country":"AE","lat":25.3153,"lng":55.6321,"pop":53079,"capital":false},{"name":"Lahbab","country":"AE","lat":25.0376,"lng":55.5914,"pop":53079,"capital":false},{"name":"Nāyf","country":"AE","lat":25.2714,"lng":55.3032,"pop":53075,"capital":false},{"name":"Bandar-e Genāveh","country":"IR","lat":29.5791,"lng":50.517,"pop":52750,"capital":false},{"name":"Kahnūj","country":"IR","lat":27.9403,"lng":57.6998,"pop":52624,"capital":false},{"name":"Ţarīf Kalbā","country":"AE","lat":25.0695,"lng":56.3312,"pop":51000,"capital":false},{"name":"Al Khābūrah","country":"OM","lat":23.9714,"lng":57.0931,"pop":50223,"capital":false},{"name":"Al Muteena","country":"AE","lat":25.2738,"lng":55.3227,"pop":48739,"capital":false},{"name":"Al Qusais 1","country":"AE","lat":25.2793,"lng":55.37,"pop":48378,"capital":false},{"name":"Shināş","country":"OM","lat":24.7426,"lng":56.467,"pop":48009,"capital":false},{"name":"Sufālat Samā’il","country":"OM","lat":23.3167,"lng":58.0167,"pop":47718,"capital":false},{"name":"Makū","country":"IR","lat":27.8486,"lng":52.423,"pop":46581,"capital":false},{"name":"Neyrīz","country":"IR","lat":29.1988,"lng":54.3278,"pop":45506,"capital":false},{"name":"Madīnat Khalīfah","country":"QA","lat":25.3205,"lng":51.4779,"pop":44459,"capital":false},{"name":"An Najmah","country":"QA","lat":25.267,"lng":51.5432,"pop":43695,"capital":false},{"name":"Mankhūl","country":"AE","lat":25.2461,"lng":55.2922,"pop":41244,"capital":false},{"name":"Raḩīmah","country":"SA","lat":26.7079,"lng":50.0619,"pop":41188,"capital":false},{"name":"As Saţwah","country":"AE","lat":25.2219,"lng":55.2746,"pop":40997,"capital":false},{"name":"Khūrmūj","country":"IR","lat":28.6543,"lng":51.38,"pop":40722,"capital":false},{"name":"Khawr Fakkān","country":"AE","lat":25.3313,"lng":56.342,"pop":40677,"capital":false},{"name":"Kīsh","country":"IR","lat":26.5578,"lng":54.0194,"pop":39853,"capital":false},{"name":"Al ‘Unayzah","country":"QA","lat":25.3376,"lng":51.5095,"pop":39761,"capital":false},{"name":"Umm Ghuwaylīnah","country":"QA","lat":25.5872,"lng":51.1499,"pop":39457,"capital":false},{"name":"Jumayrā","country":"AE","lat":25.208,"lng":55.2497,"pop":39080,"capital":false},{"name":"Ar Rāshidīyah","country":"AE","lat":25.225,"lng":55.3895,"pop":38425,"capital":false},{"name":"Madīnat ‘Īsá","country":"BH","lat":26.1736,"lng":50.5478,"pop":38090,"capital":false},{"name":"Kalbā","country":"AE","lat":25.0513,"lng":56.3542,"pop":37545,"capital":false},{"name":"Estahbān","country":"IR","lat":29.1266,"lng":54.0421,"pop":36410,"capital":false},{"name":"Izkī","country":"OM","lat":22.9333,"lng":57.7667,"pop":36203,"capital":false},{"name":"Rūdān","country":"IR","lat":27.4419,"lng":57.192,"pop":36121,"capital":false},{"name":"As Sadd","country":"QA","lat":25.2862,"lng":51.5007,"pop":36077,"capital":false},{"name":"Dubai International Financial Centre","country":"AE","lat":25.2106,"lng":55.2779,"pop":36000,"capital":false},{"name":"Bāft","country":"IR","lat":29.2331,"lng":56.6022,"pop":34517,"capital":false},{"name":"Gerāsh","country":"IR","lat":27.6697,"lng":54.1359,"pop":34469,"capital":false},{"name":"Farīj Kulayb","country":"QA","lat":25.3131,"lng":51.4929,"pop":33263,"capital":false},{"name":"Farīj al Amīr","country":"QA","lat":25.2873,"lng":51.4714,"pop":33263,"capital":false},{"name":"Zarqān","country":"IR","lat":29.7724,"lng":52.7189,"pop":32261,"capital":false},{"name":"Kavār","country":"IR","lat":29.2051,"lng":52.6904,"pop":31711,"capital":false},{"name":"Jam","country":"IR","lat":27.8298,"lng":52.3252,"pop":31436,"capital":false},{"name":"Bandar-e Lengeh","country":"IR","lat":26.5621,"lng":54.8838,"pop":30435,"capital":false},{"name":"Dibba Al-Fujairah","country":"AE","lat":25.5925,"lng":56.2618,"pop":30000,"capital":false},{"name":"Umm Şalāl Muḩammad","country":"QA","lat":25.4152,"lng":51.4065,"pop":29391,"capital":false},{"name":"Lamerd","country":"IR","lat":27.334,"lng":53.179,"pop":29380,"capital":false},{"name":"Mu‘aydhir Rawḑat Rāshid","country":"QA","lat":25.2617,"lng":51.3968,"pop":27569,"capital":false},{"name":"As Sulţah al Jadīdah","country":"QA","lat":25.2604,"lng":51.514,"pop":27432,"capital":false},{"name":"Al Ḩamīdīyah","country":"AE","lat":25.4,"lng":55.5293,"pop":27000,"capital":false},{"name":"Qā’emīyeh","country":"IR","lat":29.8518,"lng":51.5879,"pop":26918,"capital":false},{"name":"Al Wakrah","country":"QA","lat":25.1715,"lng":51.6034,"pop":26436,"capital":false},{"name":"Dibba Al-Hisn","country":"AE","lat":25.6196,"lng":56.2729,"pop":26395,"capital":false},{"name":"Liwá","country":"OM","lat":24.5308,"lng":56.563,"pop":26372,"capital":false},{"name":"Al Furjan","country":"AE","lat":25.0265,"lng":55.1457,"pop":26000,"capital":false},{"name":"The Palm Jumeirah","country":"AE","lat":25.1161,"lng":55.1351,"pop":25500,"capital":false},{"name":"Ibrā’","country":"OM","lat":22.6906,"lng":58.5334,"pop":25265,"capital":false},{"name":"Bardsīr","country":"IR","lat":29.9227,"lng":56.5743,"pop":25152,"capital":false},{"name":"Ar Ruways","country":"AE","lat":24.1103,"lng":52.7306,"pop":25000,"capital":false},{"name":"Qeshm","country":"IR","lat":26.9492,"lng":56.2691,"pop":25000,"capital":false},{"name":"Bandar-e Deyr","country":"IR","lat":27.8399,"lng":51.9378,"pop":24083,"capital":false},{"name":"Dubai Internet City","country":"AE","lat":25.0954,"lng":55.1617,"pop":24000,"capital":false},{"name":"Ḩājjīābād","country":"IR","lat":28.3091,"lng":55.9017,"pop":23309,"capital":false},{"name":"‘Ālī Shahr","country":"IR","lat":28.9313,"lng":51.0657,"pop":23178,"capital":false},{"name":"Baravāt","country":"IR","lat":29.0663,"lng":58.4046,"pop":22761,"capital":false},{"name":"Ath Thumāmah Sab‘ah wa Arba‘ūn","country":"QA","lat":25.239,"lng":51.5633,"pop":22284,"capital":false},{"name":"Ath Thumāmah Sittah wa Arba‘ūn","country":"QA","lat":25.234,"lng":51.5405,"pop":22284,"capital":false},{"name":"Ath Thumāmah Khamsūn","country":"QA","lat":25.2196,"lng":51.5532,"pop":22284,"capital":false},{"name":"Al Wasl","country":"AE","lat":25.1988,"lng":55.2557,"pop":22153,"capital":false},{"name":"Ḩājjīābād","country":"IR","lat":28.3574,"lng":54.4234,"pop":21675,"capital":false},{"name":"Al Waheda","country":"AE","lat":25.2917,"lng":55.3382,"pop":21608,"capital":false},{"name":"Bidbid","country":"OM","lat":23.4079,"lng":58.1283,"pop":21188,"capital":false},{"name":"Farrāshband","country":"IR","lat":28.8601,"lng":52.0945,"pop":20320,"capital":false},{"name":"Adh Dhayd","country":"AE","lat":25.2881,"lng":55.8816,"pop":20165,"capital":false},{"name":"Najafshahr","country":"IR","lat":29.3858,"lng":55.7176,"pop":20164,"capital":false},{"name":"‘Inak","country":"SA","lat":26.5196,"lng":50.0272,"pop":20038,"capital":false},{"name":"Qīr","country":"IR","lat":28.4825,"lng":53.0346,"pop":20010,"capital":false},{"name":"Evaz","country":"IR","lat":27.7622,"lng":54.0042,"pop":19987,"capital":false},{"name":"Nu‘ayjah","country":"QA","lat":25.2462,"lng":51.5323,"pop":19975,"capital":false},{"name":"Al Murar al Qadīm","country":"AE","lat":25.2758,"lng":55.3074,"pop":19831,"capital":false},{"name":"Halwan","country":"AE","lat":25.3459,"lng":55.4217,"pop":19389,"capital":false},{"name":"Khonj","country":"IR","lat":27.8913,"lng":53.4344,"pop":19217,"capital":false},{"name":"Bandar-e Kong","country":"IR","lat":26.5978,"lng":54.9369,"pop":19213,"capital":false},{"name":"Al Ghānim","country":"QA","lat":25.2799,"lng":51.5404,"pop":19010,"capital":false},{"name":"Al Khawr","country":"QA","lat":25.6839,"lng":51.5058,"pop":18923,"capital":false},{"name":"Āb Pakhsh","country":"IR","lat":29.3586,"lng":51.0742,"pop":18913,"capital":false},{"name":"Nakhl-e Taqī","country":"IR","lat":27.4975,"lng":52.5865,"pop":18837,"capital":false},{"name":"Al Bada'a","country":"AE","lat":25.2246,"lng":55.2689,"pop":18816,"capital":false},{"name":"Choghādak","country":"IR","lat":28.986,"lng":51.0364,"pop":18702,"capital":false},{"name":"Bur Dubai","country":"AE","lat":25.2604,"lng":55.2989,"pop":18698,"capital":false},{"name":"Badīyah","country":"OM","lat":22.45,"lng":58.8,"pop":18479,"capital":false},{"name":"Sarvestān","country":"IR","lat":29.2735,"lng":53.2203,"pop":18187,"capital":false},{"name":"‘Anbarābād","country":"IR","lat":28.4759,"lng":57.848,"pop":18185,"capital":false},{"name":"Pārsiān","country":"IR","lat":27.2083,"lng":53.0361,"pop":18045,"capital":false},{"name":"Abū Hayl","country":"AE","lat":25.2841,"lng":55.3315,"pop":18043,"capital":false},{"name":"Al Jurf","country":"AE","lat":25.4181,"lng":55.5079,"pop":18000,"capital":false},{"name":"Khasab","country":"OM","lat":26.1799,"lng":56.2477,"pop":17904,"capital":false},{"name":"Arsanjān","country":"IR","lat":29.9124,"lng":53.3085,"pop":17706,"capital":false},{"name":"Al Mizhar First","country":"AE","lat":25.2481,"lng":55.4413,"pop":17498,"capital":false},{"name":"Adam","country":"OM","lat":22.3793,"lng":57.5272,"pop":17283,"capital":false},{"name":"Umm Lakhbā","country":"QA","lat":25.3416,"lng":51.4706,"pop":16993,"capital":false},{"name":"Jask","country":"IR","lat":25.6453,"lng":57.7755,"pop":16680,"capital":false},{"name":"Yanqul","country":"OM","lat":23.5865,"lng":56.5397,"pop":16599,"capital":false},{"name":"Umm Suqaym","country":"AE","lat":25.1549,"lng":55.2102,"pop":16459,"capital":false},{"name":"Al Safa","country":"AE","lat":25.1705,"lng":55.2334,"pop":15672,"capital":false},{"name":"Manūjān","country":"IR","lat":27.3989,"lng":57.4972,"pop":15634,"capital":false},{"name":"Al Hilāl al Gharbīyah","country":"QA","lat":25.2586,"lng":51.531,"pop":15461,"capital":false},{"name":"Al Hilāl ash Sharqīyah","country":"QA","lat":25.2604,"lng":51.5463,"pop":15461,"capital":false},{"name":"Ḩattā","country":"AE","lat":24.8007,"lng":56.1273,"pop":15324,"capital":false},{"name":"Bandar-e Khamīr","country":"IR","lat":26.9521,"lng":55.5851,"pop":15320,"capital":false},{"name":"Ahram","country":"IR","lat":28.8826,"lng":51.2746,"pop":15198,"capital":false},{"name":"Knowledge Village","country":"AE","lat":25.1022,"lng":55.1643,"pop":15000,"capital":false},{"name":"Dubai Sports City","country":"AE","lat":25.0388,"lng":55.2173,"pop":15000,"capital":false},{"name":"Masdar City","country":"AE","lat":24.4321,"lng":54.6158,"pop":15000,"capital":false},{"name":"Ad Dawḩah al Jadīdah","country":"QA","lat":25.2771,"lng":51.5329,"pop":15000,"capital":false},{"name":"Dargahān","country":"IR","lat":26.9632,"lng":56.0628,"pop":14525,"capital":false},{"name":"Banak","country":"IR","lat":27.871,"lng":52.0274,"pop":14126,"capital":false},{"name":"Al Qābil","country":"OM","lat":22.571,"lng":58.6947,"pop":14008,"capital":false},{"name":"Dabīrān","country":"IR","lat":28.4061,"lng":54.188,"pop":13809,"capital":false},{"name":"Jannat Shahr","country":"IR","lat":28.6545,"lng":54.685,"pop":13598,"capital":false},{"name":"Nadd al Ḩumr","country":"AE","lat":25.2013,"lng":55.3839,"pop":13589,"capital":false},{"name":"Bandar-e ‘Asalūyah","country":"IR","lat":27.4738,"lng":52.6078,"pop":13557,"capital":false},{"name":"Galehdār","country":"IR","lat":27.6595,"lng":52.6575,"pop":13448,"capital":false},{"name":"Rābor","country":"IR","lat":29.2912,"lng":56.9131,"pop":13263,"capital":false},{"name":"Downtown Dubai","country":"AE","lat":25.1941,"lng":55.2781,"pop":13201,"capital":false},{"name":"Ar Rams","country":"AE","lat":25.8766,"lng":56.0186,"pop":13000,"capital":false},{"name":"Fannūj","country":"IR","lat":26.5753,"lng":59.6414,"pop":13000,"capital":false},{"name":"Al Qusais Second","country":"AE","lat":25.2715,"lng":55.386,"pop":12851,"capital":false},{"name":"Al Ḩadd","country":"BH","lat":26.2456,"lng":50.6542,"pop":12797,"capital":false},{"name":"Al Khawaneej 1","country":"AE","lat":25.2488,"lng":55.4855,"pop":12241,"capital":false},{"name":"Kākī","country":"IR","lat":28.3386,"lng":51.5236,"pop":12119,"capital":false},{"name":"Al Twar First","country":"AE","lat":25.2715,"lng":55.3617,"pop":12114,"capital":false},{"name":"Al Mizhar Second","country":"AE","lat":25.2433,"lng":55.4619,"pop":11967,"capital":false},{"name":"As Saţwah Sharq","country":"AE","lat":25.238,"lng":55.2868,"pop":11619,"capital":false},{"name":"Al Markhīyah","country":"QA","lat":25.3249,"lng":51.4984,"pop":11272,"capital":false},{"name":"Vaḩdattīyeh","country":"IR","lat":29.4843,"lng":51.2306,"pop":11222,"capital":false},{"name":"Al Twar 3","country":"AE","lat":25.2516,"lng":55.3941,"pop":11185,"capital":false},{"name":"Būr Sa‘īd","country":"AE","lat":25.261,"lng":55.3302,"pop":11142,"capital":false},{"name":"Bayt al ‘Awābī","country":"OM","lat":23.3032,"lng":57.5246,"pop":10711,"capital":false},{"name":"Darb-e Behesht","country":"IR","lat":29.2359,"lng":57.3322,"pop":10670,"capital":false},{"name":"Galmūrtī","country":"IR","lat":27.4823,"lng":59.4466,"pop":10292,"capital":false},{"name":"Rāyen","country":"IR","lat":29.5977,"lng":57.4386,"pop":10286,"capital":false},{"name":"Shāpūr Jān","country":"IR","lat":29.5323,"lng":52.4668,"pop":10280,"capital":false},{"name":"Al Jazīrah al Ḩamrā’","country":"AE","lat":25.7091,"lng":55.8077,"pop":10190,"capital":false},{"name":"Meymand","country":"IR","lat":28.8691,"lng":52.7502,"pop":10120,"capital":false},{"name":"Dārīūn","country":"IR","lat":29.5636,"lng":52.9292,"pop":10037,"capital":false},{"name":"Muzayri‘","country":"AE","lat":23.1436,"lng":53.7881,"pop":10000,"capital":false},{"name":"Bandar-e Shīrīnū","country":"IR","lat":27.6256,"lng":52.4756,"pop":9976,"capital":false},{"name":"Bastak","country":"IR","lat":27.1991,"lng":54.3668,"pop":9959,"capital":false},{"name":"Mīnā’ Dabā","country":"OM","lat":25.6506,"lng":56.2652,"pop":9863,"capital":false},{"name":"Zāhed Shahr","country":"IR","lat":28.75,"lng":53.8022,"pop":9719,"capital":false},{"name":"Khasht","country":"IR","lat":27.2346,"lng":53.4352,"pop":9599,"capital":false},{"name":"Golbāf","country":"IR","lat":29.885,"lng":57.7305,"pop":9205,"capital":false},{"name":"Eshkanān","country":"IR","lat":27.2293,"lng":53.6082,"pop":9115,"capital":false},{"name":"Zeydābād","country":"IR","lat":29.6,"lng":55.537,"pop":9112,"capital":false},{"name":"Az Zallāq","country":"BH","lat":26.0475,"lng":50.4864,"pop":9095,"capital":false},{"name":"Maşfūţ","country":"AE","lat":24.8109,"lng":56.1066,"pop":8988,"capital":false},{"name":"Lapū’ī","country":"IR","lat":29.8005,"lng":52.6529,"pop":8985,"capital":false},{"name":"Shahr-e Pīr","country":"IR","lat":28.3104,"lng":54.3347,"pop":8927,"capital":false},{"name":"Bīdkhūn","country":"IR","lat":27.4789,"lng":52.6672,"pop":8886,"capital":false},{"name":"Aţ Ţarfah","country":"QA","lat":25.3733,"lng":51.4899,"pop":8882,"capital":false},{"name":"Kārzīn","country":"IR","lat":28.4087,"lng":53.1075,"pop":8841,"capital":false},{"name":"Solţānābād","country":"IR","lat":29.5292,"lng":52.5436,"pop":8734,"capital":false},{"name":"Al Madam","country":"AE","lat":24.9736,"lng":55.7778,"pop":8652,"capital":false},{"name":"Dubai Motor City","country":"AE","lat":25.0459,"lng":55.241,"pop":8561,"capital":false},{"name":"Al Hitmī","country":"QA","lat":25.2849,"lng":51.5461,"pop":8386,"capital":false},{"name":"Farīq al Hitmī","country":"QA","lat":25.2863,"lng":51.5326,"pop":8386,"capital":false},{"name":"Ash Shīḩānīyah","country":"QA","lat":25.3709,"lng":51.2226,"pop":8380,"capital":false},{"name":"Oud Metha","country":"AE","lat":25.2369,"lng":55.3142,"pop":8321,"capital":false},{"name":"Sa‘dābād","country":"IR","lat":29.3845,"lng":51.1148,"pop":8248,"capital":false},{"name":"Ar Riqqah","country":"AE","lat":25.268,"lng":55.3127,"pop":8222,"capital":false},{"name":"Khārk","country":"IR","lat":29.2614,"lng":50.3306,"pop":8193,"capital":false},{"name":"Jūyom","country":"IR","lat":28.2548,"lng":53.9811,"pop":8010,"capital":false},{"name":"Pārīz","country":"IR","lat":29.8721,"lng":55.7496,"pop":8005,"capital":false},{"name":"DAMAC Hills","country":"AE","lat":25.0292,"lng":55.2528,"pop":8000,"capital":false},{"name":"Shabānkāreh","country":"IR","lat":29.4724,"lng":50.9952,"pop":7900,"capital":false},{"name":"Mohr","country":"IR","lat":27.5521,"lng":52.8816,"pop":7784,"capital":false},{"name":"Al Hudaiba","country":"AE","lat":25.2415,"lng":55.2781,"pop":7699,"capital":false},{"name":"Sha'biyyat Al Hiyar","country":"AE","lat":24.5824,"lng":55.7467,"pop":7610,"capital":false},{"name":"Deh Qā’ed","country":"IR","lat":29.2984,"lng":51.1942,"pop":7509,"capital":false},{"name":"Qoţbābād","country":"IR","lat":28.6412,"lng":53.6384,"pop":7476,"capital":false},{"name":"Ābādeh Ţashk","country":"IR","lat":29.8108,"lng":53.7275,"pop":7379,"capital":false},{"name":"Khūr","country":"IR","lat":27.6461,"lng":54.3439,"pop":7338,"capital":false},{"name":"Laţīfī","country":"IR","lat":27.6901,"lng":54.3872,"pop":7300,"capital":false},{"name":"Beyram","country":"IR","lat":27.432,"lng":53.5141,"pop":7300,"capital":false},{"name":"Gūyom","country":"IR","lat":29.823,"lng":52.3946,"pop":7297,"capital":false},{"name":"Dukhān","country":"QA","lat":25.4249,"lng":50.7823,"pop":7250,"capital":false},{"name":"Bī Kāh","country":"IR","lat":27.3546,"lng":57.1782,"pop":7190,"capital":false},{"name":"Bardestān","country":"IR","lat":27.8733,"lng":51.9608,"pop":7112,"capital":false},{"name":"Bāb Anār","country":"IR","lat":28.9642,"lng":53.2163,"pop":7061,"capital":false},{"name":"Bandar-e Sīraf","country":"IR","lat":27.6657,"lng":52.3462,"pop":6992,"capital":false},{"name":"Jenāḩ","country":"IR","lat":27.0202,"lng":54.284,"pop":6910,"capital":false},{"name":"Orzū’īyeh","country":"IR","lat":28.4532,"lng":56.3599,"pop":6868,"capital":false},{"name":"Zehkalūt","country":"IR","lat":27.7925,"lng":58.5876,"pop":6835,"capital":false},{"name":"Ābdān","country":"IR","lat":28.0799,"lng":51.7682,"pop":6827,"capital":false},{"name":"Akhand","country":"IR","lat":27.4361,"lng":52.75,"pop":6775,"capital":false},{"name":"Al Khabaisi","country":"AE","lat":25.2663,"lng":55.3338,"pop":6737,"capital":false},{"name":"Sanābis","country":"BH","lat":26.2272,"lng":50.5508,"pop":6564,"capital":false},{"name":"Mushayrif","country":"AE","lat":25.4098,"lng":55.4711,"pop":6539,"capital":false},{"name":"Shakhbout City","country":"AE","lat":24.3673,"lng":54.6372,"pop":6515,"capital":false},{"name":"Dālakī","country":"IR","lat":29.4294,"lng":51.2931,"pop":6436,"capital":false},{"name":"Umm Al Sheif","country":"AE","lat":25.1323,"lng":55.2057,"pop":6263,"capital":false},{"name":"Bandar-e Rīg","country":"IR","lat":29.4879,"lng":50.627,"pop":6252,"capital":false},{"name":"Īj","country":"IR","lat":29.0214,"lng":54.2459,"pop":6246,"capital":false},{"name":"Tafīhān","country":"IR","lat":29.4207,"lng":52.6639,"pop":6170,"capital":false},{"name":"Bālā Deh","country":"IR","lat":27.4023,"lng":53.5799,"pop":6162,"capital":false},{"name":"Vālāshāhr","country":"IR","lat":29.2869,"lng":51.9425,"pop":5972,"capital":false},{"name":"Miyanshahr","country":"IR","lat":28.7175,"lng":53.8576,"pop":5912,"capital":false},{"name":"Hormoz","country":"IR","lat":27.095,"lng":56.4529,"pop":5891,"capital":false},{"name":"Ţūlā","country":"IR","lat":26.9789,"lng":56.2112,"pop":5874,"capital":false},{"name":"Fārūq","country":"IR","lat":29.9635,"lng":53.0451,"pop":5860,"capital":false},{"name":"Halor","country":"IR","lat":26.9669,"lng":56.0834,"pop":5828,"capital":false},{"name":"Al Manāmah","country":"AE","lat":25.3299,"lng":56.0219,"pop":5823,"capital":false},{"name":"Bent","country":"IR","lat":26.2932,"lng":59.5183,"pop":5822,"capital":false},{"name":"Akbarābād","country":"IR","lat":29.2461,"lng":52.7808,"pop":5817,"capital":false},{"name":"Emām Shahr","country":"IR","lat":28.4468,"lng":53.1533,"pop":5803,"capital":false},{"name":"Berenţīn","country":"IR","lat":27.2832,"lng":57.2236,"pop":5799,"capital":false},{"name":"Musay‘īd","country":"QA","lat":24.9923,"lng":51.5507,"pop":5769,"capital":false},{"name":"Rūnīz","country":"IR","lat":29.192,"lng":53.7687,"pop":5760,"capital":false},{"name":"Sūzā","country":"IR","lat":26.7807,"lng":56.063,"pop":5707,"capital":false},{"name":"Morghān","country":"IR","lat":29.5624,"lng":52.6501,"pop":5660,"capital":false},{"name":"Eslāmābād","country":"IR","lat":27.3836,"lng":57.1619,"pop":5618,"capital":false},{"name":"Nowdezh","country":"IR","lat":27.5273,"lng":57.4571,"pop":5562,"capital":false},{"name":"Suwayḩān","country":"AE","lat":24.4624,"lng":55.3372,"pop":5403,"capital":false},{"name":"Fīshvar","country":"IR","lat":27.7983,"lng":53.6847,"pop":5395,"capital":false},{"name":"Za'abeel","country":"AE","lat":25.2254,"lng":55.305,"pop":5283,"capital":false},{"name":"Madīnat ash Shamāl","country":"QA","lat":26.1293,"lng":51.2009,"pop":5267,"capital":false},{"name":"Al Wukayr","country":"QA","lat":25.1511,"lng":51.5372,"pop":5146,"capital":false},{"name":"AL Twar Second","country":"AE","lat":25.2631,"lng":55.3803,"pop":5068,"capital":false},{"name":"Kīānābād","country":"IR","lat":29.5447,"lng":52.4647,"pop":5039,"capital":false},{"name":"Umm Şalāl ‘Alī","country":"QA","lat":25.4697,"lng":51.3975,"pop":0,"capital":false}]