[{"name":"Parand","country":"IR","lat":35.472,"lng":50.9755,"pop":97464,"capital":false},{"name":"Yasuj","country":"IR","lat":30.6682,"lng":51.588,"pop":96786,"capital":false},{"name":"Dogonbadan","country":"IR","lat":30.3586,"lng":50.7981,"pop":96728,"capital":false},{"name":"Behshahr","country":"IR","lat":36.6924,"lng":53.5526,"pop":94702,"capital":false},{"name":"Moḩammadīyeh","country":"IR","lat":36.2237,"lng":50.1825,"pop":90513,"capital":false},{"name":"Alvand","country":"IR","lat":36.1893,"lng":50.0643,"pop":90000,"capital":false},{"name":"Fūlād Shahr","country":"IR","lat":32.4866,"lng":51.3967,"pop":88426,"capital":false},{"name":"Balkanabat","country":"TM","lat":39.5108,"lng":54.3671,"pop":87822,"capital":false},{"name":"Tajrīsh","country":"IR","lat":35.8044,"lng":51.4256,"pop":86000,"capital":false},{"name":"Mehestan","country":"IR","lat":35.9891,"lng":50.7451,"pop":85200,"capital":false},{"name":"Bāghestān","country":"IR","lat":35.6471,"lng":51.1338,"pop":83934,"capital":false},{"name":"Shīrvān","country":"IR","lat":37.3967,"lng":57.9295,"pop":82790,"capital":false},{"name":"Būmahen","country":"IR","lat":35.7297,"lng":51.8688,"pop":79034,"capital":false},{"name":"Khomeyn","country":"IR","lat":33.6389,"lng":50.08,"pop":77425,"capital":false},{"name":"Mobārakeh","country":"IR","lat":32.3461,"lng":51.502,"pop":69449,"capital":false},{"name":"Langarūd","country":"IR","lat":37.1955,"lng":50.1526,"pop":68148,"capital":false},{"name":"Dāmghān","country":"IR","lat":36.1679,"lng":54.3429,"pop":67694,"capital":false},{"name":"Ārān Bīdgol","country":"IR","lat":34.0575,"lng":51.4829,"pop":65404,"capital":false},{"name":"Bāqershahr","country":"IR","lat":35.5316,"lng":51.4048,"pop":65388,"capital":false},{"name":"Māhdāsht","country":"IR","lat":35.7282,"lng":50.8134,"pop":62910,"capital":false},{"name":"Meshkīn Dasht","country":"IR","lat":35.7499,"lng":50.9438,"pop":62005,"capital":false},{"name":"Nekā","country":"IR","lat":36.6508,"lng":53.2991,"pop":60991,"capital":false},{"name":"Ābyek","country":"IR","lat":36.0399,"lng":50.531,"pop":60107,"capital":false},{"name":"Esfarāyen","country":"IR","lat":37.0765,"lng":57.5101,"pop":59490,"capital":false},{"name":"Abadeh","country":"IR","lat":31.1608,"lng":52.6506,"pop":59116,"capital":false},{"name":"Zarand","country":"IR","lat":30.8127,"lng":56.564,"pop":58983,"capital":false},{"name":"Golpāyegān","country":"IR","lat":33.4537,"lng":50.2884,"pop":58936,"capital":false},{"name":"Ardakān","country":"IR","lat":32.31,"lng":54.0175,"pop":58834,"capital":false},{"name":"Ṣāleḥīeh","country":"IR","lat":35.5053,"lng":51.1914,"pop":58683,"capital":false},{"name":"Borūjen","country":"IR","lat":31.9652,"lng":51.2873,"pop":57071,"capital":false},{"name":"Nūrābād","country":"IR","lat":30.1141,"lng":51.5217,"pop":57058,"capital":false},{"name":"Dehdasht","country":"IR","lat":30.7934,"lng":50.5651,"pop":57036,"capital":false},{"name":"Malārd","country":"IR","lat":35.6659,"lng":50.9767,"pop":56745,"capital":false},{"name":"Zarrīn Shahr","country":"IR","lat":32.3906,"lng":51.3765,"pop":55817,"capital":false},{"name":"Hashtgerd","country":"IR","lat":35.962,"lng":50.6799,"pop":55640,"capital":false},{"name":"Ābyek","country":"IR","lat":36.0667,"lng":50.55,"pop":55128,"capital":false},{"name":"Şabbāshahr","country":"IR","lat":35.5803,"lng":51.1139,"pop":53971,"capital":false},{"name":"Bandar-e Torkaman","country":"IR","lat":36.9012,"lng":54.072,"pop":53970,"capital":false},{"name":"Chenārān","country":"IR","lat":36.6455,"lng":59.1212,"pop":53879,"capital":false},{"name":"Pīshvā","country":"IR","lat":35.308,"lng":51.7267,"pop":53856,"capital":false},{"name":"'Alī Ābād-e Katūl","country":"IR","lat":36.9101,"lng":54.8674,"pop":52838,"capital":false},{"name":"Meybod","country":"IR","lat":32.2501,"lng":54.0166,"pop":51874,"capital":false},{"name":"Shahr-e Bābak","country":"IR","lat":30.1165,"lng":55.1186,"pop":51620,"capital":false},{"name":"Tabas","country":"IR","lat":33.5959,"lng":56.9244,"pop":49993,"capital":false},{"name":"Chahār Dangeh","country":"IR","lat":35.6031,"lng":51.3098,"pop":49950,"capital":false},{"name":"Falāvarjān","country":"IR","lat":32.5553,"lng":51.5097,"pop":49843,"capital":false},{"name":"Īstgāh-e Rāh Āhan-e Garmsār","country":"IR","lat":35.2346,"lng":52.3094,"pop":49491,"capital":false},{"name":"Rehnān","country":"IR","lat":32.6833,"lng":51.6016,"pop":49143,"capital":false},{"name":"Garmsār","country":"IR","lat":35.2182,"lng":52.3409,"pop":48672,"capital":false},{"name":"Gyzylarbat","country":"TM","lat":38.9764,"lng":56.2758,"pop":48558,"capital":false},{"name":"Bābolsar","country":"IR","lat":36.6993,"lng":52.6501,"pop":48051,"capital":false},{"name":"Āzādshahr","country":"IR","lat":37.0864,"lng":55.1722,"pop":47590,"capital":false},{"name":"Rūdsar","country":"IR","lat":37.137,"lng":50.2917,"pop":47502,"capital":false},{"name":"Bāfq","country":"IR","lat":31.6035,"lng":55.4025,"pop":45453,"capital":false},{"name":"Eqlīd","country":"IR","lat":30.8989,"lng":52.697,"pop":44341,"capital":false},{"name":"Naţanz","country":"IR","lat":33.5112,"lng":51.9181,"pop":43977,"capital":false},{"name":"Ḩasanābād","country":"IR","lat":35.3673,"lng":51.235,"pop":43922,"capital":false},{"name":"Gonābād","country":"IR","lat":34.3529,"lng":58.6837,"pop":43465,"capital":false},{"name":"Maḩallāt","country":"IR","lat":33.9111,"lng":50.4532,"pop":43245,"capital":false},{"name":"Lordegān","country":"IR","lat":31.5134,"lng":50.8267,"pop":40528,"capital":false},{"name":"Arkadag","country":"TM","lat":38.0713,"lng":58.0656,"pop":40524,"capital":false},{"name":"Rāvar","country":"IR","lat":31.2656,"lng":56.8055,"pop":40167,"capital":false},{"name":"Qā’en","country":"IR","lat":33.7265,"lng":59.1844,"pop":40157,"capital":false},{"name":"Nowshahr","country":"IR","lat":36.6485,"lng":51.4962,"pop":40000,"capital":false},{"name":"Kord Kūy","country":"IR","lat":36.7931,"lng":54.1121,"pop":39881,"capital":false},{"name":"Abadan","country":"TM","lat":38.0542,"lng":58.1972,"pop":39481,"capital":false},{"name":"Bäherden","country":"TM","lat":38.4362,"lng":57.4316,"pop":37588,"capital":false},{"name":"Kahrīzak","country":"IR","lat":35.3465,"lng":51.8442,"pop":37527,"capital":false},{"name":"Kahrīzak","country":"IR","lat":35.5172,"lng":51.3605,"pop":37527,"capital":false},{"name":"Tonekābon","country":"IR","lat":36.8163,"lng":50.8738,"pop":37501,"capital":false},{"name":"Dorcheh Pīāz","country":"IR","lat":32.6153,"lng":51.5556,"pop":37462,"capital":false},{"name":"Golbahār","country":"IR","lat":36.5698,"lng":59.1904,"pop":36877,"capital":false},{"name":"Dargaz","country":"IR","lat":37.4445,"lng":59.1081,"pop":36762,"capital":false},{"name":"Eqbālīyeh","country":"IR","lat":35.3022,"lng":51.5358,"pop":36709,"capital":false},{"name":"Qīāmdasht","country":"IR","lat":35.5237,"lng":51.6505,"pop":36446,"capital":false},{"name":"Rāmsar","country":"IR","lat":36.918,"lng":50.648,"pop":35997,"capital":false},{"name":"Āq Qalā","country":"IR","lat":37.0139,"lng":54.455,"pop":35116,"capital":false},{"name":"Mahrīz","country":"IR","lat":31.5843,"lng":54.4428,"pop":34237,"capital":false},{"name":"Ferdowsīyeh","country":"IR","lat":35.6011,"lng":51.0645,"pop":34221,"capital":false},{"name":"Fereydūn Kenār","country":"IR","lat":36.6849,"lng":52.5192,"pop":34097,"capital":false},{"name":"Kalāleh","country":"IR","lat":37.379,"lng":55.493,"pop":33700,"capital":false},{"name":"Dowlatābād","country":"IR","lat":32.7998,"lng":51.6955,"pop":33607,"capital":false},{"name":"Delījān","country":"IR","lat":33.9905,"lng":50.6838,"pop":33508,"capital":false},{"name":"Gökdepe","country":"TM","lat":38.1586,"lng":57.9607,"pop":33381,"capital":false},{"name":"Kaka","country":"TM","lat":37.3482,"lng":59.6143,"pop":33315,"capital":false},{"name":"Vaḩīdīyeh","country":"IR","lat":35.7145,"lng":51.4709,"pop":33249,"capital":false},{"name":"Vaḩīdīyeh","country":"IR","lat":35.6071,"lng":51.0346,"pop":33249,"capital":false},{"name":"Jūybār","country":"IR","lat":36.6409,"lng":52.9121,"pop":32924,"capital":false},{"name":"Ṣafādasht","country":"IR","lat":35.6924,"lng":50.8483,"pop":32476,"capital":false},{"name":"Farrokh Shahr","country":"IR","lat":32.2717,"lng":50.9801,"pop":32391,"capital":false},{"name":"Maḩmūdābād","country":"IR","lat":36.6319,"lng":52.2629,"pop":31844,"capital":false},{"name":"Gumdag","country":"TM","lat":39.2061,"lng":54.5906,"pop":30884,"capital":false},{"name":"Fārsān","country":"IR","lat":32.2569,"lng":50.561,"pop":30504,"capital":false},{"name":"Amīr Kolā","country":"IR","lat":36.5967,"lng":52.6658,"pop":30478,"capital":false},{"name":"Mīnūdasht","country":"IR","lat":37.2302,"lng":55.3721,"pop":30085,"capital":false},{"name":"Eshtehārd","country":"IR","lat":35.7255,"lng":50.3662,"pop":29993,"capital":false},{"name":"Pāsārgād","country":"IR","lat":30.2019,"lng":53.18,"pop":29825,"capital":false},{"name":"Shahrak-e Qods","country":"IR","lat":35.7594,"lng":51.376,"pop":29774,"capital":false},{"name":"Qahderījān","country":"IR","lat":32.5773,"lng":51.4537,"pop":29392,"capital":false},{"name":"Khowrzūq","country":"IR","lat":32.778,"lng":51.6469,"pop":29154,"capital":false},{"name":"Damāvand","country":"IR","lat":35.7184,"lng":52.0696,"pop":29144,"capital":false},{"name":"Ferdows","country":"IR","lat":34.0185,"lng":58.1722,"pop":28965,"capital":false},{"name":"Änew","country":"TM","lat":37.8875,"lng":58.516,"pop":28653,"capital":false},{"name":"Nasirshahr","country":"IR","lat":35.4921,"lng":51.1384,"pop":28644,"capital":false},{"name":"Rūdehen","country":"IR","lat":35.7334,"lng":51.9059,"pop":28533,"capital":false},{"name":"Bardaskan","country":"IR","lat":35.2622,"lng":57.9708,"pop":28233,"capital":false},{"name":"Abarkūh","country":"IR","lat":31.1289,"lng":53.2824,"pop":27524,"capital":false},{"name":"Nā’īn","country":"IR","lat":32.8601,"lng":53.0875,"pop":27379,"capital":false},{"name":"Nūr","country":"IR","lat":36.5717,"lng":52.0153,"pop":26947,"capital":false},{"name":"Semīrom","country":"IR","lat":31.4167,"lng":51.5667,"pop":26942,"capital":false},{"name":"Şafāshahr","country":"IR","lat":30.6131,"lng":53.1954,"pop":26933,"capital":false},{"name":"Shahrak-e Ţāleqānī","country":"IR","lat":30.835,"lng":50.1987,"pop":25808,"capital":false},{"name":"Bandar-e Deylam","country":"IR","lat":30.0542,"lng":50.159,"pop":25730,"capital":false},{"name":"Kelīshād va Sūdarjān","country":"IR","lat":32.5512,"lng":51.5276,"pop":25635,"capital":false},{"name":"Shāhedshahr","country":"IR","lat":35.5729,"lng":51.085,"pop":25544,"capital":false},{"name":"Goldasht","country":"IR","lat":32.6284,"lng":51.4393,"pop":25235,"capital":false},{"name":"Āshkhāneh","country":"IR","lat":37.5615,"lng":56.9213,"pop":25104,"capital":false},{"name":"Bereket","country":"TM","lat":39.2446,"lng":55.5154,"pop":24500,"capital":false},{"name":"Gaz-e Borkhar","country":"IR","lat":32.8048,"lng":51.6209,"pop":24433,"capital":false},{"name":"Gālīkesh","country":"IR","lat":37.2726,"lng":55.4339,"pop":23394,"capital":false},{"name":"Mojtame‘-e Maskūnī-ye Nāmjū","country":"IR","lat":35.4723,"lng":51.724,"pop":22990,"capital":false},{"name":"Garmdarreh","country":"IR","lat":35.748,"lng":51.0687,"pop":22726,"capital":false},{"name":"Khānsār","country":"IR","lat":33.2205,"lng":50.315,"pop":21883,"capital":false},{"name":"Māmūnīyeh","country":"IR","lat":35.3045,"lng":50.4993,"pop":21814,"capital":false},{"name":"Tīrān","country":"IR","lat":32.7033,"lng":51.1538,"pop":21703,"capital":false},{"name":"Ferūnābād","country":"IR","lat":35.5156,"lng":51.6232,"pop":21682,"capital":false},{"name":"Shahrak-e ‘Alā’īn","country":"IR","lat":35.5823,"lng":51.4556,"pop":21594,"capital":false},{"name":"Hafshejān","country":"IR","lat":32.2266,"lng":50.7931,"pop":21352,"capital":false},{"name":"Galūgāh","country":"IR","lat":36.7273,"lng":53.8089,"pop":21352,"capital":false},{"name":"Galūgāh","country":"IR","lat":36.3105,"lng":52.6262,"pop":21352,"capital":false},{"name":"Mahdishahr","country":"IR","lat":35.7107,"lng":53.3539,"pop":21000,"capital":false},{"name":"Ţorqabeh","country":"IR","lat":36.3104,"lng":59.3735,"pop":20998,"capital":false},{"name":"Bandar-e Gaz","country":"IR","lat":36.7741,"lng":53.948,"pop":20742,"capital":false},{"name":"Katālem va Sādāt Shahr","country":"IR","lat":36.8888,"lng":50.6964,"pop":20716,"capital":false},{"name":"Sharīfābād","country":"IR","lat":36.2117,"lng":50.15,"pop":20347,"capital":false},{"name":"Dārān","country":"IR","lat":32.9874,"lng":50.4108,"pop":20078,"capital":false},{"name":"Surian","country":"IR","lat":30.4551,"lng":53.651,"pop":20000,"capital":false},{"name":"Abrīsham","country":"IR","lat":32.5561,"lng":51.5733,"pop":20000,"capital":false},{"name":"Līkak","country":"IR","lat":30.8949,"lng":50.0931,"pop":19857,"capital":false},{"name":"Jājarm","country":"IR","lat":36.9501,"lng":56.3801,"pop":19580,"capital":false},{"name":"Fāẕelābād","country":"IR","lat":36.898,"lng":54.7496,"pop":19461,"capital":false},{"name":"Māhān","country":"IR","lat":30.0594,"lng":57.292,"pop":19423,"capital":false},{"name":"Gomīshān","country":"IR","lat":37.0718,"lng":54.0765,"pop":19191,"capital":false},{"name":"Ashkez̄ar","country":"IR","lat":31.9968,"lng":54.2085,"pop":19123,"capital":false},{"name":"Sedeh Lanjān","country":"IR","lat":32.3787,"lng":51.316,"pop":19101,"capital":false},{"name":"Dīzīcheh","country":"IR","lat":32.3875,"lng":51.5102,"pop":18935,"capital":false},{"name":"Varnāmkhvāst","country":"IR","lat":32.3564,"lng":51.3787,"pop":18700,"capital":false},{"name":"Taft","country":"IR","lat":31.7438,"lng":54.2028,"pop":18464,"capital":false},{"name":"Lavāsān","country":"IR","lat":35.8216,"lng":51.6444,"pop":18146,"capital":false},{"name":"Mādavān","country":"IR","lat":30.7153,"lng":51.5413,"pop":18078,"capital":false},{"name":"Bīdestān","country":"IR","lat":36.231,"lng":50.1236,"pop":18060,"capital":false},{"name":"Dehāqān","country":"IR","lat":31.9399,"lng":51.6473,"pop":17945,"capital":false},{"name":"Dastgerd","country":"IR","lat":32.8021,"lng":51.6636,"pop":17775,"capital":false},{"name":"Ovrīn","country":"IR","lat":35.5477,"lng":51.1282,"pop":17577,"capital":false},{"name":"Fīrūzkūh","country":"IR","lat":35.7567,"lng":52.7706,"pop":17453,"capital":false},{"name":"Khabarābād","country":"IR","lat":35.5426,"lng":51.1481,"pop":17267,"capital":false},{"name":"Sīmīn Shahr","country":"IR","lat":37.0142,"lng":54.23,"pop":17205,"capital":false},{"name":"Sa‘ādat Shahr","country":"IR","lat":30.0792,"lng":53.1346,"pop":17131,"capital":false},{"name":"Tafresh","country":"IR","lat":34.6931,"lng":50.016,"pop":16493,"capital":false},{"name":"Sa‘īdābād","country":"IR","lat":35.6677,"lng":51.1858,"pop":16212,"capital":false},{"name":"Zīr Āb","country":"IR","lat":36.1797,"lng":52.9735,"pop":16191,"capital":false},{"name":"Shahrak-e Mohandesī-ye Zerā‘ī","country":"IR","lat":35.772,"lng":50.956,"pop":16104,"capital":false},{"name":"Ardestān","country":"IR","lat":33.3794,"lng":52.3698,"pop":16058,"capital":false},{"name":"Chamgordān","country":"IR","lat":32.3933,"lng":51.3394,"pop":15574,"capital":false},{"name":"Anār","country":"IR","lat":30.8707,"lng":55.2703,"pop":15532,"capital":false},{"name":"Morteẕá Gerd","country":"IR","lat":35.6025,"lng":51.3496,"pop":15506,"capital":false},{"name":"Amlash","country":"IR","lat":37.0966,"lng":50.1871,"pop":15444,"capital":false},{"name":"Magtymguly","country":"TM","lat":38.4375,"lng":56.2808,"pop":15386,"capital":false},{"name":"Boshrūyeh","country":"IR","lat":33.8685,"lng":57.4289,"pop":15318,"capital":false},{"name":"Charām","country":"IR","lat":30.7556,"lng":50.7452,"pop":15218,"capital":false},{"name":"Gorjī-ye Soflá","country":"IR","lat":36.3564,"lng":59.66,"pop":15163,"capital":false},{"name":"Jebel","country":"TM","lat":39.6342,"lng":54.2305,"pop":15056,"capital":false},{"name":"Qāderābād","country":"IR","lat":30.2778,"lng":53.2657,"pop":14973,"capital":false},{"name":"Neqāb","country":"IR","lat":36.7079,"lng":57.4215,"pop":14783,"capital":false},{"name":"Bād Rūd","country":"IR","lat":33.6908,"lng":52.0085,"pop":14723,"capital":false},{"name":"Hazar","country":"TM","lat":39.4063,"lng":53.1283,"pop":14671,"capital":false},{"name":"Ārdaḵān","country":"IR","lat":30.2596,"lng":51.9849,"pop":14633,"capital":false},{"name":"Imanshahr","country":"IR","lat":32.4735,"lng":51.477,"pop":14633,"capital":false},{"name":"Alavijeh","country":"IR","lat":33.0548,"lng":51.0833,"pop":14550,"capital":false},{"name":"Jūnqān","country":"IR","lat":32.1514,"lng":50.6875,"pop":14433,"capital":false},{"name":"Sāmān","country":"IR","lat":32.4501,"lng":50.9109,"pop":14192,"capital":false},{"name":"Aḥmad Ābād Mostūfī","country":"IR","lat":35.6396,"lng":51.2127,"pop":14077,"capital":false},{"name":"Sarāyān","country":"IR","lat":33.8602,"lng":58.5217,"pop":13795,"capital":false},{"name":"Golsār","country":"IR","lat":35.9097,"lng":50.7753,"pop":13745,"capital":false},{"name":"Charmahīn","country":"IR","lat":32.3389,"lng":51.1947,"pop":13732,"capital":false},{"name":"Ḩoseynābād-e Qorqī","country":"IR","lat":36.3996,"lng":59.6771,"pop":13644,"capital":false},{"name":"Fereydūnshahr","country":"IR","lat":32.942,"lng":50.1199,"pop":13603,"capital":false},{"name":"'Abās Ābād","country":"IR","lat":36.7277,"lng":51.1057,"pop":13482,"capital":false},{"name":"Pīr Bakrān","country":"IR","lat":32.4679,"lng":51.5597,"pop":13469,"capital":false},{"name":"Kalārdasht","country":"IR","lat":36.5109,"lng":51.1734,"pop":13401,"capital":false},{"name":"Farādonbeh","country":"IR","lat":32.0084,"lng":51.2121,"pop":13317,"capital":false},{"name":"Kūshk","country":"IR","lat":32.6422,"lng":51.4996,"pop":13248,"capital":false},{"name":"Khāvar Shahr","country":"IR","lat":35.556,"lng":51.5589,"pop":13203,"capital":false},{"name":"Noşratābād","country":"IR","lat":36.1627,"lng":50.1005,"pop":13090,"capital":false},{"name":"Herāt","country":"IR","lat":30.0541,"lng":54.3729,"pop":13032,"capital":false},{"name":"Ben","country":"IR","lat":32.5404,"lng":50.7452,"pop":12971,"capital":false},{"name":"Kīān","country":"IR","lat":32.2842,"lng":50.892,"pop":12948,"capital":false},{"name":"Esenguly","country":"TM","lat":37.4678,"lng":53.9777,"pop":12918,"capital":false},{"name":"Landeh","country":"IR","lat":30.9822,"lng":50.4206,"pop":12772,"capital":false},{"name":"Khalīlābād","country":"IR","lat":35.254,"lng":58.2857,"pop":12751,"capital":false},{"name":"Varzaneh","country":"IR","lat":33.5422,"lng":50.5011,"pop":12714,"capital":false},{"name":"Şoghād","country":"IR","lat":31.193,"lng":52.518,"pop":12582,"capital":false},{"name":"Etrek","country":"TM","lat":37.6611,"lng":54.7665,"pop":12508,"capital":false},{"name":"Kalā Chāy","country":"IR","lat":37.0796,"lng":50.3964,"pop":12379,"capital":false},{"name":"Sūreshjān","country":"IR","lat":32.3164,"lng":50.6771,"pop":12308,"capital":false},{"name":"Fārūj","country":"IR","lat":37.2312,"lng":58.219,"pop":12061,"capital":false},{"name":"Boldājī","country":"IR","lat":31.9376,"lng":51.0515,"pop":11980,"capital":false},{"name":"Qorqī-ye Soflá","country":"IR","lat":36.3928,"lng":59.6733,"pop":11952,"capital":false},{"name":"Dehrūd","country":"IR","lat":36.3503,"lng":59.6566,"pop":11869,"capital":false},{"name":"Nūshābād","country":"IR","lat":34.0797,"lng":51.4368,"pop":11838,"capital":false},{"name":"Zārach","country":"IR","lat":31.9911,"lng":54.2319,"pop":11691,"capital":false},{"name":"Rostam Kolā","country":"IR","lat":36.6778,"lng":53.4286,"pop":11686,"capital":false},{"name":"Qanavāt","country":"IR","lat":34.6133,"lng":51.0256,"pop":11667,"capital":false},{"name":"Ālārd","country":"IR","lat":35.513,"lng":51.0596,"pop":11616,"capital":false},{"name":"Khorramābād","country":"IR","lat":36.7826,"lng":50.8722,"pop":11542,"capital":false},{"name":"Kashaf","country":"IR","lat":36.3697,"lng":59.5779,"pop":11459,"capital":false},{"name":"Shīrūd","country":"IR","lat":36.8504,"lng":50.8032,"pop":11377,"capital":false},{"name":"Bahārān Shahr","country":"IR","lat":32.5122,"lng":51.5424,"pop":11284,"capital":false},{"name":"Hamadānak","country":"IR","lat":35.5429,"lng":51.1398,"pop":11216,"capital":false},{"name":"Bābā Ḩeydar","country":"IR","lat":32.3293,"lng":50.4681,"pop":11202,"capital":false},{"name":"Sarāb-e Tāveh","country":"IR","lat":30.5981,"lng":51.5768,"pop":11195,"capital":false},{"name":"Chamestān","country":"IR","lat":36.4782,"lng":52.1184,"pop":11194,"capital":false},{"name":"Khalīl Shahr","country":"IR","lat":36.7022,"lng":53.642,"pop":11032,"capital":false},{"name":"Kuhsar","country":"IR","lat":35.9647,"lng":50.7911,"pop":10940,"capital":false},{"name":"Khān Bebīn","country":"IR","lat":37.0123,"lng":54.9877,"pop":10878,"capital":false},{"name":"Gol Tappeh Kabīr","country":"IR","lat":35.4872,"lng":51.565,"pop":10850,"capital":false},{"name":"Bāsht","country":"IR","lat":30.361,"lng":51.1574,"pop":10764,"capital":false},{"name":"Kūhbanān","country":"IR","lat":31.4103,"lng":56.2826,"pop":10761,"capital":false},{"name":"Maḩalleh-ye Najafābād","country":"IR","lat":30.6316,"lng":51.5981,"pop":10742,"capital":false},{"name":"Qoroq","country":"IR","lat":36.5905,"lng":53.0549,"pop":10704,"capital":false},{"name":"Āb Sard","country":"IR","lat":35.6229,"lng":52.1532,"pop":10648,"capital":false},{"name":"Bāghīn","country":"IR","lat":30.1816,"lng":56.8031,"pop":10407,"capital":false},{"name":"Hachīrūd","country":"IR","lat":36.6848,"lng":51.3443,"pop":10398,"capital":false},{"name":"Araţeh","country":"IR","lat":36.4909,"lng":52.9506,"pop":10327,"capital":false},{"name":"Zibashahr","country":"IR","lat":32.3824,"lng":51.5678,"pop":10200,"capital":false},{"name":"Ardal","country":"IR","lat":31.9997,"lng":50.6623,"pop":10113,"capital":false},{"name":"Eslāmābād","country":"IR","lat":35.5605,"lng":51.5188,"pop":9999,"capital":false},{"name":"Sorkheh","country":"IR","lat":35.4633,"lng":53.214,"pop":9951,"capital":false},{"name":"Chādegān","country":"IR","lat":32.7683,"lng":50.6287,"pop":9924,"capital":false},{"name":"Naqneh","country":"IR","lat":31.9324,"lng":51.3293,"pop":9923,"capital":false},{"name":"Golshahr","country":"IR","lat":33.5072,"lng":50.4634,"pop":9904,"capital":false},{"name":"Ekhtīārābād","country":"IR","lat":30.3268,"lng":56.9203,"pop":9840,"capital":false},{"name":"Bavanat","country":"IR","lat":30.4873,"lng":53.5935,"pop":9776,"capital":false},{"name":"Qahjāvarestān","country":"IR","lat":32.7025,"lng":51.8388,"pop":9712,"capital":false},{"name":"Gorgāb","country":"IR","lat":32.8659,"lng":51.5973,"pop":9690,"capital":false},{"name":"Babaarap","country":"TM","lat":38.0974,"lng":58.1083,"pop":9681,"capital":false},{"name":"Salmānshahr","country":"IR","lat":36.7034,"lng":51.1957,"pop":9656,"capital":false},{"name":"Ḩabībābād","country":"IR","lat":32.8306,"lng":51.7763,"pop":9491,"capital":false},{"name":"Shahrak-e Ja‘farīyeh","country":"IR","lat":35.663,"lng":50.997,"pop":9452,"capital":false},{"name":"Mehrīān","country":"IR","lat":30.6991,"lng":51.564,"pop":9421,"capital":false},{"name":"Ja‘farīyeh","country":"IR","lat":34.7747,"lng":50.5169,"pop":9387,"capital":false},{"name":"Marvast","country":"IR","lat":30.4783,"lng":54.2117,"pop":9379,"capital":false},{"name":"Majlesī","country":"IR","lat":32.1989,"lng":51.5,"pop":9363,"capital":false},{"name":"Sūrak","country":"IR","lat":36.5949,"lng":53.2076,"pop":9208,"capital":false},{"name":"Garadepe","country":"TM","lat":38.0322,"lng":54.0356,"pop":9016,"capital":false},{"name":"Sharīfābād","country":"IR","lat":35.427,"lng":51.7846,"pop":8870,"capital":false},{"name":"Kolāksar","country":"IR","lat":36.4963,"lng":52.344,"pop":8843,"capital":false},{"name":"Chamkhāleh","country":"IR","lat":37.2319,"lng":50.2513,"pop":8840,"capital":false},{"name":"Āshtīān","country":"IR","lat":34.523,"lng":50.0061,"pop":8763,"capital":false},{"name":"Fīrūzābād","country":"IR","lat":35.5453,"lng":51.4844,"pop":8756,"capital":false},{"name":"Sarbīsheh","country":"IR","lat":32.5757,"lng":59.7982,"pop":8715,"capital":false},{"name":"Pardanjān","country":"IR","lat":32.2528,"lng":50.599,"pop":8699,"capital":false},{"name":"Hīv","country":"IR","lat":36.0315,"lng":50.647,"pop":8697,"capital":false},{"name":"Ýaňgala","country":"TM","lat":38.1232,"lng":57.9471,"pop":8657,"capital":false},{"name":"Basţām","country":"IR","lat":36.4853,"lng":54.9996,"pop":8609,"capital":false},{"name":"Seyyedān","country":"IR","lat":30.004,"lng":53.0058,"pop":8574,"capital":false},{"name":"Zangīābād","country":"IR","lat":30.4102,"lng":56.9172,"pop":8568,"capital":false},{"name":"Golmakān","country":"IR","lat":36.4813,"lng":59.1587,"pop":8373,"capital":false},{"name":"Jamkarān","country":"IR","lat":34.5857,"lng":50.9073,"pop":8368,"capital":false},{"name":"Pol-e Sefīd","country":"IR","lat":36.1179,"lng":53.0553,"pop":8294,"capital":false},{"name":"Dehaq","country":"IR","lat":33.1039,"lng":50.9586,"pop":8272,"capital":false},{"name":"Gadamābād","country":"IR","lat":37.2591,"lng":55.1463,"pop":8250,"capital":false},{"name":"Chāboksar","country":"IR","lat":36.9737,"lng":50.5701,"pop":8224,"capital":false},{"name":"Ýaşlyk","country":"TM","lat":37.7801,"lng":58.889,"pop":8172,"capital":false},{"name":"Kīā Kolā","country":"IR","lat":36.6862,"lng":51.3144,"pop":8040,"capital":false},{"name":"Kīā Kolā","country":"IR","lat":36.5803,"lng":52.8125,"pop":8040,"capital":false},{"name":"Zāzerān","country":"IR","lat":32.6037,"lng":51.4983,"pop":7962,"capital":false},{"name":"Bahnemīr","country":"IR","lat":36.6682,"lng":52.7617,"pop":7906,"capital":false},{"name":"Kalleh Bast","country":"IR","lat":36.6407,"lng":52.6292,"pop":7889,"capital":false},{"name":"Sīsakht","country":"IR","lat":30.8639,"lng":51.4559,"pop":7855,"capital":false},{"name":"Rūyān","country":"IR","lat":36.5689,"lng":51.9631,"pop":7731,"capital":false},{"name":"Bokurdak","country":"TM","lat":38.7631,"lng":58.4927,"pop":7726,"capital":false},{"name":"Shahrak-e Goldasteh","country":"IR","lat":35.6044,"lng":51.2707,"pop":7602,"capital":false},{"name":"Sarkhonkalāteh","country":"IR","lat":36.8915,"lng":54.5688,"pop":7589,"capital":false},{"name":"Bahman","country":"IR","lat":31.1933,"lng":52.4837,"pop":7568,"capital":false},{"name":"Salāmī","country":"IR","lat":34.7438,"lng":59.9755,"pop":7555,"capital":false},{"name":"Roshtkhvār","country":"IR","lat":34.9751,"lng":59.6248,"pop":7514,"capital":false},{"name":"Nīmvar","country":"IR","lat":33.8871,"lng":50.5728,"pop":7507,"capital":false},{"name":"Īzad Shahr","country":"IR","lat":36.5989,"lng":52.1271,"pop":7439,"capital":false},{"name":"Jelīn","country":"IR","lat":36.8543,"lng":54.5379,"pop":7417,"capital":false},{"name":"Shālāsh","country":"IR","lat":36.9084,"lng":53.9265,"pop":7384,"capital":false},{"name":"Beyẕā","country":"IR","lat":30.0087,"lng":52.3609,"pop":7252,"capital":false},{"name":"Khūrīn","country":"IR","lat":35.403,"lng":51.6392,"pop":7223,"capital":false},{"name":"Sa‘īdābād","country":"IR","lat":35.7338,"lng":51.7014,"pop":7200,"capital":false},{"name":"Lashkarābād","country":"IR","lat":35.8553,"lng":50.7462,"pop":7198,"capital":false},{"name":"Manz̧arīyeh","country":"IR","lat":31.9451,"lng":51.8718,"pop":7164,"capital":false},{"name":"Eslāmīyeh","country":"IR","lat":34.0457,"lng":58.2204,"pop":7108,"capital":false},{"name":"Karkevand","country":"IR","lat":32.3424,"lng":51.4458,"pop":7058,"capital":false},{"name":"Anbār Ālūm","country":"IR","lat":37.1331,"lng":54.6197,"pop":7003,"capital":false},{"name":"Jowzdān","country":"IR","lat":32.5561,"lng":51.373,"pop":6998,"capital":false},{"name":"Fasham","country":"IR","lat":35.9306,"lng":51.5266,"pop":6945,"capital":false},{"name":"Sardasht","country":"IR","lat":30.3277,"lng":50.219,"pop":6912,"capital":false},{"name":"Shalamzār","country":"IR","lat":32.0465,"lng":50.8164,"pop":6899,"capital":false},{"name":"Parandak","country":"IR","lat":35.3618,"lng":50.6821,"pop":6886,"capital":false},{"name":"Aşgharābād","country":"IR","lat":32.6524,"lng":51.4804,"pop":6876,"capital":false},{"name":"Khūr","country":"IR","lat":33.7751,"lng":55.0833,"pop":6765,"capital":false},{"name":"Chāleshtar","country":"IR","lat":32.3787,"lng":50.7866,"pop":6720,"capital":false},{"name":"Qoroq","country":"IR","lat":36.89,"lng":54.7125,"pop":6701,"capital":false},{"name":"Sorkhrūd-e Gharbī","country":"IR","lat":36.6788,"lng":52.4518,"pop":6699,"capital":false},{"name":"Marzanābād","country":"IR","lat":36.4525,"lng":51.3002,"pop":6698,"capital":false},{"name":"Now Kandeh","country":"IR","lat":36.7374,"lng":53.909,"pop":6650,"capital":false},{"name":"Yzgant","country":"TM","lat":38.1825,"lng":58.1134,"pop":6547,"capital":false},{"name":"Sefīdār","country":"IR","lat":35.4724,"lng":51.1107,"pop":6529,"capital":false},{"name":"Khān Laq","country":"IR","lat":37.427,"lng":57.9391,"pop":6518,"capital":false},{"name":"Shahrak-e Pābedānā","country":"IR","lat":31.1344,"lng":56.3981,"pop":6503,"capital":false},{"name":"Kondor","country":"IR","lat":35.2119,"lng":58.1516,"pop":6460,"capital":false},{"name":"Kūmeleh","country":"IR","lat":37.155,"lng":50.1736,"pop":6457,"capital":false},{"name":"Dāvūdābād","country":"IR","lat":35.3986,"lng":51.5611,"pop":6399,"capital":false},{"name":"Jūjīl","country":"IR","lat":32.5657,"lng":51.4851,"pop":6327,"capital":false},{"name":"Gandomān","country":"IR","lat":31.8655,"lng":51.1544,"pop":6291,"capital":false},{"name":"Kelārābād","country":"IR","lat":36.6998,"lng":51.256,"pop":6267,"capital":false},{"name":"Gahrū","country":"IR","lat":32.0032,"lng":50.8854,"pop":6263,"capital":false},{"name":"Ārādān","country":"IR","lat":35.2494,"lng":52.4942,"pop":6252,"capital":false},{"name":"Khūmeh Zār","country":"IR","lat":30.0091,"lng":51.5779,"pop":6220,"capital":false},{"name":"Bāqer Tangeh","country":"IR","lat":36.7042,"lng":52.7029,"pop":6213,"capital":false},{"name":"Gūjān","country":"IR","lat":32.2456,"lng":50.5419,"pop":6179,"capital":false},{"name":"Qeshlāq-e Pā’īn","country":"IR","lat":35.3968,"lng":51.5787,"pop":6177,"capital":false},{"name":"Ţāqānak","country":"IR","lat":32.2239,"lng":50.839,"pop":6170,"capital":false},{"name":"Zāviyeh","country":"IR","lat":35.3813,"lng":50.5676,"pop":6027,"capital":false},{"name":"Arçman","country":"TM","lat":38.5435,"lng":57.1571,"pop":6014,"capital":false},{"name":"Gūged","country":"IR","lat":33.4756,"lng":50.3525,"pop":6012,"capital":false},{"name":"Zāgh Marz","country":"IR","lat":36.8046,"lng":53.3026,"pop":5932,"capital":false},{"name":"Shāhpūrābād","country":"IR","lat":32.8434,"lng":51.7432,"pop":5915,"capital":false},{"name":"Īzad Khvāst","country":"IR","lat":31.5197,"lng":52.128,"pop":5910,"capital":false},{"name":"Golzār-e Bālā","country":"IR","lat":35.4516,"lng":51.7106,"pop":5897,"capital":false},{"name":"Fīrūzeh","country":"IR","lat":37.5979,"lng":58.7908,"pop":5884,"capital":false},{"name":"Chatrūd","country":"IR","lat":30.6039,"lng":56.9104,"pop":5860,"capital":false},{"name":"Nashtārūd","country":"IR","lat":36.7509,"lng":51.0236,"pop":5837,"capital":false},{"name":"Sefidshahr","country":"IR","lat":34.1265,"lng":51.3518,"pop":5804,"capital":false},{"name":"Dīshmūk","country":"IR","lat":31.2984,"lng":50.4011,"pop":5791,"capital":false},{"name":"Pīshkamar","country":"IR","lat":37.5298,"lng":55.5931,"pop":5777,"capital":false},{"name":"Emāmzādeh ‘Abdollāh","country":"IR","lat":36.4061,"lng":52.3089,"pop":5768,"capital":false},{"name":"Shahrak-e Qamşar","country":"IR","lat":35.5085,"lng":51.4024,"pop":5717,"capital":false},{"name":"Khūsf","country":"IR","lat":32.7811,"lng":58.89,"pop":5716,"capital":false},{"name":"Dībāj","country":"IR","lat":36.427,"lng":54.2237,"pop":5647,"capital":false},{"name":"Sūd Jān","country":"IR","lat":32.5219,"lng":50.399,"pop":5581,"capital":false},{"name":"Āqābād","country":"IR","lat":37.2996,"lng":55.2423,"pop":5534,"capital":false},{"name":"Kūhpāyeh","country":"IR","lat":32.7151,"lng":52.4389,"pop":5518,"capital":false},{"name":"Sīn","country":"IR","lat":32.8534,"lng":51.6564,"pop":5495,"capital":false},{"name":"Dehdez","country":"IR","lat":31.7096,"lng":50.2883,"pop":5490,"capital":false},{"name":"Khātūnābād","country":"IR","lat":30.008,"lng":55.421,"pop":5471,"capital":false},{"name":"Sefīd Dasht","country":"IR","lat":32.1324,"lng":51.1823,"pop":5471,"capital":false},{"name":"Razkān","country":"IR","lat":35.6259,"lng":51.1005,"pop":5460,"capital":false},{"name":"Manşūrīyeh","country":"IR","lat":30.6294,"lng":50.3045,"pop":5441,"capital":false},{"name":"Mūsáābād","country":"IR","lat":31.9339,"lng":51.752,"pop":5437,"capital":false},{"name":"Chamāz Kotī","country":"IR","lat":36.4882,"lng":52.8711,"pop":5436,"capital":false},{"name":"Farrokhābād","country":"IR","lat":35.7151,"lng":50.913,"pop":5407,"capital":false},{"name":"Shahrak-e Emām Ḩasan","country":"IR","lat":35.4885,"lng":51.3457,"pop":5394,"capital":false},{"name":"Barf Anbār","country":"IR","lat":33.0032,"lng":50.1937,"pop":5382,"capital":false},{"name":"Mashkat","country":"IR","lat":34.1769,"lng":51.2651,"pop":5357,"capital":false},{"name":"Qal‘eh Now Khāleseh","country":"IR","lat":35.5125,"lng":51.5154,"pop":5352,"capital":false},{"name":"Yūsefābād","country":"IR","lat":35.5813,"lng":51.052,"pop":5308,"capital":false},{"name":"Lārīm","country":"IR","lat":36.7187,"lng":52.9381,"pop":5300,"capital":false},{"name":"Mehrābād","country":"IR","lat":35.7054,"lng":51.9134,"pop":5278,"capital":false},{"name":"Dārāb Kolā","country":"IR","lat":36.5615,"lng":53.2521,"pop":5262,"capital":false},{"name":"Ālūnī","country":"IR","lat":31.553,"lng":51.0605,"pop":5248,"capital":false},{"name":"Khoshkrūd","country":"IR","lat":35.3986,"lng":50.3341,"pop":5246,"capital":false},{"name":"Shahdād","country":"IR","lat":30.4174,"lng":57.7067,"pop":5217,"capital":false},{"name":"Täze eýýam","country":"TM","lat":38.1725,"lng":58.047,"pop":5196,"capital":false},{"name":"Jām Khāneh","country":"IR","lat":36.5893,"lng":53.2564,"pop":5173,"capital":false},{"name":"Dastnā’","country":"IR","lat":32.0583,"lng":50.7705,"pop":5143,"capital":false},{"name":"Āyask","country":"IR","lat":33.8874,"lng":58.3824,"pop":5143,"capital":false},{"name":"Sarūk","country":"IR","lat":30.6154,"lng":51.6148,"pop":5130,"capital":false},{"name":"Khājeh Nafas","country":"IR","lat":36.9944,"lng":54.0952,"pop":5129,"capital":false},{"name":"Āq Qāyeh","country":"IR","lat":37.2747,"lng":55.1589,"pop":5114,"capital":false},{"name":"Qeshlāq","country":"IR","lat":35.6425,"lng":50.9777,"pop":5110,"capital":false},{"name":"Shalmān","country":"IR","lat":37.1551,"lng":50.2146,"pop":5102,"capital":false},{"name":"Komeshcheh","country":"IR","lat":32.9054,"lng":51.8098,"pop":5100,"capital":false},{"name":"Sagzī","country":"IR","lat":32.6907,"lng":52.1243,"pop":5063,"capital":false},{"name":"Parandak","country":"IR","lat":35.512,"lng":51.0532,"pop":5038,"capital":false},{"name":"Tāzehābād","country":"IR","lat":36.6316,"lng":51.4849,"pop":5029,"capital":false},{"name":"Sūleqān","country":"IR","lat":35.8221,"lng":51.2648,"pop":5013,"capital":false}]