[{"name":"Saint-Pierre","country":"RE","lat":-21.3393,"lng":55.4781,"pop":84077,"capital":false},{"name":"Le Tampon","country":"RE","lat":-21.2766,"lng":55.5177,"pop":81943,"capital":false},{"name":"Curepipe","country":"MU","lat":-20.3163,"lng":57.5259,"pop":78618,"capital":false},{"name":"Quatre Bornes","country":"MU","lat":-20.2638,"lng":57.4791,"pop":77308,"capital":false},{"name":"Saint-André","country":"RE","lat":-20.9633,"lng":55.6503,"pop":57150,"capital":false},{"name":"Saint-Louis","country":"RE","lat":-21.2858,"lng":55.4112,"pop":53935,"capital":false},{"name":"Saint-Joseph","country":"RE","lat":-21.3777,"lng":55.6169,"pop":38807,"capital":false},{"name":"Saint-Benoît","country":"RE","lat":-21.0379,"lng":55.7155,"pop":37023,"capital":false},{"name":"La Possession","country":"RE","lat":-20.9291,"lng":55.3348,"pop":35245,"capital":false},{"name":"Saint-Leu","country":"RE","lat":-21.1706,"lng":55.2882,"pop":34893,"capital":false},{"name":"Sainte-Marie","country":"RE","lat":-20.8969,"lng":55.5506,"pop":34344,"capital":false},{"name":"Le Port","country":"RE","lat":-20.9375,"lng":55.2942,"pop":33336,"capital":false},{"name":"Piton Saint-Leu","country":"RE","lat":-21.2196,"lng":55.3151,"pop":29278,"capital":false},{"name":"Triolet","country":"MU","lat":-20.0576,"lng":57.5503,"pop":24361,"capital":false},{"name":"Sainte-Suzanne","country":"RE","lat":-20.9062,"lng":55.6079,"pop":24293,"capital":false},{"name":"Goodlands","country":"MU","lat":-20.0384,"lng":57.6506,"pop":21063,"capital":false},{"name":"Bel Air Rivière Sèche","country":"MU","lat":-20.2578,"lng":57.7498,"pop":18036,"capital":false},{"name":"Bambous","country":"MU","lat":-20.2567,"lng":57.4061,"pop":17818,"capital":false},{"name":"Centre de Flacq","country":"MU","lat":-20.1897,"lng":57.7144,"pop":17710,"capital":false},{"name":"Mahébourg","country":"MU","lat":-20.4081,"lng":57.7,"pop":17042,"capital":false},{"name":"Saint Pierre","country":"MU","lat":-20.2215,"lng":57.5343,"pop":16704,"capital":false},{"name":"Le Hochet","country":"MU","lat":-20.1386,"lng":57.5301,"pop":15662,"capital":false},{"name":"Baie du Tombeau","country":"MU","lat":-20.1194,"lng":57.4914,"pop":15301,"capital":false},{"name":"Trou aux Biches","country":"MU","lat":-20.033,"lng":57.5503,"pop":14706,"capital":false},{"name":"L'Étang-Salé","country":"RE","lat":-21.25,"lng":55.3833,"pop":13836,"capital":false},{"name":"Bras-Panon","country":"RE","lat":-20.9967,"lng":55.6782,"pop":13344,"capital":false},{"name":"Rose Belle","country":"MU","lat":-20.4003,"lng":57.5967,"pop":12619,"capital":false},{"name":"Petite-Île","country":"RE","lat":-21.3533,"lng":55.5643,"pop":12617,"capital":false},{"name":"Chemin Grenier","country":"MU","lat":-20.4872,"lng":57.4656,"pop":12457,"capital":false},{"name":"Grand Baie","country":"MU","lat":-20.0182,"lng":57.5802,"pop":12173,"capital":false},{"name":"La Montagne","country":"RE","lat":-20.8888,"lng":55.4227,"pop":12000,"capital":false},{"name":"Lallmatie","country":"MU","lat":-20.0184,"lng":57.5802,"pop":11910,"capital":false},{"name":"Les Avirons","country":"RE","lat":-21.2406,"lng":55.3369,"pop":11434,"capital":false},{"name":"Terre Rouge","country":"MU","lat":-20.1283,"lng":57.5312,"pop":11210,"capital":false},{"name":"New Grove","country":"MU","lat":-20.4086,"lng":57.6136,"pop":11023,"capital":false},{"name":"Rivière du Rempart","country":"MU","lat":-20.1031,"lng":57.6847,"pop":10825,"capital":false},{"name":"Plaine Magnien","country":"MU","lat":-20.4297,"lng":57.6697,"pop":10778,"capital":false},{"name":"Rouge Terre","country":"MU","lat":-20.0433,"lng":57.5683,"pop":10760,"capital":false},{"name":"Lalmatie","country":"MU","lat":-20.1897,"lng":57.6611,"pop":10641,"capital":false},{"name":"Pailles","country":"MU","lat":-20.1927,"lng":57.4883,"pop":10622,"capital":false},{"name":"Surinam","country":"MU","lat":-20.5097,"lng":57.5053,"pop":10621,"capital":false},{"name":"Rivière des Anguilles","country":"MU","lat":-20.493,"lng":57.563,"pop":9927,"capital":false},{"name":"Pamplemousses","country":"MU","lat":-20.1039,"lng":57.5703,"pop":9682,"capital":false},{"name":"Montagne Blanche","country":"MU","lat":-20.2854,"lng":57.6587,"pop":9440,"capital":false},{"name":"Petit Raffray","country":"MU","lat":-20.0202,"lng":57.623,"pop":9410,"capital":false},{"name":"Moka","country":"MU","lat":-20.219,"lng":57.5108,"pop":9364,"capital":false},{"name":"Richelieu","country":"MU","lat":-20.1932,"lng":57.4595,"pop":9178,"capital":false},{"name":"Poste de Flacq","country":"MU","lat":-20.1631,"lng":57.7306,"pop":8659,"capital":false},{"name":"Plaine des Papayes","country":"MU","lat":-20.065,"lng":57.5725,"pop":7925,"capital":false},{"name":"L’Escalier","country":"MU","lat":-20.47,"lng":57.6122,"pop":7899,"capital":false},{"name":"Grand Bois","country":"MU","lat":-20.4189,"lng":57.5442,"pop":7804,"capital":false},{"name":"Long Mountain","country":"MU","lat":-20.151,"lng":57.573,"pop":7775,"capital":false},{"name":"Grand Gaube","country":"MU","lat":-20.0064,"lng":57.6608,"pop":7706,"capital":false},{"name":"Brisée Verdière","country":"MU","lat":-20.1639,"lng":57.6467,"pop":7696,"capital":false},{"name":"Salazie","country":"RE","lat":-21.0271,"lng":55.5395,"pop":7696,"capital":false},{"name":"Belle Vue Harel","country":"MU","lat":-20.0658,"lng":57.5942,"pop":7607,"capital":false},{"name":"Belle Vue Maurel","country":"MU","lat":-20.1203,"lng":57.6636,"pop":7607,"capital":false},{"name":"Pointe aux Piments","country":"MU","lat":-20.0649,"lng":57.5235,"pop":7556,"capital":false},{"name":"Dagotière","country":"MU","lat":-20.2448,"lng":57.5619,"pop":7468,"capital":false},{"name":"Nouvelle France","country":"MU","lat":-20.3706,"lng":57.5611,"pop":7238,"capital":false},{"name":"Les Trois-Bassins","country":"RE","lat":-21.1,"lng":55.3,"pop":7114,"capital":false},{"name":"Entre-Deux","country":"RE","lat":-21.2333,"lng":55.4667,"pop":7105,"capital":false},{"name":"Sainte-Rose","country":"RE","lat":-21.1286,"lng":55.7962,"pop":7035,"capital":false},{"name":"Beau Vallon","country":"MU","lat":-20.4232,"lng":57.7035,"pop":7016,"capital":false},{"name":"La Plaine-des-Palmistes","country":"RE","lat":-21.1343,"lng":55.6282,"pop":6821,"capital":false},{"name":"Bon Accueil","country":"MU","lat":-20.175,"lng":57.672,"pop":6553,"capital":false},{"name":"Quartier Militaire","country":"MU","lat":-20.2479,"lng":57.5974,"pop":6424,"capital":false},{"name":"Calodyne","country":"MU","lat":-20.0021,"lng":57.6425,"pop":6252,"capital":false},{"name":"Cilaos","country":"RE","lat":-21.1364,"lng":55.4719,"pop":6225,"capital":false},{"name":"Laventure","country":"MU","lat":-20.1458,"lng":57.6767,"pop":6171,"capital":false},{"name":"Morcellement Saint André","country":"MU","lat":-20.072,"lng":57.5683,"pop":6150,"capital":false},{"name":"Ecroignard","country":"MU","lat":-20.2261,"lng":57.7361,"pop":5952,"capital":false},{"name":"Piton","country":"MU","lat":-20.0903,"lng":57.6303,"pop":5909,"capital":false},{"name":"Fond du Sac","country":"MU","lat":-20.0473,"lng":57.584,"pop":5796,"capital":false},{"name":"Sebastopol","country":"MU","lat":-20.2907,"lng":57.6878,"pop":5745,"capital":false},{"name":"Roches Noire","country":"MU","lat":-20.1111,"lng":57.7122,"pop":5733,"capital":false},{"name":"Quatre Cocos","country":"MU","lat":-20.2015,"lng":57.7745,"pop":5724,"capital":false},{"name":"Saint-Philippe","country":"RE","lat":-21.3609,"lng":55.7679,"pop":5441,"capital":false},{"name":"Petite Rivière","country":"MU","lat":-20.1955,"lng":57.4459,"pop":5331,"capital":false},{"name":"Camp Diable","country":"MU","lat":-20.4628,"lng":57.5789,"pop":5082,"capital":false},{"name":"Souillac","country":"MU","lat":-20.5167,"lng":57.5167,"pop":4434,"capital":false},{"name":"Tamarin","country":"MU","lat":-20.3256,"lng":57.3706,"pop":4371,"capital":false}]