[{"name":"Serov","country":"RU","lat":59.5974,"lng":60.5861,"pop":98438,"capital":false},{"name":"Novoural’sk","country":"RU","lat":57.2548,"lng":60.0905,"pop":93849,"capital":false},{"name":"Troitsk","country":"RU","lat":54.0922,"lng":61.5676,"pop":82338,"capital":false},{"name":"Ozersk","country":"RU","lat":55.7556,"lng":60.7028,"pop":81023,"capital":false},{"name":"Shadrinsk","country":"RU","lat":56.0862,"lng":63.6382,"pop":79479,"capital":false},{"name":"Asbest","country":"RU","lat":57.0082,"lng":61.4634,"pop":74583,"capital":false},{"name":"Kopeysk","country":"RU","lat":55.1169,"lng":61.6181,"pop":70780,"capital":false},{"name":"Ishim","country":"RU","lat":56.1125,"lng":69.4872,"pop":67762,"capital":false},{"name":"Polevskoy","country":"RU","lat":56.4422,"lng":60.1878,"pop":65770,"capital":false},{"name":"Krasnoturinsk","country":"RU","lat":59.7666,"lng":60.2086,"pop":62600,"capital":false},{"name":"Verkhnyaya Pyshma","country":"RU","lat":56.9705,"lng":60.5822,"pop":59061,"capital":false},{"name":"Lesnoy","country":"RU","lat":57.6198,"lng":63.0784,"pop":55100,"capital":false},{"name":"Snezhinsk","country":"RU","lat":56.0783,"lng":60.7479,"pop":50086,"capital":false},{"name":"Verkhnyaya Salda","country":"RU","lat":58.045,"lng":60.551,"pop":48992,"capital":false},{"name":"Beryozovsky","country":"RU","lat":56.9083,"lng":60.8019,"pop":47000,"capital":false},{"name":"Chebarkul’","country":"RU","lat":54.9776,"lng":60.3658,"pop":46502,"capital":false},{"name":"Alapayevsk","country":"RU","lat":57.85,"lng":61.6941,"pop":44000,"capital":false},{"name":"Zhitikara","country":"KZ","lat":52.1902,"lng":61.1989,"pop":43104,"capital":false},{"name":"Arkalyk","country":"KZ","lat":50.2503,"lng":66.9038,"pop":42000,"capital":false},{"name":"Irbit","country":"RU","lat":57.6686,"lng":63.0707,"pop":41647,"capital":false},{"name":"Kyshtym","country":"RU","lat":55.7163,"lng":60.551,"pop":41625,"capital":false},{"name":"Korkino","country":"RU","lat":54.8915,"lng":61.392,"pop":40046,"capital":false},{"name":"Lisakovsk","country":"KZ","lat":52.5449,"lng":62.4989,"pop":40000,"capital":false},{"name":"Tavda","country":"RU","lat":58.042,"lng":65.2716,"pop":39480,"capital":false},{"name":"Yuzhnoural’sk","country":"RU","lat":54.4485,"lng":61.2643,"pop":39200,"capital":false},{"name":"Rezh","country":"RU","lat":57.3712,"lng":61.404,"pop":37420,"capital":false},{"name":"Sukhoy Log","country":"RU","lat":56.9083,"lng":62.0343,"pop":36329,"capital":false},{"name":"Yalutorovsk","country":"RU","lat":56.6532,"lng":66.3005,"pop":35892,"capital":false},{"name":"Atbasar","country":"KZ","lat":51.8085,"lng":68.3582,"pop":34797,"capital":false},{"name":"Artëmovskiy","country":"RU","lat":57.3542,"lng":61.8712,"pop":33700,"capital":false},{"name":"Verkhniy Ufaley","country":"RU","lat":56.0549,"lng":60.2257,"pop":33245,"capital":false},{"name":"Bogdanovich","country":"RU","lat":56.7768,"lng":62.0507,"pop":32270,"capital":false},{"name":"Karpinsk","country":"RU","lat":59.7683,"lng":60.0062,"pop":30070,"capital":false},{"name":"Yemanzhelinsk","country":"RU","lat":54.7547,"lng":61.3208,"pop":29849,"capital":false},{"name":"Kartaly","country":"RU","lat":53.0596,"lng":60.6413,"pop":28503,"capital":false},{"name":"Kamyshlov","country":"RU","lat":56.8466,"lng":62.7121,"pop":28006,"capital":false},{"name":"Zarechnyy","country":"RU","lat":56.811,"lng":61.3254,"pop":27758,"capital":false},{"name":"Krasnoural’sk","country":"RU","lat":58.3638,"lng":60.0407,"pop":27257,"capital":false},{"name":"Nev’yansk","country":"RU","lat":57.4923,"lng":60.2142,"pop":25900,"capital":false},{"name":"Zavodoukovsk","country":"RU","lat":56.5033,"lng":66.5467,"pop":25682,"capital":false},{"name":"Kirovgrad","country":"RU","lat":57.4313,"lng":60.0617,"pop":22685,"capital":false},{"name":"Sysert’","country":"RU","lat":56.5017,"lng":60.8198,"pop":21942,"capital":false},{"name":"Sredneuralsk","country":"RU","lat":56.9892,"lng":60.4666,"pop":20169,"capital":false},{"name":"Talitsa","country":"RU","lat":56.8804,"lng":60.0213,"pop":19100,"capital":false},{"name":"Talitsa","country":"RU","lat":57.0109,"lng":63.7335,"pop":18602,"capital":false},{"name":"Turinsk","country":"RU","lat":58.0458,"lng":63.6961,"pop":18555,"capital":false},{"name":"Shumikha","country":"RU","lat":55.2287,"lng":63.2855,"pop":18499,"capital":false},{"name":"Kurtamysh","country":"RU","lat":54.9097,"lng":64.4319,"pop":17936,"capital":false},{"name":"Kasli","country":"RU","lat":55.8875,"lng":60.7548,"pop":17911,"capital":false},{"name":"Reftinskiy","country":"RU","lat":57.0901,"lng":61.6769,"pop":17673,"capital":false},{"name":"Nizhnyaya Salda","country":"RU","lat":58.0776,"lng":60.7202,"pop":17473,"capital":false},{"name":"Plast","country":"RU","lat":54.3691,"lng":60.8136,"pop":17050,"capital":false},{"name":"Akkol’","country":"KZ","lat":53.2962,"lng":69.6,"pop":16773,"capital":false},{"name":"Karabash","country":"RU","lat":55.4895,"lng":60.2089,"pop":15630,"capital":false},{"name":"Kataysk","country":"RU","lat":56.2885,"lng":62.5812,"pop":15619,"capital":false},{"name":"Borovskiy","country":"RU","lat":57.041,"lng":65.7202,"pop":15406,"capital":false},{"name":"Degtyarsk","country":"RU","lat":56.704,"lng":60.0879,"pop":15294,"capital":false},{"name":"Aramil","country":"RU","lat":56.6977,"lng":60.8369,"pop":15237,"capital":false},{"name":"Novosineglazovskiy","country":"RU","lat":55.0393,"lng":61.3768,"pop":14620,"capital":false},{"name":"Dalmatovo","country":"RU","lat":56.2596,"lng":62.9347,"pop":14526,"capital":false},{"name":"Roza","country":"RU","lat":54.9163,"lng":61.4586,"pop":14491,"capital":false},{"name":"Novaya Lyalya","country":"RU","lat":59.0523,"lng":60.5932,"pop":14246,"capital":false},{"name":"Gornyak","country":"RU","lat":55.1345,"lng":61.6827,"pop":13946,"capital":false},{"name":"Derzhavinsk","country":"KZ","lat":51.0972,"lng":66.3188,"pop":13856,"capital":false},{"name":"Krasnogorskiy","country":"RU","lat":54.6025,"lng":61.231,"pop":13603,"capital":false},{"name":"Abalak","country":"RU","lat":58.1286,"lng":68.5944,"pop":13555,"capital":false},{"name":"Esil","country":"KZ","lat":51.9545,"lng":66.4077,"pop":13504,"capital":false},{"name":"Golyshmanovo","country":"RU","lat":56.3987,"lng":68.3756,"pop":13424,"capital":false},{"name":"Taiynsha","country":"KZ","lat":53.848,"lng":69.7677,"pop":13148,"capital":false},{"name":"Bulanash","country":"RU","lat":57.2783,"lng":61.9965,"pop":13056,"capital":false},{"name":"Beloyarskiy","country":"RU","lat":56.7571,"lng":61.4163,"pop":12438,"capital":false},{"name":"Petukhovo","country":"RU","lat":55.0692,"lng":67.9019,"pop":12367,"capital":false},{"name":"Bazhovo","country":"RU","lat":55.0596,"lng":61.6045,"pop":11537,"capital":false},{"name":"Uvel’skiy","country":"RU","lat":54.4432,"lng":61.3555,"pop":11293,"capital":false},{"name":"Vinzili","country":"RU","lat":56.9594,"lng":65.7708,"pop":11219,"capital":false},{"name":"Starokamyshinsk","country":"RU","lat":55.0391,"lng":61.5878,"pop":11158,"capital":false},{"name":"Mezhdurechenskiy","country":"RU","lat":59.6,"lng":65.9333,"pop":11121,"capital":false},{"name":"Troitskiy","country":"RU","lat":57.0603,"lng":63.7481,"pop":11081,"capital":false},{"name":"Verkhnyaya Sinyachikha","country":"RU","lat":57.976,"lng":61.6673,"pop":10964,"capital":false},{"name":"Lokomotivnyy","country":"RU","lat":53.0448,"lng":60.6156,"pop":10663,"capital":false},{"name":"Bredy","country":"RU","lat":52.4199,"lng":60.3368,"pop":10450,"capital":false},{"name":"Volchansk","country":"RU","lat":59.9378,"lng":60.081,"pop":10403,"capital":false},{"name":"Qashar","country":"KZ","lat":53.368,"lng":62.8684,"pop":10285,"capital":false},{"name":"Argayash","country":"RU","lat":55.4885,"lng":60.8736,"pop":10096,"capital":false},{"name":"Pyshma","country":"RU","lat":56.9533,"lng":63.2523,"pop":10094,"capital":false},{"name":"Malysheva","country":"RU","lat":57.1185,"lng":61.4035,"pop":9955,"capital":false},{"name":"Varna","country":"RU","lat":53.3798,"lng":60.9731,"pop":9906,"capital":false},{"name":"Qarabalyq","country":"KZ","lat":53.7502,"lng":62.0584,"pop":9838,"capital":false},{"name":"Vargashi","country":"RU","lat":55.3556,"lng":65.8467,"pop":9728,"capital":false},{"name":"Makushino","country":"RU","lat":55.2051,"lng":67.2513,"pop":9682,"capital":false},{"name":"Borovskoy","country":"KZ","lat":53.7927,"lng":64.1827,"pop":9659,"capital":false},{"name":"Sos’va","country":"RU","lat":59.1766,"lng":61.8558,"pop":9595,"capital":false},{"name":"Omutinskoye","country":"RU","lat":56.4685,"lng":67.6417,"pop":9595,"capital":false},{"name":"Bogandinskiy","country":"RU","lat":56.8938,"lng":65.8938,"pop":9586,"capital":false},{"name":"Miasskoye","country":"RU","lat":55.2816,"lng":61.8927,"pop":9524,"capital":false},{"name":"Pervomayskiy","country":"RU","lat":54.8664,"lng":61.1703,"pop":9524,"capital":false},{"name":"Svobodnyy","country":"RU","lat":58.0397,"lng":60.3961,"pop":9508,"capital":false},{"name":"Svetlyy","country":"RU","lat":50.8196,"lng":60.8508,"pop":8976,"capital":false},{"name":"Sergeyevka","country":"KZ","lat":53.8814,"lng":67.4088,"pop":8845,"capital":false},{"name":"Potanino","country":"RU","lat":55.1786,"lng":61.6222,"pop":8717,"capital":false},{"name":"Mishkino","country":"RU","lat":55.3377,"lng":63.9145,"pop":8712,"capital":false},{"name":"Yelanskiy","country":"RU","lat":56.8419,"lng":62.5014,"pop":8653,"capital":false},{"name":"Verkhotur’ye","country":"RU","lat":58.8633,"lng":60.8056,"pop":8500,"capital":false},{"name":"Lobva","country":"RU","lat":59.1854,"lng":60.5185,"pop":8403,"capital":false},{"name":"Fyodorov","country":"KZ","lat":53.6381,"lng":62.6965,"pop":8317,"capital":false},{"name":"Kargapol’ye","country":"RU","lat":55.9548,"lng":64.4326,"pop":8169,"capital":false},{"name":"Novogornyy","country":"RU","lat":55.63,"lng":60.7919,"pop":8132,"capital":false},{"name":"Qusmuryn","country":"KZ","lat":52.4514,"lng":64.6168,"pop":8049,"capital":false},{"name":"Shchuch’ye","country":"RU","lat":55.3636,"lng":66.0925,"pop":8026,"capital":false},{"name":"Yurgamysh","country":"RU","lat":55.3749,"lng":64.4604,"pop":7888,"capital":false},{"name":"Uyskoye","country":"RU","lat":54.3775,"lng":60.0047,"pop":7668,"capital":false},{"name":"Zheleznodorozhnyy","country":"RU","lat":55.1018,"lng":61.5493,"pop":7337,"capital":false},{"name":"Isetskoye","country":"RU","lat":56.4832,"lng":65.316,"pop":7170,"capital":false},{"name":"Tobol","country":"KZ","lat":52.6937,"lng":62.5914,"pop":7155,"capital":false},{"name":"Dolgoderevenskoye","country":"RU","lat":55.3501,"lng":61.3416,"pop":6976,"capital":false},{"name":"Ketovo","country":"RU","lat":55.3483,"lng":65.3314,"pop":6966,"capital":false},{"name":"Yarkovo","country":"RU","lat":57.4033,"lng":67.0679,"pop":6925,"capital":false},{"name":"Lebyazh’ye","country":"RU","lat":55.2736,"lng":66.4947,"pop":6900,"capital":false},{"name":"Zaural’skiy","country":"RU","lat":54.7855,"lng":61.2421,"pop":6878,"capital":false},{"name":"Nizhnyaya Tavda","country":"RU","lat":57.6687,"lng":66.1782,"pop":6711,"capital":false},{"name":"Poletayevo","country":"RU","lat":55.0336,"lng":61.1138,"pop":6532,"capital":false},{"name":"Astrakhanka","country":"KZ","lat":51.5307,"lng":69.7969,"pop":6459,"capital":false},{"name":"Shatrovo","country":"RU","lat":56.5198,"lng":64.633,"pop":6295,"capital":false},{"name":"Yetkul’","country":"RU","lat":54.8231,"lng":61.5838,"pop":6163,"capital":false},{"name":"Balkashino","country":"KZ","lat":52.5178,"lng":68.7516,"pop":6147,"capital":false},{"name":"Tugulym","country":"RU","lat":57.0586,"lng":64.647,"pop":6139,"capital":false},{"name":"Novoishimskiy","country":"KZ","lat":53.1981,"lng":66.7694,"pop":6062,"capital":false},{"name":"Baykalovo","country":"RU","lat":57.396,"lng":63.7681,"pop":6043,"capital":false},{"name":"Turinskaya Sloboda","country":"RU","lat":57.6213,"lng":64.3825,"pop":6023,"capital":false},{"name":"Tsementnyy","country":"RU","lat":57.4693,"lng":60.1536,"pop":5972,"capital":false},{"name":"Kunashak","country":"RU","lat":55.7016,"lng":61.5493,"pop":5950,"capital":false},{"name":"Lesnikovo","country":"RU","lat":55.2822,"lng":65.3175,"pop":5864,"capital":false},{"name":"Kazanskoye","country":"RU","lat":55.6459,"lng":69.2274,"pop":5851,"capital":false},{"name":"Vishnëvogorsk","country":"RU","lat":55.9913,"lng":60.6579,"pop":5800,"capital":false},{"name":"Chesma","country":"RU","lat":53.8086,"lng":60.649,"pop":5789,"capital":false},{"name":"Smirnovo","country":"KZ","lat":54.5148,"lng":69.4273,"pop":5742,"capital":false},{"name":"Tselinnoye","country":"RU","lat":54.5039,"lng":63.6765,"pop":5711,"capital":false},{"name":"Istok","country":"RU","lat":56.7909,"lng":60.7789,"pop":5670,"capital":false},{"name":"Vostochnyy","country":"RU","lat":58.7999,"lng":61.8139,"pop":5635,"capital":false},{"name":"Shantobe","country":"KZ","lat":52.4538,"lng":68.1748,"pop":5626,"capital":false},{"name":"Aromashevo","country":"RU","lat":56.8675,"lng":68.6451,"pop":5573,"capital":false},{"name":"Monetnyy","country":"RU","lat":57.0472,"lng":60.8794,"pop":5540,"capital":false},{"name":"Bishkul","country":"KZ","lat":54.7776,"lng":69.0995,"pop":5423,"capital":false},{"name":"Uporovo","country":"RU","lat":56.3117,"lng":66.2697,"pop":5299,"capital":false},{"name":"Ikovka","country":"RU","lat":55.6089,"lng":64.9375,"pop":5243,"capital":false},{"name":"Roshchino","country":"RU","lat":55.3101,"lng":61.2636,"pop":5231,"capital":false},{"name":"Bobrovskiy","country":"RU","lat":56.6732,"lng":60.9807,"pop":5198,"capital":false},{"name":"Verkh-Neyvinskiy","country":"RU","lat":57.2701,"lng":60.1376,"pop":5156,"capital":false},{"name":"Antipino","country":"RU","lat":57.1068,"lng":65.7576,"pop":5147,"capital":false},{"name":"Dvurechensk","country":"RU","lat":56.5982,"lng":61.0953,"pop":5121,"capital":false},{"name":"Polovinnoye","country":"RU","lat":54.7905,"lng":65.9897,"pop":5103,"capital":false},{"name":"Turtas","country":"RU","lat":58.9387,"lng":69.1339,"pop":5050,"capital":false},{"name":"Zhaksy","country":"KZ","lat":51.9106,"lng":67.3167,"pop":5001,"capital":false}]