[{"name":"Bekobod","country":"UZ","lat":40.2208,"lng":69.2697,"pop":96900,"capital":false},{"name":"Guliston","country":"UZ","lat":40.4954,"lng":68.7754,"pop":90398,"capital":false},{"name":"Baikonur","country":"KZ","lat":45.6167,"lng":63.3167,"pop":70000,"capital":false},{"name":"Satpayev","country":"KZ","lat":47.9041,"lng":67.5411,"pop":69782,"capital":false},{"name":"Beruniy","country":"UZ","lat":41.6911,"lng":60.7525,"pop":66090,"capital":false},{"name":"Yangiyŭl","country":"UZ","lat":41.112,"lng":69.0471,"pop":61700,"capital":false},{"name":"Parkent","country":"UZ","lat":41.2944,"lng":69.6764,"pop":60200,"capital":false},{"name":"Kentau","country":"KZ","lat":43.5167,"lng":68.5046,"pop":57408,"capital":false},{"name":"Tŭytepa","country":"UZ","lat":41.0321,"lng":69.3625,"pop":51400,"capital":false},{"name":"Gurlan","country":"UZ","lat":41.8412,"lng":60.3927,"pop":50900,"capital":false},{"name":"Qayroqqum","country":"TJ","lat":40.266,"lng":69.7959,"pop":49200,"capital":false},{"name":"Novyy Turtkul’","country":"UZ","lat":41.55,"lng":61.0167,"pop":48908,"capital":false},{"name":"Yangiyer","country":"UZ","lat":40.275,"lng":68.8225,"pop":44200,"capital":false},{"name":"G’ijduvon Shahri","country":"UZ","lat":40.1022,"lng":64.6823,"pop":43400,"capital":false},{"name":"Ohangaron","country":"UZ","lat":40.9064,"lng":69.6383,"pop":37784,"capital":false},{"name":"Buston","country":"TJ","lat":40.2342,"lng":69.6948,"pop":36900,"capital":false},{"name":"Dashtobod","country":"UZ","lat":40.1269,"lng":68.4944,"pop":36500,"capital":false},{"name":"Zhetysay","country":"KZ","lat":40.7763,"lng":68.3277,"pop":36494,"capital":false},{"name":"Arys","country":"KZ","lat":42.4302,"lng":68.8087,"pop":36285,"capital":false},{"name":"Novokazalinsk","country":"KZ","lat":45.8481,"lng":62.1525,"pop":35883,"capital":false},{"name":"Piskent","country":"UZ","lat":40.8972,"lng":69.3506,"pop":34900,"capital":false},{"name":"Zhangatas","country":"KZ","lat":43.5627,"lng":69.7321,"pop":33492,"capital":false},{"name":"Manghit","country":"UZ","lat":42.1156,"lng":60.0597,"pop":33200,"capital":false},{"name":"Aral","country":"KZ","lat":46.8017,"lng":61.6631,"pop":33017,"capital":false},{"name":"Nurota","country":"UZ","lat":40.5614,"lng":65.6886,"pop":32300,"capital":false},{"name":"Bektemir","country":"UZ","lat":41.2097,"lng":69.3342,"pop":31400,"capital":false},{"name":"Shiyeli","country":"KZ","lat":44.1706,"lng":66.7338,"pop":29832,"capital":false},{"name":"Sirdaryo","country":"UZ","lat":40.8436,"lng":68.6617,"pop":28800,"capital":false},{"name":"Qibray","country":"UZ","lat":41.3897,"lng":69.465,"pop":27750,"capital":false},{"name":"Iskandar","country":"UZ","lat":41.5539,"lng":69.7008,"pop":27636,"capital":false},{"name":"Shovot","country":"UZ","lat":41.6582,"lng":60.2945,"pop":26950,"capital":false},{"name":"Uchkuduk","country":"UZ","lat":41.05,"lng":62.7833,"pop":26800,"capital":false},{"name":"Shofirkon Shahri","country":"UZ","lat":40.12,"lng":64.5014,"pop":26527,"capital":false},{"name":"Salor","country":"UZ","lat":41.375,"lng":69.352,"pop":26494,"capital":false},{"name":"Aksu","country":"KZ","lat":42.4219,"lng":69.8271,"pop":26115,"capital":false},{"name":"Shardara","country":"KZ","lat":41.2583,"lng":67.9699,"pop":25356,"capital":false},{"name":"Saryaghash","country":"KZ","lat":41.4604,"lng":69.1679,"pop":25139,"capital":false},{"name":"Gagarin Shahri","country":"UZ","lat":40.6647,"lng":68.1677,"pop":24856,"capital":false},{"name":"Zafar","country":"UZ","lat":40.9833,"lng":68.9,"pop":24781,"capital":false},{"name":"Payshamba Shahri","country":"UZ","lat":40.0114,"lng":66.2311,"pop":24772,"capital":false},{"name":"G’allaorol Shahri","country":"UZ","lat":40.027,"lng":67.5878,"pop":24700,"capital":false},{"name":"Abay","country":"KZ","lat":41.3468,"lng":68.9504,"pop":24047,"capital":false},{"name":"Chinoz","country":"UZ","lat":40.9363,"lng":68.7613,"pop":23700,"capital":false},{"name":"G‘azalkent","country":"UZ","lat":41.5581,"lng":69.7708,"pop":21600,"capital":false},{"name":"Paxtakor Shahri","country":"UZ","lat":40.3118,"lng":67.9567,"pop":21384,"capital":false},{"name":"Zhangaqorghan","country":"KZ","lat":43.9065,"lng":67.2464,"pop":21339,"capital":false},{"name":"Lenger","country":"KZ","lat":42.1815,"lng":69.8858,"pop":21238,"capital":false},{"name":"Gazojak","country":"TM","lat":41.1875,"lng":61.4036,"pop":21021,"capital":false},{"name":"Zhosaly","country":"KZ","lat":45.4878,"lng":64.0781,"pop":20065,"capital":false},{"name":"Bo‘ka","country":"UZ","lat":40.8111,"lng":69.1942,"pop":19642,"capital":false},{"name":"Do’stlik Shahri","country":"UZ","lat":40.5288,"lng":68.0315,"pop":18300,"capital":false},{"name":"Vobkent Shahri","country":"UZ","lat":40.0003,"lng":64.5021,"pop":17800,"capital":false},{"name":"Qo’shko’pir","country":"UZ","lat":41.5328,"lng":60.347,"pop":17800,"capital":false},{"name":"Hazorasp","country":"UZ","lat":41.3194,"lng":61.0742,"pop":17643,"capital":false},{"name":"Istiqlol","country":"TJ","lat":40.5702,"lng":69.6418,"pop":17600,"capital":false},{"name":"Yangirabot","country":"UZ","lat":40.0254,"lng":65.961,"pop":17000,"capital":false},{"name":"Druzhba","country":"UZ","lat":41.2222,"lng":61.3067,"pop":16800,"capital":false},{"name":"Tasbuget","country":"KZ","lat":44.7702,"lng":65.5546,"pop":16455,"capital":false},{"name":"Proletar","country":"TJ","lat":40.1671,"lng":69.5016,"pop":16441,"capital":false},{"name":"Kazygurt","country":"KZ","lat":41.7564,"lng":69.3839,"pop":14737,"capital":false},{"name":"Zhalagash","country":"KZ","lat":45.0796,"lng":64.6817,"pop":14226,"capital":false},{"name":"Ŭrtaowul","country":"UZ","lat":41.1867,"lng":69.1453,"pop":14047,"capital":false},{"name":"Nov","country":"TJ","lat":40.1522,"lng":69.3708,"pop":13833,"capital":false},{"name":"Adrasmon","country":"TJ","lat":40.6493,"lng":69.9847,"pop":13372,"capital":false},{"name":"Bŭston","country":"TJ","lat":40.5229,"lng":69.3331,"pop":13043,"capital":false},{"name":"Atakent","country":"KZ","lat":40.8478,"lng":68.5064,"pop":12895,"capital":false},{"name":"G’oliblar Qishlog’i","country":"UZ","lat":40.4953,"lng":67.8759,"pop":12300,"capital":false},{"name":"Temirlanovka","country":"KZ","lat":42.6,"lng":69.2584,"pop":12245,"capital":false},{"name":"Qiziltepa","country":"UZ","lat":40.0331,"lng":64.85,"pop":12200,"capital":false},{"name":"Oqqo‘rg‘on","country":"UZ","lat":40.8775,"lng":69.0458,"pop":11900,"capital":false},{"name":"Asyqata","country":"KZ","lat":40.8946,"lng":68.3643,"pop":11378,"capital":false},{"name":"Sholakkorgan","country":"KZ","lat":43.7645,"lng":69.1786,"pop":10836,"capital":false},{"name":"Kantagi","country":"KZ","lat":43.5279,"lng":68.5829,"pop":10186,"capital":false},{"name":"Myrzakent","country":"KZ","lat":40.6634,"lng":68.5451,"pop":9752,"capital":false},{"name":"Terenozek","country":"KZ","lat":45.0505,"lng":64.9826,"pop":9661,"capital":false},{"name":"Tyuratam","country":"KZ","lat":45.6501,"lng":63.3116,"pop":9548,"capital":false},{"name":"Shayan","country":"KZ","lat":43.034,"lng":69.3805,"pop":9536,"capital":false},{"name":"Saksaul’skiy","country":"KZ","lat":47.0815,"lng":61.1524,"pop":9296,"capital":false},{"name":"G‘ozg‘on","country":"UZ","lat":40.5908,"lng":65.4947,"pop":8800,"capital":false},{"name":"Kulundu","country":"KG","lat":40.1064,"lng":69.6413,"pop":8250,"capital":false},{"name":"Pakhtakoron","country":"TJ","lat":40.1571,"lng":68.7466,"pop":8220,"capital":false},{"name":"Gazli","country":"UZ","lat":40.1311,"lng":63.4571,"pop":8100,"capital":false},{"name":"Kazalinsk","country":"KZ","lat":45.7626,"lng":62.1033,"pop":7686,"capital":false},{"name":"Zhibek Zholy","country":"KZ","lat":41.4759,"lng":69.365,"pop":7537,"capital":false},{"name":"Nyyazow","country":"TM","lat":41.8393,"lng":60.1317,"pop":7291,"capital":false},{"name":"Birata","country":"TM","lat":40.482,"lng":62.1586,"pop":7212,"capital":false},{"name":"Sastobe","country":"KZ","lat":42.5533,"lng":69.9984,"pop":6827,"capital":false},{"name":"Qabilanbek","country":"KZ","lat":41.4941,"lng":69.2765,"pop":6447,"capital":false},{"name":"Konsoy","country":"TJ","lat":40.4915,"lng":69.7025,"pop":6000,"capital":false},{"name":"Ashchysay","country":"KZ","lat":43.5537,"lng":68.8979,"pop":5635,"capital":false},{"name":"Torghay","country":"KZ","lat":49.6307,"lng":63.4904,"pop":5277,"capital":false},{"name":"Amir Timur","country":"UZ","lat":41.0194,"lng":68.9408,"pop":0,"capital":false}]