[{"name":"Dipalpur","country":"PK","lat":30.6698,"lng":73.6531,"pop":99858,"capital":false},{"name":"Kapurthala Town","country":"IN","lat":31.3801,"lng":75.3811,"pop":98916,"capital":false},{"name":"Swabi","country":"PK","lat":34.1202,"lng":72.4698,"pop":97363,"capital":false},{"name":"Dijkot","country":"PK","lat":31.2174,"lng":72.9962,"pop":96934,"capital":false},{"name":"Khurarianwala","country":"PK","lat":31.4994,"lng":73.2676,"pop":96743,"capital":false},{"name":"Zerakpur","country":"IN","lat":30.6562,"lng":76.8209,"pop":95553,"capital":false},{"name":"Rajpura","country":"IN","lat":30.4786,"lng":76.5928,"pop":92301,"capital":false},{"name":"Kot Kapūra","country":"IN","lat":30.5806,"lng":74.8261,"pop":91979,"capital":false},{"name":"Kabirwala","country":"PK","lat":30.4047,"lng":71.8627,"pop":91932,"capital":false},{"name":"Kunjah","country":"PK","lat":32.5298,"lng":73.9749,"pop":90905,"capital":false},{"name":"Dinga","country":"PK","lat":32.641,"lng":73.7204,"pop":89922,"capital":false},{"name":"Sangrūr","country":"IN","lat":30.2451,"lng":75.8449,"pop":88615,"capital":false},{"name":"Nowshera Kalan","country":"PK","lat":34.0191,"lng":71.9745,"pop":88003,"capital":false},{"name":"Farīdkot","country":"IN","lat":30.674,"lng":74.7558,"pop":87695,"capital":false},{"name":"Udhampur","country":"IN","lat":32.9243,"lng":75.1357,"pop":84015,"capital":false},{"name":"Gobindgarh","country":"IN","lat":30.6709,"lng":76.3019,"pop":82266,"capital":false},{"name":"Malout","country":"IN","lat":30.2112,"lng":74.4818,"pop":81406,"capital":false},{"name":"Fatehjang","country":"PK","lat":33.5649,"lng":72.6428,"pop":81321,"capital":false},{"name":"Kotkapura","country":"IN","lat":30.5819,"lng":74.833,"pop":80741,"capital":false},{"name":"Alahabad","country":"PK","lat":30.877,"lng":74.0552,"pop":80084,"capital":false},{"name":"Khewra","country":"PK","lat":32.6491,"lng":73.0106,"pop":80000,"capital":false},{"name":"Talagang","country":"PK","lat":32.9277,"lng":72.4159,"pop":79431,"capital":false},{"name":"Kahna Nau","country":"PK","lat":31.3671,"lng":74.369,"pop":79301,"capital":false},{"name":"Gurdaspur","country":"IN","lat":32.0393,"lng":75.4032,"pop":77928,"capital":false},{"name":"Bāramūla","country":"IN","lat":34.209,"lng":74.3429,"pop":77276,"capital":false},{"name":"Fazilka","country":"IN","lat":30.4021,"lng":74.0284,"pop":76492,"capital":false},{"name":"Hujra Shah Muqim","country":"PK","lat":30.7417,"lng":73.8233,"pop":76462,"capital":false},{"name":"Paharpur","country":"PK","lat":32.105,"lng":70.9706,"pop":76027,"capital":false},{"name":"Kageleke","country":"CN","lat":37.301,"lng":79.6013,"pop":75730,"capital":false},{"name":"Topi","country":"PK","lat":34.0703,"lng":72.6215,"pop":74867,"capital":false},{"name":"Bhalwal","country":"PK","lat":32.2658,"lng":72.8981,"pop":74744,"capital":false},{"name":"Kharar","country":"IN","lat":30.7463,"lng":76.6469,"pop":74460,"capital":false},{"name":"Sarai Alamgir","country":"PK","lat":32.905,"lng":73.7552,"pop":73967,"capital":false},{"name":"Bat Khela","country":"PK","lat":34.6178,"lng":71.9725,"pop":73525,"capital":false},{"name":"Sopur","country":"IN","lat":34.2867,"lng":74.4723,"pop":71292,"capital":false},{"name":"Rabwah","country":"PK","lat":31.7551,"lng":72.914,"pop":70000,"capital":false},{"name":"Gujar Khan","country":"PK","lat":33.2541,"lng":73.3043,"pop":69374,"capital":false},{"name":"Chuhar Kana","country":"PK","lat":31.75,"lng":73.8,"pop":69321,"capital":false},{"name":"Sunām","country":"IN","lat":30.1288,"lng":75.7994,"pop":69069,"capital":false},{"name":"Darya Khan","country":"PK","lat":31.7845,"lng":71.102,"pop":68622,"capital":false},{"name":"Nābha","country":"IN","lat":30.3758,"lng":76.1529,"pop":67972,"capital":false},{"name":"Shorkot","country":"PK","lat":31.9102,"lng":70.8776,"pop":67439,"capital":false},{"name":"Minchinabad","country":"PK","lat":30.1636,"lng":73.5686,"pop":67164,"capital":false},{"name":"Tarn Taran","country":"IN","lat":31.4519,"lng":74.9278,"pop":66847,"capital":false},{"name":"Qaraqash","country":"CN","lat":37.2725,"lng":79.7344,"pop":66541,"capital":false},{"name":"Mansehra","country":"PK","lat":34.3302,"lng":73.1968,"pop":66486,"capital":false},{"name":"Rishīkesh","country":"IN","lat":30.1078,"lng":78.2926,"pop":66390,"capital":false},{"name":"Basirpur","country":"PK","lat":30.5776,"lng":73.8391,"pop":65541,"capital":false},{"name":"Jagraon","country":"IN","lat":30.7878,"lng":75.4739,"pop":65305,"capital":false},{"name":"Lala Musa","country":"PK","lat":32.7014,"lng":73.9575,"pop":65197,"capital":false},{"name":"Pindi Gheb","country":"PK","lat":33.241,"lng":72.2648,"pop":63810,"capital":false},{"name":"Phalia","country":"PK","lat":32.431,"lng":73.579,"pop":62453,"capital":false},{"name":"Sirhind","country":"IN","lat":30.6432,"lng":76.3842,"pop":60847,"capital":false},{"name":"Faruka","country":"PK","lat":31.8864,"lng":72.4136,"pop":60000,"capital":false},{"name":"Kathua","country":"IN","lat":32.3694,"lng":75.5254,"pop":59866,"capital":false},{"name":"Chitral","country":"PK","lat":35.8518,"lng":71.7864,"pop":57157,"capital":false},{"name":"Bageqi","country":"CN","lat":37.1407,"lng":79.8351,"pop":57153,"capital":false},{"name":"Jahangira","country":"PK","lat":33.9642,"lng":72.221,"pop":57011,"capital":false},{"name":"Haripur","country":"PK","lat":33.9978,"lng":72.9349,"pop":56977,"capital":false},{"name":"Jamrud","country":"PK","lat":34.0015,"lng":71.3801,"pop":56642,"capital":false},{"name":"Ropar","country":"IN","lat":30.969,"lng":76.527,"pop":56038,"capital":false},{"name":"Dhūri","country":"IN","lat":30.3685,"lng":75.8679,"pop":55225,"capital":false},{"name":"Sharifabad","country":"PK","lat":33.4341,"lng":73.3628,"pop":55027,"capital":false},{"name":"Dullewala","country":"PK","lat":31.8344,"lng":71.4364,"pop":54277,"capital":false},{"name":"Samāna","country":"IN","lat":30.154,"lng":76.1985,"pop":54072,"capital":false},{"name":"Pabbi","country":"PK","lat":34.0097,"lng":71.7945,"pop":52701,"capital":false},{"name":"Lalian","country":"PK","lat":31.8246,"lng":72.8012,"pop":52542,"capital":false},{"name":"Qabula","country":"PK","lat":30.1778,"lng":73.0651,"pop":52495,"capital":false},{"name":"Pir Mahal","country":"PK","lat":30.7666,"lng":72.4346,"pop":52476,"capital":false},{"name":"Zhawa","country":"CN","lat":37.2142,"lng":79.629,"pop":52165,"capital":false},{"name":"Zepu","country":"CN","lat":38.1887,"lng":77.2708,"pop":51691,"capital":false},{"name":"Rampura Phul","country":"IN","lat":30.2756,"lng":75.2425,"pop":51023,"capital":false},{"name":"Kot Mumin","country":"PK","lat":32.1884,"lng":73.0299,"pop":51021,"capital":false},{"name":"Naya Gaon","country":"IN","lat":30.7752,"lng":76.7931,"pop":50869,"capital":false},{"name":"Jahanian","country":"PK","lat":30.0393,"lng":71.8167,"pop":50318,"capital":false},{"name":"Rawalakot","country":"PK","lat":33.8578,"lng":73.7604,"pop":50000,"capital":false},{"name":"Buni","country":"PK","lat":36.2733,"lng":72.2593,"pop":50000,"capital":false},{"name":"Hadali","country":"PK","lat":32.6404,"lng":74.569,"pop":49663,"capital":false},{"name":"Sillanwali","country":"PK","lat":31.8254,"lng":72.5406,"pop":49311,"capital":false},{"name":"Nangal","country":"IN","lat":31.3897,"lng":76.3757,"pop":48497,"capital":false},{"name":"Asadābād","country":"AF","lat":34.8731,"lng":71.147,"pop":48400,"capital":false},{"name":"Jalandhar Cantonment","country":"IN","lat":31.2942,"lng":75.6197,"pop":47845,"capital":false},{"name":"Kotli","country":"PK","lat":33.5184,"lng":73.9022,"pop":46907,"capital":false},{"name":"Nawanshahr","country":"IN","lat":31.1245,"lng":76.1161,"pop":46024,"capital":false},{"name":"Mustafabad","country":"PK","lat":30.8922,"lng":73.4989,"pop":45795,"capital":false},{"name":"Kamra","country":"PK","lat":33.855,"lng":72.3942,"pop":45738,"capital":false},{"name":"Chak Thirty-one -Eleven Left","country":"PK","lat":30.4239,"lng":72.6974,"pop":45665,"capital":false},{"name":"Rāmpura","country":"IN","lat":30.256,"lng":75.2412,"pop":45639,"capital":false},{"name":"Giddarbāha","country":"IN","lat":30.1995,"lng":74.6663,"pop":45370,"capital":false},{"name":"Kanganpur","country":"PK","lat":30.7647,"lng":74.1229,"pop":45000,"capital":false},{"name":"Fayzabad","country":"AF","lat":37.1166,"lng":70.58,"pop":44421,"capital":false},{"name":"Fatehpur","country":"PK","lat":31.1777,"lng":71.2048,"pop":44084,"capital":false},{"name":"Kamra","country":"PK","lat":33.747,"lng":73.5123,"pop":43779,"capital":false},{"name":"Kuiya","country":"CN","lat":37.296,"lng":79.6358,"pop":43212,"capital":false},{"name":"Kundian","country":"PK","lat":32.4578,"lng":71.4789,"pop":42903,"capital":false},{"name":"Sukheke Mandi","country":"PK","lat":31.8654,"lng":73.5088,"pop":42626,"capital":false},{"name":"Shāhābād","country":"IN","lat":30.1678,"lng":76.8705,"pop":42607,"capital":false},{"name":"Amangarh","country":"PK","lat":34.0058,"lng":71.9297,"pop":42123,"capital":false},{"name":"Patti","country":"IN","lat":31.2809,"lng":74.8585,"pop":40976,"capital":false},{"name":"Ka'ersai","country":"CN","lat":37.4842,"lng":79.5956,"pop":40892,"capital":false},{"name":"Naushahra Virkan","country":"PK","lat":31.9626,"lng":73.9712,"pop":40853,"capital":false},{"name":"Solan","country":"IN","lat":30.9091,"lng":77.1087,"pop":40283,"capital":false},{"name":"Choa Saidan Shah","country":"PK","lat":32.7196,"lng":72.9863,"pop":40000,"capital":false},{"name":"Ladhewala Waraich","country":"PK","lat":32.1569,"lng":74.1156,"pop":39757,"capital":false},{"name":"Jalālābād","country":"IN","lat":30.6062,"lng":74.2573,"pop":39525,"capital":false},{"name":"Baishikante","country":"CN","lat":38.4596,"lng":77.479,"pop":39243,"capital":false},{"name":"Khalabat","country":"PK","lat":34.06,"lng":72.8896,"pop":39148,"capital":false},{"name":"Kamar Mushani","country":"PK","lat":32.8432,"lng":71.3619,"pop":39013,"capital":false},{"name":"Chīka","country":"IN","lat":30.0489,"lng":76.343,"pop":38952,"capital":false},{"name":"Tank","country":"PK","lat":32.2171,"lng":70.3832,"pop":38488,"capital":false},{"name":"Tandlianwala","country":"PK","lat":31.0336,"lng":73.1327,"pop":38285,"capital":false},{"name":"Chak Azam Sahu","country":"PK","lat":30.752,"lng":73.0283,"pop":38216,"capital":false},{"name":"Havelian","country":"PK","lat":34.0535,"lng":73.1599,"pop":37509,"capital":false},{"name":"Zira","country":"IN","lat":30.9685,"lng":74.9911,"pop":37498,"capital":false},{"name":"Leh","country":"IN","lat":34.165,"lng":77.584,"pop":37475,"capital":false},{"name":"Jaito","country":"IN","lat":30.4513,"lng":74.8919,"pop":37377,"capital":false},{"name":"Bandipura","country":"IN","lat":34.4173,"lng":74.6431,"pop":37081,"capital":false},{"name":"Nakodar","country":"IN","lat":31.1259,"lng":75.4751,"pop":36973,"capital":false},{"name":"Elixku","country":"CN","lat":38.7092,"lng":77.3706,"pop":36793,"capital":false},{"name":"Lakki","country":"PK","lat":32.6072,"lng":70.9123,"pop":36391,"capital":false},{"name":"Hangu","country":"PK","lat":33.532,"lng":71.0595,"pop":36150,"capital":false},{"name":"Risalpur Cantonment","country":"PK","lat":34.0605,"lng":71.9928,"pop":36074,"capital":false},{"name":"Pinjaur","country":"IN","lat":30.7987,"lng":76.9182,"pop":35912,"capital":false},{"name":"Tangi","country":"PK","lat":34.3009,"lng":71.6524,"pop":35659,"capital":false},{"name":"Puqiakeqi","country":"CN","lat":37.3174,"lng":79.7053,"pop":35142,"capital":false},{"name":"Malakwal City","country":"PK","lat":32.5549,"lng":73.2122,"pop":35000,"capital":false},{"name":"Khangah Dogran","country":"PK","lat":31.8329,"lng":73.6221,"pop":34949,"capital":false},{"name":"Narang Mandi","country":"PK","lat":31.9038,"lng":74.5159,"pop":34778,"capital":false},{"name":"Huangdi","country":"CN","lat":38.809,"lng":77.4486,"pop":34658,"capital":false},{"name":"Malakwal","country":"PK","lat":32.5545,"lng":73.2127,"pop":34589,"capital":false},{"name":"Tage'erqi","country":"CN","lat":38.5452,"lng":77.2573,"pop":34554,"capital":false},{"name":"Utmanzai","country":"PK","lat":34.1878,"lng":71.7627,"pop":34257,"capital":false},{"name":"Zaida","country":"PK","lat":34.0595,"lng":72.4669,"pop":34200,"capital":false},{"name":"Kālka","country":"IN","lat":30.8398,"lng":76.9407,"pop":34134,"capital":false},{"name":"Yawa","country":"CN","lat":37.4119,"lng":79.5143,"pop":33949,"capital":false},{"name":"Bāgh","country":"PK","lat":33.9811,"lng":73.7761,"pop":33548,"capital":false},{"name":"Mamun","country":"IN","lat":32.2824,"lng":75.6983,"pop":32689,"capital":false},{"name":"Bahārak","country":"AF","lat":37.0025,"lng":70.9066,"pop":32551,"capital":false},{"name":"Mixia","country":"CN","lat":38.454,"lng":77.2492,"pop":32419,"capital":false},{"name":"Saybag","country":"CN","lat":37.1497,"lng":79.6583,"pop":32355,"capital":false},{"name":"Mamu Kanjan","country":"PK","lat":30.8304,"lng":72.7994,"pop":31914,"capital":false},{"name":"Sharqpur Sharif","country":"PK","lat":31.4612,"lng":74.1009,"pop":31855,"capital":false},{"name":"Maur","country":"IN","lat":30.0833,"lng":75.25,"pop":31849,"capital":false},{"name":"Bhera","country":"PK","lat":32.4821,"lng":72.9087,"pop":31781,"capital":false},{"name":"Dursh Khela","country":"PK","lat":35.0003,"lng":72.4522,"pop":31732,"capital":false},{"name":"Raiwind","country":"PK","lat":31.249,"lng":74.2153,"pop":31592,"capital":false},{"name":"Wudalike","country":"CN","lat":38.3618,"lng":77.1297,"pop":31525,"capital":false},{"name":"Ahmedgarh","country":"IN","lat":30.6773,"lng":75.8263,"pop":31302,"capital":false},{"name":"Yengisar","country":"CN","lat":38.9258,"lng":76.1714,"pop":31113,"capital":false},{"name":"Kūrāli","country":"IN","lat":30.8342,"lng":76.5768,"pop":31060,"capital":false},{"name":"Dharamsala","country":"IN","lat":32.2201,"lng":76.3201,"pop":30764,"capital":false},{"name":"Chak Five Hundred Seventy-five","country":"PK","lat":31.5451,"lng":73.8289,"pop":30738,"capital":false},{"name":"Nowshera Cantonment","country":"PK","lat":33.9983,"lng":71.9983,"pop":30599,"capital":false},{"name":"Khorugh","country":"TJ","lat":37.4904,"lng":71.5534,"pop":30500,"capital":false},{"name":"Qarek","country":"CN","lat":38.3722,"lng":76.9903,"pop":29946,"capital":false},{"name":"Pind Dadan Khan","country":"PK","lat":32.5866,"lng":73.0446,"pop":29935,"capital":false},{"name":"Yishikuli","country":"CN","lat":38.4889,"lng":77.2014,"pop":29930,"capital":false},{"name":"Baddi","country":"IN","lat":30.9578,"lng":76.7914,"pop":29911,"capital":false},{"name":"Upper Dir","country":"PK","lat":35.2074,"lng":71.8768,"pop":29869,"capital":false},{"name":"Mukeriān","country":"IN","lat":31.9539,"lng":75.6172,"pop":29841,"capital":false},{"name":"Akora Khattak","country":"PK","lat":34.0034,"lng":72.1256,"pop":29750,"capital":false},{"name":"Tuomuwusitang","country":"CN","lat":38.3631,"lng":77.2315,"pop":29579,"capital":false},{"name":"Kalur Kot","country":"PK","lat":32.1551,"lng":71.2663,"pop":29578,"capital":false},{"name":"Rajaori","country":"IN","lat":33.3753,"lng":74.3092,"pop":29486,"capital":false},{"name":"Thal","country":"PK","lat":35.4784,"lng":72.2438,"pop":29331,"capital":false},{"name":"Jandiāla Gurū","country":"IN","lat":31.562,"lng":75.0277,"pop":29232,"capital":false},{"name":"Garh Maharaja","country":"PK","lat":30.8338,"lng":71.9049,"pop":29153,"capital":false},{"name":"Jahanian Shah","country":"PK","lat":31.8054,"lng":72.2774,"pop":29095,"capital":false},{"name":"Layka","country":"CN","lat":37.0769,"lng":79.7317,"pop":29032,"capital":false},{"name":"Manhala","country":"PK","lat":31.5333,"lng":74.55,"pop":29000,"capital":false},{"name":"Hajira","country":"PK","lat":33.7739,"lng":73.8944,"pop":28953,"capital":false},{"name":"Nāhan","country":"IN","lat":30.5603,"lng":77.2943,"pop":28899,"capital":false},{"name":"Gil","country":"IN","lat":30.8469,"lng":75.8636,"pop":28884,"capital":false},{"name":"Rāikot","country":"IN","lat":30.65,"lng":75.6,"pop":28734,"capital":false},{"name":"Mananwala","country":"PK","lat":31.588,"lng":73.6893,"pop":28432,"capital":false},{"name":"Jammu Cantonment","country":"IN","lat":32.7044,"lng":74.8611,"pop":28396,"capital":false},{"name":"Sujānpur","country":"IN","lat":32.3162,"lng":75.6074,"pop":28270,"capital":false},{"name":"Ganderbal","country":"IN","lat":34.2262,"lng":74.7748,"pop":28233,"capital":false},{"name":"Mandi","country":"IN","lat":31.7119,"lng":76.9327,"pop":28217,"capital":false},{"name":"Fazilpur","country":"PK","lat":32.1763,"lng":75.0658,"pop":28213,"capital":false},{"name":"Pūnch","country":"IN","lat":33.7703,"lng":74.0925,"pop":28197,"capital":false},{"name":"Talamba","country":"PK","lat":30.5269,"lng":72.2408,"pop":28151,"capital":false},{"name":"Jhawarian","country":"PK","lat":32.3619,"lng":72.6228,"pop":27893,"capital":false},{"name":"Mahna","country":"IN","lat":30.228,"lng":74.9937,"pop":27733,"capital":false},{"name":"Rāipur","country":"IN","lat":30.311,"lng":78.0898,"pop":27702,"capital":false},{"name":"Bhimber","country":"PK","lat":32.9746,"lng":74.0785,"pop":27636,"capital":false},{"name":"Tehri","country":"IN","lat":30.3909,"lng":78.4803,"pop":27611,"capital":false},{"name":"Akesalayi","country":"CN","lat":37.1692,"lng":79.6898,"pop":27352,"capital":false},{"name":"Buzhake","country":"CN","lat":37.0657,"lng":79.8,"pop":27137,"capital":false},{"name":"Yigai'erqi","country":"CN","lat":38.3408,"lng":77.4692,"pop":27038,"capital":false},{"name":"Jaglot","country":"PK","lat":35.6884,"lng":74.6241,"pop":27000,"capital":false},{"name":"Chawinda","country":"PK","lat":32.3443,"lng":74.7051,"pop":26906,"capital":false},{"name":"Sāmba","country":"IN","lat":32.5625,"lng":75.1199,"pop":26893,"capital":false},{"name":"Kartārpur","country":"IN","lat":31.4427,"lng":75.4985,"pop":26701,"capital":false},{"name":"Pauri","country":"IN","lat":30.1529,"lng":78.7771,"pop":26514,"capital":false},{"name":"Bablāi","country":"IN","lat":30.3573,"lng":76.879,"pop":26412,"capital":false},{"name":"Daud Khel","country":"PK","lat":32.8753,"lng":71.5712,"pop":26395,"capital":false},{"name":"Mitha Tiwana","country":"PK","lat":32.2454,"lng":72.1062,"pop":26390,"capital":false},{"name":"Kuoyiqi","country":"CN","lat":37.3545,"lng":79.721,"pop":26346,"capital":false},{"name":"Hazro City","country":"PK","lat":33.9099,"lng":72.4918,"pop":26309,"capital":false},{"name":"Basi","country":"IN","lat":30.5881,"lng":76.845,"pop":26295,"capital":false},{"name":"Ishqoshim","country":"TJ","lat":36.7248,"lng":71.6133,"pop":26000,"capital":false},{"name":"Mussoorie","country":"IN","lat":30.455,"lng":78.0707,"pop":25753,"capital":false},{"name":"Karor","country":"PK","lat":31.2246,"lng":70.9515,"pop":25634,"capital":false},{"name":"Jandiāla","country":"IN","lat":31.1593,"lng":75.6176,"pop":25631,"capital":false},{"name":"Dorāha","country":"IN","lat":30.7995,"lng":76.0236,"pop":25424,"capital":false},{"name":"Sundarnagar","country":"IN","lat":31.5352,"lng":76.905,"pop":25338,"capital":false},{"name":"Bagha Purana","country":"IN","lat":30.6881,"lng":75.0984,"pop":25206,"capital":false},{"name":"Dasūya","country":"IN","lat":31.8168,"lng":75.6531,"pop":25192,"capital":false},{"name":"Murree","country":"PK","lat":33.9084,"lng":73.3903,"pop":25186,"capital":false},{"name":"Pāonta Sāhib","country":"IN","lat":30.4367,"lng":77.6246,"pop":25183,"capital":false},{"name":"Awati","country":"CN","lat":38.6084,"lng":77.3964,"pop":25119,"capital":false},{"name":"Padam","country":"IN","lat":33.4666,"lng":76.8849,"pop":25000,"capital":false},{"name":"Māchhīwāra","country":"IN","lat":30.9156,"lng":76.2002,"pop":24916,"capital":false},{"name":"Ahmadpur Sial","country":"PK","lat":30.6779,"lng":71.7434,"pop":24889,"capital":false},{"name":"Talwāra","country":"IN","lat":31.9376,"lng":75.8866,"pop":24752,"capital":false},{"name":"Phillaur","country":"IN","lat":31.0189,"lng":75.7911,"pop":24688,"capital":false},{"name":"Tuwaite","country":"CN","lat":37.3449,"lng":79.7681,"pop":24685,"capital":false},{"name":"Bijbehara","country":"IN","lat":33.7938,"lng":75.107,"pop":24590,"capital":false},{"name":"Jiahanbage","country":"CN","lat":37.1965,"lng":79.7057,"pop":24524,"capital":false},{"name":"Kulachi","country":"PK","lat":31.9306,"lng":70.4596,"pop":24481,"capital":false},{"name":"Chak One Hundred Twenty Nine Left","country":"PK","lat":30.4292,"lng":73.0452,"pop":24053,"capital":false},{"name":"Morinda","country":"IN","lat":30.7901,"lng":76.4988,"pop":24022,"capital":false},{"name":"Dīnānagar","country":"IN","lat":32.1366,"lng":75.4729,"pop":23976,"capital":false},{"name":"Longowal","country":"IN","lat":30.1985,"lng":75.6819,"pop":23851,"capital":false},{"name":"Qadian","country":"IN","lat":31.822,"lng":75.3766,"pop":23632,"capital":false},{"name":"Ying’awati","country":"CN","lat":37.2988,"lng":79.8303,"pop":23624,"capital":false},{"name":"Kulgam","country":"IN","lat":33.6446,"lng":75.0192,"pop":23584,"capital":false},{"name":"Alamaiti","country":"CN","lat":38.582,"lng":77.4762,"pop":23583,"capital":false},{"name":"Harappa","country":"PK","lat":30.6325,"lng":72.8703,"pop":23500,"capital":false},{"name":"Urmar","country":"IN","lat":31.6814,"lng":75.6355,"pop":23419,"capital":false},{"name":"Manglai","country":"CN","lat":37.2752,"lng":79.6781,"pop":23408,"capital":false},{"name":"Tapa","country":"IN","lat":30.2979,"lng":75.3694,"pop":23248,"capital":false},{"name":"Pallandri","country":"PK","lat":33.7153,"lng":73.6837,"pop":23243,"capital":false},{"name":"Zafarwal","country":"PK","lat":32.3446,"lng":74.8999,"pop":23078,"capital":false},{"name":"Jurm","country":"AF","lat":36.8648,"lng":70.8342,"pop":23064,"capital":false},{"name":"Dooru Verinag","country":"IN","lat":33.5594,"lng":75.2322,"pop":22968,"capital":false},{"name":"Naraingarh","country":"IN","lat":30.478,"lng":77.128,"pop":22832,"capital":false},{"name":"Kahuta","country":"PK","lat":33.5918,"lng":73.3874,"pop":22551,"capital":false},{"name":"Sānehwāl","country":"IN","lat":30.8413,"lng":75.9855,"pop":22484,"capital":false},{"name":"Sisauli","country":"IN","lat":30.143,"lng":77.2596,"pop":22479,"capital":false},{"name":"Bhawānīgarh","country":"IN","lat":30.2669,"lng":76.0385,"pop":22320,"capital":false},{"name":"Gulebage","country":"CN","lat":38.4127,"lng":77.2303,"pop":22255,"capital":false},{"name":"Badāmibāgh","country":"IN","lat":34.0738,"lng":74.8528,"pop":22214,"capital":false},{"name":"Kuri Dulal","country":"PK","lat":33.3844,"lng":73.2637,"pop":22000,"capital":false},{"name":"Laungowāl","country":"IN","lat":30.1939,"lng":75.6809,"pop":21880,"capital":false},{"name":"Kopawor","country":"IN","lat":34.5286,"lng":74.264,"pop":21771,"capital":false},{"name":"Bhaun","country":"PK","lat":32.8605,"lng":72.7568,"pop":21711,"capital":false},{"name":"Pāmpur","country":"IN","lat":34.0152,"lng":74.919,"pop":21680,"capital":false},{"name":"Bālāchor","country":"IN","lat":31.0606,"lng":76.3017,"pop":21631,"capital":false},{"name":"Doda","country":"IN","lat":33.1492,"lng":75.5475,"pop":21605,"capital":false},{"name":"Barāra","country":"IN","lat":30.2147,"lng":77.0403,"pop":21545,"capital":false},{"name":"Chamba","country":"IN","lat":32.5553,"lng":76.1265,"pop":21502,"capital":false},{"name":"Chaksawari","country":"PK","lat":33.2641,"lng":73.7853,"pop":21475,"capital":false},{"name":"Kotli Loharan","country":"PK","lat":32.5889,"lng":74.4947,"pop":21463,"capital":false},{"name":"Lālru","country":"IN","lat":30.4917,"lng":76.7987,"pop":21394,"capital":false},{"name":"Sanaur","country":"IN","lat":30.3018,"lng":76.4579,"pop":21201,"capital":false},{"name":"Oghi","country":"PK","lat":34.4985,"lng":73.014,"pop":21129,"capital":false},{"name":"Ajnāla","country":"IN","lat":31.8447,"lng":74.763,"pop":21107,"capital":false},{"name":"Adampur","country":"IN","lat":31.4322,"lng":75.7148,"pop":20922,"capital":false},{"name":"Banga","country":"IN","lat":31.1887,"lng":75.995,"pop":20906,"capital":false},{"name":"Kot Ghulam Muhammad","country":"PK","lat":32.3331,"lng":74.5469,"pop":20897,"capital":false},{"name":"Clement Town","country":"IN","lat":30.2636,"lng":78.0086,"pop":20806,"capital":false},{"name":"Akhnūr","country":"IN","lat":32.8955,"lng":74.7349,"pop":20756,"capital":false},{"name":"Lawa","country":"PK","lat":32.6968,"lng":71.9327,"pop":20619,"capital":false},{"name":"Dhāriwāl","country":"IN","lat":31.9562,"lng":75.3239,"pop":20604,"capital":false},{"name":"Kishtwār","country":"IN","lat":33.3135,"lng":75.7673,"pop":20553,"capital":false},{"name":"Bhikkiwind Uttār","country":"IN","lat":31.3494,"lng":74.7027,"pop":20526,"capital":false},{"name":"Nangli","country":"IN","lat":31.6863,"lng":74.8875,"pop":20440,"capital":false},{"name":"Basi","country":"IN","lat":30.6885,"lng":76.4011,"pop":20288,"capital":false},{"name":"Raipur Domana","country":"IN","lat":32.7984,"lng":74.7827,"pop":20238,"capital":false},{"name":"Srīnagar","country":"IN","lat":30.2224,"lng":78.7834,"pop":20216,"capital":false},{"name":"Pulwama","country":"IN","lat":33.874,"lng":74.8996,"pop":20071,"capital":false},{"name":"Surkhpur","country":"PK","lat":32.7182,"lng":74.4477,"pop":20000,"capital":false},{"name":"Sook Kalan","country":"PK","lat":32.597,"lng":74.1465,"pop":20000,"capital":false},{"name":"Dhanaula","country":"IN","lat":30.2822,"lng":75.5734,"pop":19920,"capital":false},{"name":"Dhaunkal","country":"PK","lat":32.4061,"lng":74.1371,"pop":19871,"capital":false},{"name":"Kulu","country":"IN","lat":31.9584,"lng":77.1082,"pop":19831,"capital":false},{"name":"Paikeqi","country":"CN","lat":38.5501,"lng":77.2083,"pop":19809,"capital":false},{"name":"Sarai Naurang","country":"PK","lat":32.8258,"lng":70.7811,"pop":19694,"capital":false},{"name":"Samrāla","country":"IN","lat":30.836,"lng":76.1932,"pop":19678,"capital":false},{"name":"Pattan","country":"IN","lat":34.1613,"lng":74.5563,"pop":19538,"capital":false},{"name":"Baddomalhi","country":"PK","lat":31.9904,"lng":74.6641,"pop":19351,"capital":false},{"name":"Dayal","country":"PK","lat":33.3122,"lng":73.7035,"pop":19290,"capital":false},{"name":"Hamīrpur","country":"IN","lat":31.6841,"lng":76.5251,"pop":19280,"capital":false},{"name":"Khai Gala","country":"PK","lat":33.8459,"lng":73.8272,"pop":19119,"capital":false},{"name":"Dharmkot","country":"IN","lat":30.9456,"lng":75.2324,"pop":19057,"capital":false},{"name":"Kansāpur","country":"IN","lat":30.1455,"lng":77.2663,"pop":18909,"capital":false},{"name":"Tuohula","country":"CN","lat":37.2423,"lng":79.6928,"pop":18800,"capital":false},{"name":"Banūr","country":"IN","lat":30.5541,"lng":76.7195,"pop":18775,"capital":false},{"name":"Kaqun","country":"CN","lat":37.9781,"lng":76.8672,"pop":18749,"capital":false},{"name":"Una","country":"IN","lat":31.4649,"lng":76.2691,"pop":18722,"capital":false},{"name":"Kardhān","country":"IN","lat":30.3177,"lng":76.866,"pop":18662,"capital":false},{"name":"Bhadaur","country":"IN","lat":30.4765,"lng":75.3305,"pop":18561,"capital":false},{"name":"Lachi","country":"PK","lat":33.3829,"lng":71.3373,"pop":18537,"capital":false},{"name":"Behat","country":"IN","lat":30.1718,"lng":77.6139,"pop":18223,"capital":false},{"name":"Jand","country":"PK","lat":33.433,"lng":72.0188,"pop":18170,"capital":false},{"name":"Fatehgarh Chūriān","country":"IN","lat":31.8643,"lng":74.9567,"pop":18051,"capital":false},{"name":"Bhogpur","country":"IN","lat":31.5544,"lng":75.6427,"pop":18008,"capital":false},{"name":"Musa Banda/Musa khan kallay","country":"PK","lat":34.0337,"lng":72.4818,"pop":18000,"capital":false},{"name":"Trāl","country":"IN","lat":33.9271,"lng":75.1159,"pop":17844,"capital":false},{"name":"Bhīkhi","country":"IN","lat":30.0592,"lng":75.535,"pop":17825,"capital":false},{"name":"Dunbage","country":"CN","lat":38.8574,"lng":77.5047,"pop":17579,"capital":false},{"name":"Alipur","country":"PK","lat":33.6489,"lng":73.1779,"pop":17566,"capital":false},{"name":"Achhībal","country":"IN","lat":33.6841,"lng":75.2184,"pop":17556,"capital":false},{"name":"Baffa","country":"PK","lat":34.4377,"lng":73.2237,"pop":17556,"capital":false},{"name":"Arele","country":"CN","lat":38.3801,"lng":77.3132,"pop":17398,"capital":false},{"name":"Huoshilafu","country":"CN","lat":37.8664,"lng":76.6958,"pop":17351,"capital":false},{"name":"Mehtar Lām","country":"AF","lat":34.6714,"lng":70.2094,"pop":17345,"capital":false},{"name":"Bhopalwala","country":"PK","lat":32.4297,"lng":74.3635,"pop":17341,"capital":false},{"name":"Talwandi Bhai","country":"IN","lat":30.8558,"lng":74.9298,"pop":17285,"capital":false},{"name":"Guru Har Sahāi","country":"IN","lat":30.7086,"lng":74.4041,"pop":17192,"capital":false},{"name":"Uttarkāshi","country":"IN","lat":30.7299,"lng":78.4434,"pop":17123,"capital":false},{"name":"Garhshankar","country":"IN","lat":31.2154,"lng":76.1415,"pop":16955,"capital":false},{"name":"Dirba","country":"IN","lat":30.0722,"lng":75.9961,"pop":16952,"capital":false},{"name":"Bage'awati","country":"CN","lat":38.4891,"lng":77.5402,"pop":16951,"capital":false},{"name":"Sultanpur","country":"IN","lat":31.2147,"lng":75.196,"pop":16877,"capital":false},{"name":"Islamgarh","country":"PK","lat":33.1897,"lng":73.8383,"pop":16651,"capital":false},{"name":"Langru","country":"CN","lat":36.8933,"lng":79.6214,"pop":16505,"capital":false},{"name":"Gorāya","country":"IN","lat":31.1241,"lng":75.7724,"pop":16462,"capital":false},{"name":"Kuoshi'airike","country":"CN","lat":38.6228,"lng":77.2795,"pop":16413,"capital":false},{"name":"Wu'erqi","country":"CN","lat":37.3202,"lng":79.5593,"pop":16400,"capital":false},{"name":"Kaleke Mandi","country":"PK","lat":31.976,"lng":73.6,"pop":16361,"capital":false},{"name":"Shopian","country":"IN","lat":33.7172,"lng":74.8341,"pop":16360,"capital":false},{"name":"Mūllānpur","country":"IN","lat":30.8546,"lng":75.6609,"pop":16356,"capital":false},{"name":"Kargil","country":"IN","lat":34.5577,"lng":76.1262,"pop":16338,"capital":false},{"name":"Anandpur","country":"IN","lat":31.2393,"lng":76.5025,"pop":16282,"capital":false},{"name":"Mangla","country":"PK","lat":31.8931,"lng":72.3817,"pop":16264,"capital":false},{"name":"Mullānwāla","country":"IN","lat":31.0619,"lng":74.8228,"pop":16183,"capital":false},{"name":"Karimabad","country":"PK","lat":36.3269,"lng":74.6614,"pop":16000,"capital":false},{"name":"Balaungi","country":"IN","lat":30.7306,"lng":76.6937,"pop":15982,"capital":false},{"name":"Sodhri","country":"PK","lat":32.4621,"lng":74.1821,"pop":15977,"capital":false},{"name":"Kalabagh","country":"PK","lat":32.9616,"lng":71.5464,"pop":15976,"capital":false},{"name":"Bunjwah","country":"IN","lat":33.1458,"lng":75.9479,"pop":15899,"capital":false},{"name":"Azhatebage","country":"CN","lat":38.6588,"lng":77.4664,"pop":15846,"capital":false},{"name":"Kallar Kahar","country":"PK","lat":32.78,"lng":72.6979,"pop":15800,"capital":false},{"name":"Āsmār","country":"AF","lat":35.0333,"lng":71.3581,"pop":15708,"capital":false},{"name":"Rāhon","country":"IN","lat":31.0528,"lng":76.1191,"pop":15676,"capital":false},{"name":"Harnoli","country":"PK","lat":32.2787,"lng":71.5543,"pop":15669,"capital":false},{"name":"Sarai Sidhu","country":"PK","lat":30.5948,"lng":71.9699,"pop":15632,"capital":false},{"name":"Gulgam","country":"IN","lat":34.5501,"lng":74.2173,"pop":15587,"capital":false},{"name":"Husainpur","country":"IN","lat":31.3119,"lng":75.3217,"pop":15575,"capital":false},{"name":"Mani Mājra","country":"IN","lat":30.714,"lng":76.8382,"pop":15489,"capital":false},{"name":"Brāhmanān di Bāri","country":"IN","lat":32.644,"lng":74.911,"pop":15453,"capital":false},{"name":"Badgām","country":"IN","lat":34.0152,"lng":74.7207,"pop":15338,"capital":false},{"name":"Jugiāl","country":"IN","lat":32.3684,"lng":75.6782,"pop":15210,"capital":false},{"name":"Goniāna Mandi","country":"IN","lat":30.3168,"lng":74.9125,"pop":15208,"capital":false},{"name":"R.S. Pora","country":"IN","lat":32.6059,"lng":74.7334,"pop":15197,"capital":false},{"name":"Markaz-e Woluswalī-ye Āchīn","country":"AF","lat":34.1258,"lng":70.7078,"pop":15098,"capital":false},{"name":"Sumbal","country":"IN","lat":34.2307,"lng":74.6472,"pop":15041,"capital":false},{"name":"Saidpur","country":"PK","lat":33.7419,"lng":73.0705,"pop":15000,"capital":false},{"name":"Bhucho Mandi","country":"IN","lat":30.2129,"lng":75.0969,"pop":14961,"capital":false},{"name":"Nawānshahr","country":"IN","lat":32.7651,"lng":74.5277,"pop":14884,"capital":false},{"name":"Daira Din Panah","country":"PK","lat":30.5705,"lng":70.9372,"pop":14878,"capital":false},{"name":"Sādhaura","country":"IN","lat":30.3854,"lng":77.222,"pop":14818,"capital":false},{"name":"Kalasu","country":"CN","lat":38.3062,"lng":77.5055,"pop":14756,"capital":false},{"name":"Kupwāra","country":"IN","lat":34.0306,"lng":74.2642,"pop":14711,"capital":false},{"name":"Amloh","country":"IN","lat":30.6084,"lng":76.232,"pop":14696,"capital":false},{"name":"Makhu","country":"IN","lat":31.1034,"lng":74.9963,"pop":14658,"capital":false},{"name":"Nūrmahal","country":"IN","lat":31.0966,"lng":75.5939,"pop":14560,"capital":false},{"name":"Rāya","country":"IN","lat":31.5424,"lng":75.2357,"pop":14506,"capital":false},{"name":"Majītha","country":"IN","lat":31.7571,"lng":74.9589,"pop":14503,"capital":false},{"name":"Shāhkot","country":"IN","lat":31.0817,"lng":75.3371,"pop":14488,"capital":false},{"name":"Dariya","country":"IN","lat":30.6986,"lng":76.8176,"pop":14470,"capital":false},{"name":"Bhagta","country":"IN","lat":30.4757,"lng":75.0981,"pop":14467,"capital":false},{"name":"Jāndli","country":"IN","lat":30.3571,"lng":76.7964,"pop":14397,"capital":false},{"name":"Rasulnagar","country":"PK","lat":32.3279,"lng":73.7804,"pop":14392,"capital":false},{"name":"Rāja Sānsi","country":"IN","lat":31.7202,"lng":74.8008,"pop":14298,"capital":false},{"name":"Mankera","country":"PK","lat":31.3877,"lng":71.4405,"pop":14184,"capital":false},{"name":"Kyelang","country":"IN","lat":32.5717,"lng":77.0245,"pop":14182,"capital":false},{"name":"Bhulwāl","country":"IN","lat":32.8371,"lng":74.8193,"pop":14174,"capital":false},{"name":"Shahpur","country":"PK","lat":32.2682,"lng":72.4688,"pop":14153,"capital":false},{"name":"Bilaspur","country":"IN","lat":31.3303,"lng":76.7566,"pop":14037,"capital":false},{"name":"Muhammad Pur","country":"PK","lat":30.7102,"lng":73.0178,"pop":14018,"capital":false},{"name":"Chāmkor","country":"IN","lat":30.8975,"lng":76.4154,"pop":13920,"capital":false},{"name":"Krālapur","country":"IN","lat":33.9995,"lng":74.8133,"pop":13889,"capital":false},{"name":"Joshīmath","country":"IN","lat":30.5554,"lng":79.5644,"pop":13865,"capital":false},{"name":"Nagrota","country":"IN","lat":32.8011,"lng":74.9132,"pop":13836,"capital":false},{"name":"Ismāilābād","country":"IN","lat":30.1172,"lng":76.669,"pop":13726,"capital":false},{"name":"Radaur","country":"IN","lat":30.0271,"lng":77.1518,"pop":13690,"capital":false},{"name":"Karak","country":"PK","lat":33.1163,"lng":71.0935,"pop":13679,"capital":false},{"name":"Kalanaur","country":"IN","lat":32.0123,"lng":75.1506,"pop":13671,"capital":false},{"name":"Handwāra","country":"IN","lat":34.3968,"lng":74.2814,"pop":13600,"capital":false},{"name":"Khem Karan","country":"IN","lat":31.1444,"lng":74.5594,"pop":13446,"capital":false},{"name":"Bhadarwāh","country":"IN","lat":32.9794,"lng":75.7172,"pop":13429,"capital":false},{"name":"Hājan","country":"IN","lat":34.299,"lng":74.6168,"pop":13239,"capital":false},{"name":"Bhamiān Kalān","country":"IN","lat":30.9191,"lng":75.9423,"pop":13174,"capital":false},{"name":"Quimoh","country":"IN","lat":33.7215,"lng":75.0856,"pop":13138,"capital":false},{"name":"Chak One Hundred Thirty-eight Nine Left","country":"PK","lat":30.5599,"lng":72.9674,"pop":13089,"capital":false},{"name":"Birbhaddar","country":"IN","lat":30.0712,"lng":78.2819,"pop":13058,"capital":false},{"name":"Vikāsnagar","country":"IN","lat":30.4694,"lng":77.7728,"pop":13055,"capital":false},{"name":"Zangguy","country":"CN","lat":37.2833,"lng":78.7667,"pop":13027,"capital":false},{"name":"Daulatpur","country":"IN","lat":32.2666,"lng":75.6327,"pop":12988,"capital":false},{"name":"Qia'erbage","country":"CN","lat":38.3424,"lng":77.3053,"pop":12972,"capital":false},{"name":"Drug Mulla","country":"IN","lat":34.4853,"lng":74.2871,"pop":12930,"capital":false},{"name":"Kot Īsa Khān","country":"IN","lat":30.9466,"lng":75.1378,"pop":12800,"capital":false},{"name":"Malsiān","country":"IN","lat":31.13,"lng":75.3502,"pop":12780,"capital":false},{"name":"Awantipur","country":"IN","lat":33.9198,"lng":75.0152,"pop":12647,"capital":false},{"name":"Kalaswala","country":"PK","lat":32.2008,"lng":74.6486,"pop":12576,"capital":false},{"name":"Hadiāya","country":"IN","lat":30.3276,"lng":75.502,"pop":12507,"capital":false},{"name":"Tharīke","country":"IN","lat":30.8667,"lng":75.7816,"pop":12294,"capital":false},{"name":"Liliani","country":"PK","lat":32.2039,"lng":72.9512,"pop":12211,"capital":false},{"name":"Yāripur","country":"IN","lat":33.7225,"lng":75.0181,"pop":12123,"capital":false},{"name":"Ashkāsham","country":"AF","lat":36.6833,"lng":71.5333,"pop":12120,"capital":false},{"name":"Yol Cantonment","country":"IN","lat":32.1845,"lng":76.3816,"pop":12028,"capital":false},{"name":"Bhagowal","country":"PK","lat":32.4375,"lng":74.6694,"pop":12000,"capital":false},{"name":"Abdul Khel","country":"PK","lat":32.3997,"lng":70.9131,"pop":12000,"capital":false},{"name":"Mŭ’minobod","country":"TJ","lat":38.1071,"lng":70.0321,"pop":11955,"capital":false},{"name":"Hattiān Bāla","country":"PK","lat":34.1704,"lng":73.7338,"pop":11880,"capital":false},{"name":"Aydarken","country":"KG","lat":39.9432,"lng":71.3418,"pop":11857,"capital":false},{"name":"Tibri","country":"IN","lat":32.0031,"lng":75.4505,"pop":11845,"capital":false},{"name":"Arwani","country":"IN","lat":33.7823,"lng":75.0674,"pop":11815,"capital":false},{"name":"Daultala","country":"PK","lat":33.1928,"lng":73.141,"pop":11814,"capital":false},{"name":"Bilāspur","country":"IN","lat":30.3045,"lng":77.3042,"pop":11733,"capital":false},{"name":"Bishnāh","country":"IN","lat":32.6106,"lng":74.8556,"pop":11645,"capital":false},{"name":"Chiman","country":"IN","lat":30.0936,"lng":75.6875,"pop":11615,"capital":false},{"name":"Tsrār Sharīf","country":"IN","lat":33.8632,"lng":74.7652,"pop":11533,"capital":false},{"name":"Yingye'er","country":"CN","lat":37.3731,"lng":79.7775,"pop":11485,"capital":false},{"name":"Mahalpur","country":"IN","lat":31.3619,"lng":76.0377,"pop":11360,"capital":false},{"name":"Yol","country":"IN","lat":32.1642,"lng":76.1962,"pop":11314,"capital":false},{"name":"Chhutmalpur","country":"IN","lat":30.0321,"lng":77.7533,"pop":11127,"capital":false},{"name":"Bhattiān","country":"IN","lat":30.961,"lng":75.8289,"pop":11066,"capital":false},{"name":"Jandiala Sher Khan","country":"PK","lat":31.821,"lng":73.9182,"pop":10985,"capital":false},{"name":"Budha Thēh","country":"IN","lat":31.5177,"lng":75.3009,"pop":10979,"capital":false},{"name":"Mehmood Pora","country":"IN","lat":33.6874,"lng":74.9952,"pop":10910,"capital":false},{"name":"Būriya","country":"IN","lat":30.1591,"lng":77.3581,"pop":10903,"capital":false},{"name":"Dever Inder Bug","country":"IN","lat":34.4558,"lng":74.4507,"pop":10863,"capital":false},{"name":"Pratāp Singhwāla","country":"IN","lat":30.9282,"lng":75.7786,"pop":10843,"capital":false},{"name":"Murghob","country":"TJ","lat":38.1702,"lng":73.9667,"pop":10815,"capital":false},{"name":"Mauli Jagran","country":"IN","lat":30.692,"lng":76.8259,"pop":10786,"capital":false},{"name":"Rasht","country":"TJ","lat":39.0287,"lng":70.3745,"pop":10771,"capital":false},{"name":"Bhankarpur","country":"IN","lat":30.6062,"lng":76.8363,"pop":10768,"capital":false},{"name":"Choglamsar","country":"IN","lat":34.1116,"lng":77.5879,"pop":10754,"capital":false},{"name":"Chhachhrauli","country":"IN","lat":30.2449,"lng":77.3603,"pop":10751,"capital":false},{"name":"Nālāgarh","country":"IN","lat":31.0417,"lng":76.7228,"pop":10708,"capital":false},{"name":"Kathāniān","country":"IN","lat":31.6373,"lng":74.7572,"pop":10679,"capital":false},{"name":"Bhulath Gharbi","country":"IN","lat":31.5428,"lng":75.5076,"pop":10669,"capital":false},{"name":"Bhagwal","country":"PK","lat":32.8211,"lng":73.9553,"pop":10669,"capital":false},{"name":"Sanjwal","country":"PK","lat":33.7611,"lng":72.4332,"pop":10657,"capital":false},{"name":"Yingwusitang","country":"CN","lat":38.3137,"lng":77.2278,"pop":10582,"capital":false},{"name":"Sehnsa","country":"PK","lat":33.5137,"lng":73.7548,"pop":10568,"capital":false},{"name":"Rurki","country":"IN","lat":30.3695,"lng":76.4742,"pop":10509,"capital":false},{"name":"Zirefuxiati","country":"CN","lat":38.2158,"lng":77.0342,"pop":10504,"capital":false},{"name":"Safāpūr","country":"IN","lat":34.2606,"lng":74.6642,"pop":10471,"capital":false},{"name":"Mudki","country":"IN","lat":30.7801,"lng":74.8811,"pop":10415,"capital":false},{"name":"Nāushahra","country":"IN","lat":33.1571,"lng":74.2401,"pop":10408,"capital":false},{"name":"Lohiān","country":"IN","lat":31.1619,"lng":75.2097,"pop":10362,"capital":false},{"name":"Ying'airike","country":"CN","lat":37.2547,"lng":79.9001,"pop":10253,"capital":false},{"name":"Lāhauran Bara","country":"IN","lat":30.3967,"lng":76.1562,"pop":10218,"capital":false},{"name":"Abbaspur","country":"IN","lat":33.8174,"lng":73.9757,"pop":10208,"capital":false},{"name":"Yak'airike","country":"CN","lat":38.196,"lng":76.9651,"pop":10204,"capital":false},{"name":"Begowāl","country":"IN","lat":31.6115,"lng":75.5214,"pop":10175,"capital":false},{"name":"Sogām","country":"IN","lat":34.5014,"lng":74.3823,"pop":10166,"capital":false},{"name":"Ghagga","country":"IN","lat":30.0198,"lng":76.1041,"pop":10162,"capital":false},{"name":"Khamānon Kalān","country":"IN","lat":30.8173,"lng":76.3548,"pop":10135,"capital":false},{"name":"Inzari","country":"PK","lat":34.6688,"lng":71.3888,"pop":10000,"capital":false},{"name":"Kot Sultan","country":"PK","lat":30.7737,"lng":70.9313,"pop":10000,"capital":false},{"name":"Khar","country":"PK","lat":34.7361,"lng":71.5274,"pop":10000,"capital":false},{"name":"Gahkuch","country":"PK","lat":36.1768,"lng":73.7638,"pop":10000,"capital":false},{"name":"Mirdad Muafi","country":"PK","lat":30.6768,"lng":72.9286,"pop":9933,"capital":false},{"name":"Tangdhār","country":"IN","lat":34.3979,"lng":73.8598,"pop":9904,"capital":false},{"name":"Chīma","country":"IN","lat":30.6854,"lng":76.0864,"pop":9894,"capital":false},{"name":"Qāzigund","country":"IN","lat":33.6383,"lng":75.1426,"pop":9871,"capital":false},{"name":"Khreuh","country":"IN","lat":34.0189,"lng":74.9991,"pop":9851,"capital":false},{"name":"Nūrpur","country":"IN","lat":32.3015,"lng":75.8848,"pop":9807,"capital":false},{"name":"Patha Deōsar","country":"IN","lat":33.634,"lng":75.0719,"pop":9765,"capital":false},{"name":"Halwāra","country":"IN","lat":30.7251,"lng":75.6425,"pop":9761,"capital":false},{"name":"Damusi","country":"CN","lat":37.7556,"lng":76.6123,"pop":9678,"capital":false},{"name":"Norīa","country":"IN","lat":32.521,"lng":74.7985,"pop":9662,"capital":false},{"name":"Segezikule","country":"CN","lat":37.4656,"lng":79.9101,"pop":9576,"capital":false},{"name":"Farakhpur","country":"IN","lat":30.1331,"lng":77.243,"pop":9569,"capital":false},{"name":"Tibbi Jay Singh","country":"PK","lat":30.877,"lng":73.2161,"pop":9559,"capital":false},{"name":"Kangra","country":"IN","lat":32.0914,"lng":76.2627,"pop":9528,"capital":false},{"name":"Chak Ninety-eight -Nine Left","country":"PK","lat":30.595,"lng":73.1134,"pop":9500,"capital":false},{"name":"Chak One Hundred Twelve -Nine Left","country":"PK","lat":30.5356,"lng":73.1392,"pop":9498,"capital":false},{"name":"Harbatpur","country":"IN","lat":30.4386,"lng":77.7406,"pop":9478,"capital":false},{"name":"Hirānagar","country":"IN","lat":32.4549,"lng":75.2719,"pop":9446,"capital":false},{"name":"Nohan","country":"IN","lat":31.0343,"lng":76.571,"pop":9439,"capital":false},{"name":"Nūrpur Kalān","country":"IN","lat":31.1667,"lng":76.4833,"pop":9437,"capital":false},{"name":"Sufipind","country":"IN","lat":31.2775,"lng":75.6388,"pop":9406,"capital":false},{"name":"Chak Sixty-five A Gugera Distributary","country":"PK","lat":30.819,"lng":73.2267,"pop":9401,"capital":false},{"name":"Uri","country":"IN","lat":34.086,"lng":74.032,"pop":9366,"capital":false},{"name":"Santokhgarh","country":"IN","lat":31.3521,"lng":76.3178,"pop":9363,"capital":false},{"name":"Nāg","country":"IN","lat":31.7301,"lng":74.9423,"pop":9352,"capital":false},{"name":"Sohāna","country":"IN","lat":30.6887,"lng":76.7066,"pop":9306,"capital":false},{"name":"Pahalgam","country":"IN","lat":34.0159,"lng":75.319,"pop":9264,"capital":false},{"name":"Begowala","country":"PK","lat":32.4382,"lng":74.2679,"pop":9259,"capital":false},{"name":"Mattan","country":"IN","lat":33.763,"lng":75.209,"pop":9246,"capital":false},{"name":"Mehatpur Basdehra","country":"IN","lat":31.4071,"lng":76.3423,"pop":9218,"capital":false},{"name":"Bārhi Mājra","country":"IN","lat":30.1141,"lng":77.3055,"pop":9188,"capital":false},{"name":"Katra","country":"IN","lat":32.9917,"lng":74.932,"pop":9106,"capital":false},{"name":"Chandīman","country":"IN","lat":30.7317,"lng":76.8988,"pop":9051,"capital":false},{"name":"Mustafābād","country":"IN","lat":30.2022,"lng":77.1487,"pop":9042,"capital":false},{"name":"Rāipur Rāni","country":"IN","lat":30.5856,"lng":77.0218,"pop":9028,"capital":false},{"name":"Bāba Bakāla","country":"IN","lat":31.5555,"lng":75.2639,"pop":8946,"capital":false},{"name":"Hariāna","country":"IN","lat":31.6351,"lng":75.8389,"pop":8928,"capital":false},{"name":"Tashqorghan","country":"CN","lat":37.7776,"lng":75.2248,"pop":8919,"capital":false},{"name":"Doaba","country":"PK","lat":33.4245,"lng":70.7368,"pop":8893,"capital":false},{"name":"Narot Mehra","country":"IN","lat":32.2673,"lng":75.5647,"pop":8885,"capital":false},{"name":"Shamshi","country":"IN","lat":31.8664,"lng":77.1472,"pop":8870,"capital":false},{"name":"Parwanoo","country":"IN","lat":30.8372,"lng":76.9614,"pop":8758,"capital":false},{"name":"Satiāwāla","country":"IN","lat":30.9273,"lng":74.6456,"pop":8724,"capital":false},{"name":"Arbora","country":"PK","lat":34.4624,"lng":73.0571,"pop":8715,"capital":false},{"name":"Baruwāli","country":"IN","lat":30.5379,"lng":74.6538,"pop":8668,"capital":false},{"name":"Boh","country":"IN","lat":30.3809,"lng":76.88,"pop":8482,"capital":false},{"name":"Kaure Shah Zerin","country":"PK","lat":30.8422,"lng":73.1078,"pop":8475,"capital":false},{"name":"Dārapur","country":"IN","lat":34.5122,"lng":74.414,"pop":8464,"capital":false},{"name":"Dhilwan","country":"IN","lat":31.5143,"lng":75.3457,"pop":8447,"capital":false},{"name":"Nīlpur","country":"IN","lat":30.4689,"lng":76.5797,"pop":8391,"capital":false},{"name":"Wail","country":"IN","lat":34.2707,"lng":74.8036,"pop":8335,"capital":false},{"name":"Chak One Hundred Ninety Nine A Left","country":"PK","lat":30.6256,"lng":72.9248,"pop":8296,"capital":false},{"name":"Behlana","country":"IN","lat":30.6781,"lng":76.8006,"pop":8281,"capital":false},{"name":"Doiwāla","country":"IN","lat":30.1767,"lng":78.1166,"pop":8247,"capital":false},{"name":"Srīgobindpur","country":"IN","lat":31.6895,"lng":75.4775,"pop":8241,"capital":false},{"name":"Seer Hamdan","country":"IN","lat":33.7887,"lng":75.2431,"pop":8233,"capital":false},{"name":"Khuiratta","country":"PK","lat":33.3573,"lng":74.0279,"pop":8220,"capital":false},{"name":"Beerwah","country":"IN","lat":34.0124,"lng":74.5956,"pop":8192,"capital":false},{"name":"Rāmnagar","country":"IN","lat":32.8073,"lng":75.3112,"pop":8166,"capital":false},{"name":"Rohru","country":"IN","lat":31.2027,"lng":77.7548,"pop":8160,"capital":false},{"name":"Chak Ninety-nine -Nine Left","country":"PK","lat":30.6174,"lng":73.1219,"pop":8105,"capital":false},{"name":"Riāsi","country":"IN","lat":33.0812,"lng":74.8324,"pop":8101,"capital":false},{"name":"Sāha","country":"IN","lat":30.3119,"lng":76.9771,"pop":8100,"capital":false},{"name":"Manāli","country":"IN","lat":32.2574,"lng":77.1748,"pop":8096,"capital":false},{"name":"Vijaypur","country":"IN","lat":32.5653,"lng":75.0186,"pop":8044,"capital":false},{"name":"Samarkandyk","country":"KG","lat":39.9981,"lng":70.5459,"pop":8015,"capital":false},{"name":"Athhmuqam","country":"PK","lat":34.5889,"lng":73.9131,"pop":8000,"capital":false},{"name":"Tīra Sujānpur","country":"IN","lat":31.8336,"lng":76.5054,"pop":7943,"capital":false},{"name":"Chak One Hundred Eighty-six Nine Left","country":"PK","lat":30.5874,"lng":72.9529,"pop":7942,"capital":false},{"name":"Garhi Dupatta","country":"PK","lat":34.2256,"lng":73.6154,"pop":7931,"capital":false},{"name":"Pail","country":"IN","lat":30.7213,"lng":76.0605,"pop":7923,"capital":false},{"name":"Ghumārwīn","country":"IN","lat":31.4417,"lng":76.7151,"pop":7899,"capital":false},{"name":"Shangus","country":"IN","lat":33.6969,"lng":75.2837,"pop":7875,"capital":false},{"name":"Alāwalpur","country":"IN","lat":31.4316,"lng":75.6561,"pop":7815,"capital":false},{"name":"Parol","country":"IN","lat":32.346,"lng":75.4344,"pop":7800,"capital":false},{"name":"Chak One Hundred Eighty-five A Nine Left","country":"PK","lat":30.5643,"lng":72.9288,"pop":7743,"capital":false},{"name":"Barkot","country":"IN","lat":30.8086,"lng":78.206,"pop":7725,"capital":false},{"name":"Fateh Nangal","country":"IN","lat":31.9453,"lng":75.3191,"pop":7721,"capital":false},{"name":"Akālgarh","country":"IN","lat":30.7595,"lng":75.6457,"pop":7678,"capital":false},{"name":"Dalhousie","country":"IN","lat":32.5522,"lng":75.9466,"pop":7601,"capital":false},{"name":"Garhdiwāla","country":"IN","lat":31.7415,"lng":75.7557,"pop":7593,"capital":false},{"name":"Rail","country":"IN","lat":30.999,"lng":76.4676,"pop":7589,"capital":false},{"name":"Rakh Gadi Garh","country":"IN","lat":32.6692,"lng":74.8389,"pop":7588,"capital":false},{"name":"Malaudh","country":"IN","lat":30.6333,"lng":75.9357,"pop":7567,"capital":false},{"name":"Charhoi","country":"PK","lat":33.3019,"lng":73.9548,"pop":7535,"capital":false},{"name":"Derā Nānak","country":"IN","lat":32.0373,"lng":75.0279,"pop":7491,"capital":false},{"name":"Yechagām","country":"IN","lat":33.9873,"lng":74.7517,"pop":7461,"capital":false},{"name":"Kot Fatah","country":"IN","lat":30.1132,"lng":75.0867,"pop":7412,"capital":false},{"name":"Nagam","country":"IN","lat":33.9264,"lng":74.7919,"pop":7365,"capital":false},{"name":"Rehambal","country":"IN","lat":32.8976,"lng":75.0683,"pop":7351,"capital":false},{"name":"Amargarh","country":"IN","lat":30.4621,"lng":76.0144,"pop":7339,"capital":false},{"name":"Rāmban","country":"IN","lat":33.2428,"lng":75.2351,"pop":7317,"capital":false},{"name":"Chuhal","country":"IN","lat":31.595,"lng":75.9684,"pop":7304,"capital":false},{"name":"Thamewali","country":"PK","lat":32.7836,"lng":71.7808,"pop":7300,"capital":false},{"name":"Bhādson","country":"IN","lat":30.5067,"lng":76.2471,"pop":7260,"capital":false},{"name":"Chak One Hundred Eighty-seven Nine Left","country":"PK","lat":30.6057,"lng":72.9568,"pop":7224,"capital":false},{"name":"Chak One Hundred Twenty-nine -Nine Left","country":"PK","lat":30.5682,"lng":73.0128,"pop":7180,"capital":false},{"name":"Bīrpur","country":"IN","lat":32.6617,"lng":74.9518,"pop":7177,"capital":false},{"name":"Katran","country":"KG","lat":39.8443,"lng":70.0147,"pop":7149,"capital":false},{"name":"Sarai Khas","country":"IN","lat":31.409,"lng":75.5112,"pop":7044,"capital":false},{"name":"Watargām","country":"IN","lat":34.3194,"lng":74.3736,"pop":7015,"capital":false},{"name":"Ghanaur","country":"IN","lat":30.3309,"lng":76.612,"pop":6985,"capital":false},{"name":"Khore","country":"IN","lat":32.8226,"lng":74.5113,"pop":6931,"capital":false},{"name":"Sunderbani","country":"IN","lat":33.0484,"lng":74.4885,"pop":6930,"capital":false},{"name":"Ghoh","country":"IN","lat":32.3299,"lng":75.6748,"pop":6883,"capital":false},{"name":"Muhmand Dara","country":"AF","lat":34.2475,"lng":70.8722,"pop":6835,"capital":false},{"name":"Khuda Alisher","country":"IN","lat":30.7747,"lng":76.8118,"pop":6831,"capital":false},{"name":"Baddowāl","country":"IN","lat":30.8611,"lng":75.7469,"pop":6825,"capital":false},{"name":"Badhni Kalān","country":"IN","lat":30.6813,"lng":75.2909,"pop":6786,"capital":false},{"name":"Nazir Town","country":"PK","lat":33.3061,"lng":73.4833,"pop":6750,"capital":false},{"name":"Surankōt","country":"IN","lat":33.6271,"lng":74.2747,"pop":6743,"capital":false},{"name":"Sabāthu","country":"IN","lat":30.9749,"lng":76.9914,"pop":6691,"capital":false},{"name":"Khaur","country":"IN","lat":32.6027,"lng":74.8092,"pop":6690,"capital":false},{"name":"Chak One Hundred Eight -Nine Left","country":"PK","lat":30.5604,"lng":73.0932,"pop":6690,"capital":false},{"name":"Kokernag","country":"IN","lat":33.5785,"lng":75.3181,"pop":6553,"capital":false},{"name":"Chak One Hundred Three Seven Right","country":"PK","lat":30.6166,"lng":72.8448,"pop":6540,"capital":false},{"name":"Aish Maqām","country":"IN","lat":33.865,"lng":75.2837,"pop":6519,"capital":false},{"name":"Manwāl","country":"IN","lat":32.3026,"lng":75.6757,"pop":6496,"capital":false},{"name":"Chadoora","country":"IN","lat":33.9454,"lng":74.7971,"pop":6482,"capital":false},{"name":"Chak One Hundred Forty-two Nine Left","country":"PK","lat":30.5518,"lng":72.9476,"pop":6465,"capital":false},{"name":"Daroot-Korgon","country":"KG","lat":39.5527,"lng":72.2052,"pop":6421,"capital":false},{"name":"Vahdat","country":"TJ","lat":39.2197,"lng":71.1916,"pop":6400,"capital":false},{"name":"Rām Dās","country":"IN","lat":31.9674,"lng":74.9087,"pop":6398,"capital":false},{"name":"Rathian","country":"IN","lat":32.8953,"lng":75.1308,"pop":6365,"capital":false},{"name":"Bhore","country":"IN","lat":32.6668,"lng":74.8292,"pop":6360,"capital":false},{"name":"Chak One Hundred Thirty-nine Nine Left","country":"PK","lat":30.5296,"lng":72.9887,"pop":6354,"capital":false},{"name":"Buna Hir","country":"IN","lat":34.5243,"lng":74.203,"pop":6348,"capital":false},{"name":"Chak One Hundred Eighteen Nine Left","country":"PK","lat":30.4778,"lng":73.056,"pop":6314,"capital":false},{"name":"Apra","country":"IN","lat":31.0863,"lng":75.8791,"pop":6258,"capital":false},{"name":"Rāmpur","country":"IN","lat":31.4494,"lng":77.6309,"pop":6206,"capital":false},{"name":"Fatehpur","country":"PK","lat":33.4915,"lng":74.1055,"pop":6188,"capital":false},{"name":"Mulānpur","country":"IN","lat":30.8,"lng":76.7436,"pop":6165,"capital":false},{"name":"Nagrota","country":"IN","lat":32.0571,"lng":76.0914,"pop":6125,"capital":false},{"name":"Kashitashi","country":"CN","lat":36.3043,"lng":79.9146,"pop":6099,"capital":false},{"name":"Hājipur","country":"IN","lat":31.9771,"lng":75.7544,"pop":6091,"capital":false},{"name":"Chak One Hundred -Nine Left","country":"PK","lat":30.5938,"lng":73.0902,"pop":6081,"capital":false},{"name":"Tavildara","country":"TJ","lat":38.6953,"lng":70.4842,"pop":6071,"capital":false},{"name":"Nanhera","country":"IN","lat":30.3192,"lng":76.848,"pop":6035,"capital":false},{"name":"Yougu","country":"PK","lat":35.1843,"lng":76.1588,"pop":6000,"capital":false},{"name":"Mīrpur","country":"IN","lat":30.6119,"lng":76.8533,"pop":5967,"capital":false},{"name":"Dhin","country":"IN","lat":31.2659,"lng":75.6092,"pop":5961,"capital":false},{"name":"Narwanwala","country":"PK","lat":31.3919,"lng":73.5789,"pop":5951,"capital":false},{"name":"Dappar","country":"IN","lat":30.5207,"lng":76.8161,"pop":5936,"capital":false},{"name":"Nagrota Bagwān","country":"IN","lat":32.1072,"lng":76.3766,"pop":5900,"capital":false},{"name":"Sarna","country":"IN","lat":32.2631,"lng":75.5831,"pop":5847,"capital":false},{"name":"Kaurānwāli","country":"IN","lat":30.3845,"lng":74.064,"pop":5770,"capital":false},{"name":"Behjoga","country":"IN","lat":31.9385,"lng":75.8149,"pop":5722,"capital":false},{"name":"Chak One Hundred Ten -Nine Left","country":"PK","lat":30.5644,"lng":73.1395,"pop":5706,"capital":false},{"name":"Tūndla","country":"IN","lat":30.3804,"lng":76.8566,"pop":5658,"capital":false},{"name":"Shankar","country":"IN","lat":31.1481,"lng":75.5323,"pop":5639,"capital":false},{"name":"Nowangabra","country":"IN","lat":34.3621,"lng":73.8453,"pop":5634,"capital":false},{"name":"Chak One Hundred Forty Nine Left","country":"PK","lat":30.4977,"lng":72.9852,"pop":5630,"capital":false},{"name":"Rāmgarh","country":"IN","lat":32.5084,"lng":74.9645,"pop":5612,"capital":false},{"name":"Chak Three Ten Left","country":"PK","lat":30.5822,"lng":72.8811,"pop":5596,"capital":false},{"name":"Chak Sixty-eight-Four Right","country":"PK","lat":30.7523,"lng":73.2026,"pop":5589,"capital":false},{"name":"Ashmuji Khalsa","country":"IN","lat":33.6713,"lng":75.0727,"pop":5567,"capital":false},{"name":"Fārward Kahūta","country":"IN","lat":33.8824,"lng":74.1071,"pop":5555,"capital":false},{"name":"Khandūd","country":"AF","lat":36.9513,"lng":72.318,"pop":5521,"capital":false},{"name":"Thanna Mandi","country":"IN","lat":33.542,"lng":74.381,"pop":5490,"capital":false},{"name":"Khambra on Nakodar Road","country":"IN","lat":31.2737,"lng":75.5575,"pop":5483,"capital":false},{"name":"Chak Fifty-six -Four Right","country":"PK","lat":30.7397,"lng":73.0934,"pop":5480,"capital":false},{"name":"Māgām","country":"IN","lat":34.0926,"lng":74.5902,"pop":5470,"capital":false},{"name":"Chak Hundred One","country":"PK","lat":30.6441,"lng":72.9256,"pop":5469,"capital":false},{"name":"Bashohli","country":"IN","lat":32.4997,"lng":75.8156,"pop":5433,"capital":false},{"name":"Bahrāmpur","country":"IN","lat":32.1315,"lng":75.3956,"pop":5432,"capital":false},{"name":"Chak One Hundred Four -Nine Left","country":"PK","lat":30.5954,"lng":73.0301,"pop":5429,"capital":false},{"name":"Chugānwān","country":"IN","lat":31.7057,"lng":74.6633,"pop":5416,"capital":false},{"name":"Kot","country":"IN","lat":32.4004,"lng":75.7217,"pop":5406,"capital":false},{"name":"Chak One Hundred Twenty-one Nine Left","country":"PK","lat":30.429,"lng":73.0077,"pop":5383,"capital":false},{"name":"Jawāla Mukhi","country":"IN","lat":31.8746,"lng":76.3201,"pop":5361,"capital":false},{"name":"Novobod","country":"TJ","lat":39.0108,"lng":70.1508,"pop":5352,"capital":false},{"name":"Chak One Hundred Fifty-three -Nine Left","country":"PK","lat":30.4454,"lng":72.9924,"pop":5348,"capital":false},{"name":"Jogindarnagar","country":"IN","lat":31.9873,"lng":76.7891,"pop":5335,"capital":false},{"name":"Chak Eighty-eight -Six Right","country":"PK","lat":30.7173,"lng":73.0819,"pop":5288,"capital":false},{"name":"Batwar Salarzai","country":"PK","lat":34.9256,"lng":71.5141,"pop":5267,"capital":false},{"name":"Bungal","country":"IN","lat":32.3139,"lng":75.7491,"pop":5257,"capital":false},{"name":"Ratnu Chak","country":"IN","lat":32.6667,"lng":74.9267,"pop":5228,"capital":false},{"name":"Mubārikpur","country":"IN","lat":30.6146,"lng":76.8559,"pop":5217,"capital":false},{"name":"Kasauli","country":"IN","lat":30.8986,"lng":76.9659,"pop":5215,"capital":false},{"name":"Rāīwāla Bara","country":"IN","lat":30.0186,"lng":78.2293,"pop":5198,"capital":false},{"name":"Chak One Hundred Seventeen Nine Left","country":"PK","lat":30.498,"lng":73.0799,"pop":5198,"capital":false},{"name":"Chak One Hundred Forty-three Nine Left","country":"PK","lat":30.5298,"lng":72.94,"pop":5190,"capital":false},{"name":"Chak One Hundred Thirty-two -Nine Left","country":"PK","lat":30.6225,"lng":73.0127,"pop":5167,"capital":false},{"name":"Chak One Hundred Eighty-eight Nine A Left","country":"PK","lat":30.6223,"lng":72.9604,"pop":5163,"capital":false},{"name":"Prisal","country":"IN","lat":33.7558,"lng":75.0421,"pop":5132,"capital":false},{"name":"Talwara","country":"IN","lat":33.1048,"lng":74.7928,"pop":5125,"capital":false},{"name":"Shohimardon","country":"UZ","lat":39.9832,"lng":71.8051,"pop":5100,"capital":false},{"name":"Chak One Hundred Forty-one Nine Left","country":"PK","lat":30.5156,"lng":72.964,"pop":5087,"capital":false},{"name":"Thariāl","country":"IN","lat":32.3544,"lng":75.6067,"pop":5081,"capital":false},{"name":"Chak Ninety-nine -Six Right","country":"PK","lat":30.6362,"lng":73.0017,"pop":5076,"capital":false},{"name":"Khotran","country":"IN","lat":31.2013,"lng":75.8015,"pop":5046,"capital":false},{"name":"Chak One Hundred Six -Nine Left","country":"PK","lat":30.5692,"lng":73.0511,"pop":5044,"capital":false},{"name":"Majhiāri","country":"IN","lat":33.5969,"lng":74.2253,"pop":5033,"capital":false},{"name":"Kānwāla","country":"IN","lat":30.3478,"lng":76.7945,"pop":5024,"capital":false},{"name":"Pārūn","country":"AF","lat":35.4206,"lng":70.9226,"pop":1000,"capital":false}]