[{"name":"Shikohābād","country":"IN","lat":27.108,"lng":78.5866,"pop":99678,"capital":false},{"name":"Kāsganj","country":"IN","lat":27.8088,"lng":78.6458,"pop":99462,"capital":false},{"name":"Khambhāt","country":"IN","lat":22.3174,"lng":72.6192,"pop":99164,"capital":false},{"name":"Mahuva","country":"IN","lat":21.0901,"lng":71.769,"pop":98519,"capital":false},{"name":"Silvassa","country":"IN","lat":20.2739,"lng":72.9967,"pop":98265,"capital":false},{"name":"Shāmli","country":"IN","lat":29.4497,"lng":77.3096,"pop":97966,"capital":false},{"name":"Sādatpur Gujran","country":"IN","lat":28.7283,"lng":77.2482,"pop":97641,"capital":false},{"name":"Chalisgaon","country":"IN","lat":20.4578,"lng":75.016,"pop":97551,"capital":false},{"name":"Amalner","country":"IN","lat":21.0398,"lng":75.0589,"pop":97369,"capital":false},{"name":"Bārmer","country":"IN","lat":25.7457,"lng":71.3921,"pop":96225,"capital":false},{"name":"Pūth Kalān","country":"IN","lat":28.7116,"lng":77.0789,"pop":96002,"capital":false},{"name":"Sardārshahr","country":"IN","lat":28.4406,"lng":74.491,"pop":95911,"capital":false},{"name":"Sānand","country":"IN","lat":22.9923,"lng":72.3818,"pop":95890,"capital":false},{"name":"Mainpuri","country":"IN","lat":27.2286,"lng":79.0288,"pop":94619,"capital":false},{"name":"Khāmgaon","country":"IN","lat":20.7074,"lng":76.5683,"pop":94604,"capital":false},{"name":"Makrāna","country":"IN","lat":27.0436,"lng":74.7245,"pop":94487,"capital":false},{"name":"Dhār","country":"IN","lat":22.5937,"lng":75.2977,"pop":93917,"capital":false},{"name":"Baraut","country":"IN","lat":29.102,"lng":77.2633,"pop":93544,"capital":false},{"name":"Akot","country":"IN","lat":21.0963,"lng":77.0588,"pop":92637,"capital":false},{"name":"Fatehpur","country":"IN","lat":27.9949,"lng":74.9563,"pop":92595,"capital":false},{"name":"Gharroli","country":"IN","lat":28.6167,"lng":77.3321,"pop":92540,"capital":false},{"name":"Bhandāra","country":"IN","lat":21.1682,"lng":79.6489,"pop":91845,"capital":false},{"name":"Molārband","country":"IN","lat":28.503,"lng":77.3144,"pop":91402,"capital":false},{"name":"Murādnagar","country":"IN","lat":28.7807,"lng":77.4987,"pop":89482,"capital":false},{"name":"Ankleshwar","country":"IN","lat":21.6324,"lng":72.99,"pop":89457,"capital":false},{"name":"Mahobā","country":"IN","lat":25.2905,"lng":79.8753,"pop":89170,"capital":false},{"name":"Deoband","country":"IN","lat":29.6951,"lng":77.6796,"pop":88171,"capital":false},{"name":"Kolar","country":"IN","lat":23.1648,"lng":77.4189,"pop":87882,"capital":false},{"name":"Anjār","country":"IN","lat":23.1132,"lng":70.0267,"pop":87183,"capital":false},{"name":"Kāmthi","country":"IN","lat":21.2162,"lng":79.1973,"pop":86793,"capital":false},{"name":"Hānsi","country":"IN","lat":29.1024,"lng":75.9625,"pop":86770,"capital":false},{"name":"Sārni","country":"IN","lat":22.1032,"lng":78.1716,"pop":86141,"capital":false},{"name":"Dausa","country":"IN","lat":26.89,"lng":76.3358,"pop":85960,"capital":false},{"name":"Bijnor","country":"IN","lat":29.373,"lng":78.1364,"pop":84593,"capital":false},{"name":"Dhoraji","country":"IN","lat":21.7336,"lng":70.45,"pop":84545,"capital":false},{"name":"Najībābād","country":"IN","lat":29.6119,"lng":78.3427,"pop":84006,"capital":false},{"name":"Chilla Soroda Bāngar","country":"IN","lat":28.5957,"lng":77.3019,"pop":83217,"capital":false},{"name":"Fort Abbas","country":"PK","lat":29.1934,"lng":72.8553,"pop":83192,"capital":false},{"name":"Karauli","country":"IN","lat":26.4983,"lng":77.0276,"pop":82960,"capital":false},{"name":"Mānsa","country":"IN","lat":29.9884,"lng":75.4017,"pop":82956,"capital":false},{"name":"Ashoknagar","country":"IN","lat":24.5758,"lng":77.7312,"pop":81828,"capital":false},{"name":"Mhow","country":"IN","lat":22.5589,"lng":75.7654,"pop":81702,"capital":false},{"name":"Kadi","country":"IN","lat":23.2991,"lng":72.3336,"pop":81404,"capital":false},{"name":"Vijalpor","country":"IN","lat":20.9221,"lng":72.9095,"pop":81245,"capital":false},{"name":"Himatnagar","country":"IN","lat":23.5989,"lng":72.966,"pop":81137,"capital":false},{"name":"Dholka","country":"IN","lat":22.7273,"lng":72.4413,"pop":80945,"capital":false},{"name":"Kairāna","country":"IN","lat":29.3954,"lng":77.2054,"pop":80432,"capital":false},{"name":"Manmād","country":"IN","lat":20.2533,"lng":74.4376,"pop":80058,"capital":false},{"name":"Tīkamgarh","country":"IN","lat":24.7433,"lng":78.8306,"pop":79106,"capital":false},{"name":"Wāshīm","country":"IN","lat":20.1113,"lng":77.133,"pop":78387,"capital":false},{"name":"Savarkundla","country":"IN","lat":21.3373,"lng":71.3035,"pop":78354,"capital":false},{"name":"Basoda","country":"IN","lat":23.8515,"lng":77.9365,"pop":78289,"capital":false},{"name":"Zahir Pir","country":"PK","lat":28.8128,"lng":70.5234,"pop":76979,"capital":false},{"name":"Mawāna","country":"IN","lat":29.1029,"lng":77.922,"pop":76973,"capital":false},{"name":"Shirpur","country":"IN","lat":21.3482,"lng":74.8804,"pop":76905,"capital":false},{"name":"Kundla","country":"IN","lat":21.3422,"lng":71.3063,"pop":76809,"capital":false},{"name":"Visnagar","country":"IN","lat":23.6986,"lng":72.5521,"pop":76753,"capital":false},{"name":"Kannauj","country":"IN","lat":27.0552,"lng":79.9188,"pop":76714,"capital":false},{"name":"Khajoori Khas","country":"IN","lat":28.7096,"lng":77.2587,"pop":76640,"capital":false},{"name":"Nagīna","country":"IN","lat":29.4443,"lng":78.4365,"pop":76593,"capital":false},{"name":"Keshod","country":"IN","lat":21.3033,"lng":70.2486,"pop":76193,"capital":false},{"name":"Dhrāngadhra","country":"IN","lat":22.9917,"lng":71.4679,"pop":75578,"capital":false},{"name":"Jaora","country":"IN","lat":23.6378,"lng":75.1271,"pop":74907,"capital":false},{"name":"Narnaul","country":"IN","lat":28.0444,"lng":76.1083,"pop":74581,"capital":false},{"name":"Balotra","country":"IN","lat":25.8324,"lng":72.24,"pop":74496,"capital":false},{"name":"Harda","country":"IN","lat":22.3441,"lng":77.0954,"pop":74268,"capital":false},{"name":"Pilkhua","country":"IN","lat":28.7127,"lng":77.656,"pop":74212,"capital":false},{"name":"Kāpas Herd","country":"IN","lat":28.5261,"lng":77.084,"pop":74073,"capital":false},{"name":"Bawāna","country":"IN","lat":28.7982,"lng":77.0343,"pop":73680,"capital":false},{"name":"Shāhābād","country":"IN","lat":27.6431,"lng":79.9402,"pop":73606,"capital":false},{"name":"Chāndpur","country":"IN","lat":29.1349,"lng":78.2719,"pop":73555,"capital":false},{"name":"Sikandarābād","country":"IN","lat":28.4523,"lng":77.7,"pop":73379,"capital":false},{"name":"Chopda","country":"IN","lat":21.2458,"lng":75.2995,"pop":72783,"capital":false},{"name":"Sheopur","country":"IN","lat":25.6647,"lng":76.6962,"pop":71951,"capital":false},{"name":"Farīdpur","country":"IN","lat":28.21,"lng":79.5415,"pop":71783,"capital":false},{"name":"Ratangarh","country":"IN","lat":28.0814,"lng":74.6185,"pop":71124,"capital":false},{"name":"Fatehābād","country":"IN","lat":29.5153,"lng":75.4555,"pop":70777,"capital":false},{"name":"Dādri","country":"IN","lat":28.5526,"lng":77.554,"pop":70609,"capital":false},{"name":"Suratgarh","country":"IN","lat":29.3215,"lng":73.8998,"pop":70536,"capital":false},{"name":"Auraiya","country":"IN","lat":26.4652,"lng":79.5092,"pop":70508,"capital":false},{"name":"Mīthepur","country":"IN","lat":28.4974,"lng":77.3186,"pop":69837,"capital":false},{"name":"Māngrol","country":"IN","lat":21.1227,"lng":70.1148,"pop":69779,"capital":false},{"name":"Kahror Pakka","country":"PK","lat":29.6243,"lng":71.9144,"pop":69743,"capital":false},{"name":"Pul Pehlad","country":"IN","lat":28.4994,"lng":77.291,"pop":69657,"capital":false},{"name":"Shājāpur","country":"IN","lat":23.4264,"lng":76.2778,"pop":69263,"capital":false},{"name":"Ziauddin Pur","country":"IN","lat":28.7087,"lng":77.2765,"pop":68993,"capital":false},{"name":"Taj Pul","country":"IN","lat":28.4948,"lng":77.3059,"pop":68796,"capital":false},{"name":"Bīsalpur","country":"IN","lat":28.2925,"lng":79.8047,"pop":68355,"capital":false},{"name":"Panipat Taraf Makhdum Zadgan","country":"IN","lat":29.4161,"lng":76.9883,"pop":67998,"capital":false},{"name":"Kāranja","country":"IN","lat":20.4827,"lng":77.4886,"pop":67907,"capital":false},{"name":"Rājsamand","country":"IN","lat":25.0715,"lng":73.8798,"pop":67798,"capital":false},{"name":"Malkāpur","country":"IN","lat":20.8855,"lng":76.1993,"pop":67740,"capital":false},{"name":"Modāsa","country":"IN","lat":23.4625,"lng":73.2986,"pop":67648,"capital":false},{"name":"Jaisalmer","country":"IN","lat":26.9176,"lng":70.9039,"pop":67604,"capital":false},{"name":"Buldāna","country":"IN","lat":20.5293,"lng":76.1846,"pop":67431,"capital":false},{"name":"Jhālāwār","country":"IN","lat":24.5963,"lng":76.165,"pop":66919,"capital":false},{"name":"Gohāna","country":"IN","lat":29.1378,"lng":76.7025,"pop":65708,"capital":false},{"name":"Lādnūn","country":"IN","lat":27.6531,"lng":74.3999,"pop":65575,"capital":false},{"name":"Khatauli","country":"IN","lat":29.2784,"lng":77.733,"pop":64731,"capital":false},{"name":"Bīna","country":"IN","lat":24.1716,"lng":78.1876,"pop":64529,"capital":false},{"name":"Pālitāna","country":"IN","lat":21.5252,"lng":71.8231,"pop":64497,"capital":false},{"name":"Chaumu","country":"IN","lat":27.1696,"lng":75.7223,"pop":64417,"capital":false},{"name":"Hālol","country":"IN","lat":22.5032,"lng":73.4724,"pop":64265,"capital":false},{"name":"Bāngarda Chhota","country":"IN","lat":22.7435,"lng":75.8145,"pop":64213,"capital":false},{"name":"Baheri","country":"IN","lat":28.7742,"lng":79.4974,"pop":63953,"capital":false},{"name":"Nawalgarh","country":"IN","lat":27.8516,"lng":75.2738,"pop":63948,"capital":false},{"name":"Rāghogarh","country":"IN","lat":24.4432,"lng":77.1977,"pop":63873,"capital":false},{"name":"Tohāna","country":"IN","lat":29.7133,"lng":75.9044,"pop":63871,"capital":false},{"name":"Borsad","country":"IN","lat":22.4079,"lng":72.8982,"pop":63377,"capital":false},{"name":"Bāri","country":"IN","lat":26.6466,"lng":77.6163,"pop":62721,"capital":false},{"name":"Nokha","country":"IN","lat":27.5616,"lng":73.4714,"pop":62699,"capital":false},{"name":"Dabwāli","country":"IN","lat":29.9491,"lng":74.7383,"pop":62113,"capital":false},{"name":"Narwāna","country":"IN","lat":29.599,"lng":76.1193,"pop":62090,"capital":false},{"name":"Nani Daman","country":"IN","lat":20.4143,"lng":72.8324,"pop":62000,"capital":false},{"name":"Kuchāman","country":"IN","lat":27.1475,"lng":74.8566,"pop":61969,"capital":false},{"name":"Nīmbāhera","country":"IN","lat":24.6217,"lng":74.68,"pop":61949,"capital":false},{"name":"Siddhapur","country":"IN","lat":23.9178,"lng":72.3721,"pop":61867,"capital":false},{"name":"Rāth","country":"IN","lat":25.5947,"lng":79.5666,"pop":61728,"capital":false},{"name":"Faqirwali","country":"PK","lat":29.468,"lng":73.0349,"pop":61586,"capital":false},{"name":"Shāhāda","country":"IN","lat":21.5454,"lng":74.4711,"pop":61376,"capital":false},{"name":"Dabra","country":"IN","lat":25.8857,"lng":78.3322,"pop":61277,"capital":false},{"name":"Sahaswān","country":"IN","lat":28.0723,"lng":78.7508,"pop":60953,"capital":false},{"name":"Bārdoli","country":"IN","lat":21.123,"lng":73.1115,"pop":60821,"capital":false},{"name":"Yazman","country":"PK","lat":29.1212,"lng":71.7446,"pop":60738,"capital":false},{"name":"Bhadravati","country":"IN","lat":20.1001,"lng":79.1144,"pop":60565,"capital":false},{"name":"Kīratpur","country":"IN","lat":29.5067,"lng":78.2061,"pop":60223,"capital":false},{"name":"Vrindāvan","country":"IN","lat":27.5811,"lng":77.6966,"pop":60195,"capital":false},{"name":"Narsimhapur","country":"IN","lat":22.9494,"lng":79.1836,"pop":59966,"capital":false},{"name":"Shegaon","country":"IN","lat":20.7932,"lng":76.6992,"pop":59672,"capital":false},{"name":"Mandideep","country":"IN","lat":23.0817,"lng":77.5333,"pop":59654,"capital":false},{"name":"Pāchora","country":"IN","lat":20.6673,"lng":75.3531,"pop":59609,"capital":false},{"name":"Gangoh","country":"IN","lat":29.78,"lng":77.2635,"pop":59519,"capital":false},{"name":"Jaitpur","country":"IN","lat":28.5065,"lng":77.3298,"pop":59330,"capital":false},{"name":"Rājgarh","country":"IN","lat":28.642,"lng":75.3861,"pop":59193,"capital":false},{"name":"Gohad","country":"IN","lat":26.4328,"lng":78.4421,"pop":58939,"capital":false},{"name":"Wani","country":"IN","lat":20.0551,"lng":78.9531,"pop":58840,"capital":false},{"name":"Upleta","country":"IN","lat":21.7402,"lng":70.2826,"pop":58775,"capital":false},{"name":"Una","country":"IN","lat":20.8232,"lng":71.038,"pop":58528,"capital":false},{"name":"Sillod","country":"IN","lat":20.303,"lng":75.6528,"pop":58230,"capital":false},{"name":"Chikhli","country":"IN","lat":20.3505,"lng":76.2577,"pop":57889,"capital":false},{"name":"Hasanpur","country":"IN","lat":28.7225,"lng":78.2844,"pop":57481,"capital":false},{"name":"Jahāngīrābād","country":"IN","lat":28.4055,"lng":78.1059,"pop":57363,"capital":false},{"name":"Sherkot","country":"IN","lat":29.327,"lng":78.5743,"pop":57361,"capital":false},{"name":"Roshanpura","country":"IN","lat":28.6006,"lng":76.9892,"pop":57217,"capital":false},{"name":"Mukandpur","country":"IN","lat":28.7394,"lng":77.1832,"pop":57135,"capital":false},{"name":"Unjha","country":"IN","lat":23.8037,"lng":72.391,"pop":57108,"capital":false},{"name":"Chhibrāmau","country":"IN","lat":27.1487,"lng":79.5008,"pop":57071,"capital":false},{"name":"Tilhar","country":"IN","lat":27.9628,"lng":79.7383,"pop":57043,"capital":false},{"name":"Sendhwa","country":"IN","lat":21.6856,"lng":75.0962,"pop":56485,"capital":false},{"name":"Anjangaon","country":"IN","lat":21.1652,"lng":77.3091,"pop":56380,"capital":false},{"name":"Charkhi Dādri","country":"IN","lat":28.5917,"lng":76.2716,"pop":56337,"capital":false},{"name":"Ujhāni","country":"IN","lat":28.0031,"lng":79.0082,"pop":56309,"capital":false},{"name":"Dabhoi","country":"IN","lat":22.1833,"lng":73.4333,"pop":56253,"capital":false},{"name":"Viramgām","country":"IN","lat":23.1256,"lng":72.0501,"pop":55821,"capital":false},{"name":"Ābu Road","country":"IN","lat":24.4801,"lng":72.7819,"pop":55599,"capital":false},{"name":"Barwāni","country":"IN","lat":22.0323,"lng":74.8998,"pop":55504,"capital":false},{"name":"Petlād","country":"IN","lat":22.4768,"lng":72.8,"pop":55330,"capital":false},{"name":"Jālaun","country":"IN","lat":26.1451,"lng":79.3366,"pop":55299,"capital":false},{"name":"Etāwa","country":"IN","lat":24.1835,"lng":78.2029,"pop":55185,"capital":false},{"name":"Sāhibābād Daulotpur","country":"IN","lat":28.7471,"lng":77.1147,"pop":54773,"capital":false},{"name":"Jāfarābād","country":"IN","lat":28.6787,"lng":77.2712,"pop":54601,"capital":false},{"name":"Sihor","country":"IN","lat":21.7113,"lng":71.9618,"pop":54547,"capital":false},{"name":"Mūndka","country":"IN","lat":28.6801,"lng":77.0298,"pop":54541,"capital":false},{"name":"Jalor","country":"IN","lat":25.3456,"lng":72.6156,"pop":54081,"capital":false},{"name":"Wāri","country":"IN","lat":21.1531,"lng":79.0076,"pop":54048,"capital":false},{"name":"Umred","country":"IN","lat":20.854,"lng":79.3247,"pop":53971,"capital":false},{"name":"Kotharia","country":"IN","lat":22.2344,"lng":70.819,"pop":53794,"capital":false},{"name":"Dīdwāna","country":"IN","lat":27.401,"lng":74.5754,"pop":53749,"capital":false},{"name":"Begampur","country":"IN","lat":28.7266,"lng":77.0669,"pop":53682,"capital":false},{"name":"Laxmangarh","country":"IN","lat":27.8229,"lng":75.0275,"pop":53392,"capital":false},{"name":"Sri Dūngargarh","country":"IN","lat":28.0962,"lng":74.0087,"pop":53294,"capital":false},{"name":"Ashta","country":"IN","lat":23.0175,"lng":76.7221,"pop":53184,"capital":false},{"name":"Mandi Dabwāli","country":"IN","lat":29.9663,"lng":74.7003,"pop":52873,"capital":false},{"name":"Konch","country":"IN","lat":25.9945,"lng":79.1513,"pop":52773,"capital":false},{"name":"Bāprola","country":"IN","lat":28.6413,"lng":77.0142,"pop":52744,"capital":false},{"name":"Dabhel","country":"IN","lat":20.4095,"lng":72.8834,"pop":52578,"capital":false},{"name":"Kosi","country":"IN","lat":27.7945,"lng":77.4368,"pop":52492,"capital":false},{"name":"Sironj","country":"IN","lat":24.1031,"lng":77.6906,"pop":52460,"capital":false},{"name":"Nasīrābād","country":"IN","lat":26.3047,"lng":74.7336,"pop":51747,"capital":false},{"name":"Ozar","country":"IN","lat":20.0947,"lng":73.9282,"pop":51297,"capital":false},{"name":"Rāmnagar","country":"IN","lat":29.3925,"lng":79.1283,"pop":51244,"capital":false},{"name":"Shujālpur","country":"IN","lat":23.4067,"lng":76.7098,"pop":51225,"capital":false},{"name":"Khurai","country":"IN","lat":24.0437,"lng":78.3301,"pop":51108,"capital":false},{"name":"Tūndla","country":"IN","lat":27.2146,"lng":78.2368,"pop":50939,"capital":false},{"name":"Rajanpur","country":"PK","lat":29.1041,"lng":70.3297,"pop":50682,"capital":false},{"name":"Nithari","country":"IN","lat":28.7049,"lng":77.0529,"pop":50464,"capital":false},{"name":"Gajraula","country":"IN","lat":28.8457,"lng":78.2396,"pop":50380,"capital":false},{"name":"Hodal","country":"IN","lat":27.892,"lng":77.3674,"pop":50143,"capital":false},{"name":"Aonla","country":"IN","lat":28.274,"lng":79.1652,"pop":50011,"capital":false},{"name":"Dhāmpur","country":"IN","lat":29.3088,"lng":78.5108,"pop":49973,"capital":false},{"name":"Phalodi","country":"IN","lat":27.131,"lng":72.3683,"pop":49914,"capital":false},{"name":"Sardhana","country":"IN","lat":29.1455,"lng":77.6143,"pop":49857,"capital":false},{"name":"Nohar","country":"IN","lat":29.1829,"lng":74.7706,"pop":49835,"capital":false},{"name":"Yeola","country":"IN","lat":20.0424,"lng":74.4894,"pop":49826,"capital":false},{"name":"Kapadvanj","country":"IN","lat":23.023,"lng":73.0711,"pop":49308,"capital":false},{"name":"Kotputli","country":"IN","lat":27.7021,"lng":76.1991,"pop":49202,"capital":false},{"name":"Dyāne","country":"IN","lat":20.5674,"lng":74.5285,"pop":49192,"capital":false},{"name":"Biaora","country":"IN","lat":23.9205,"lng":76.9107,"pop":49093,"capital":false},{"name":"Pipariā","country":"IN","lat":22.757,"lng":78.355,"pop":48826,"capital":false},{"name":"Jasdan","country":"IN","lat":22.0371,"lng":71.2079,"pop":48483,"capital":false},{"name":"Morār","country":"IN","lat":26.2264,"lng":78.2248,"pop":48464,"capital":false},{"name":"Jhajjar","country":"IN","lat":28.6063,"lng":76.6565,"pop":48424,"capital":false},{"name":"Nihtaur","country":"IN","lat":29.3242,"lng":78.3872,"pop":48389,"capital":false},{"name":"Bhīnmāl","country":"IN","lat":24.9994,"lng":72.2714,"pop":47932,"capital":false},{"name":"Warud","country":"IN","lat":21.471,"lng":78.2697,"pop":47817,"capital":false},{"name":"Wānkāner","country":"IN","lat":22.612,"lng":70.9438,"pop":47814,"capital":false},{"name":"Dūngarpur","country":"IN","lat":23.8431,"lng":73.7147,"pop":47706,"capital":false},{"name":"Gādarwāra","country":"IN","lat":22.9235,"lng":78.7849,"pop":47604,"capital":false},{"name":"Atraulī","country":"IN","lat":28.0296,"lng":78.2857,"pop":47512,"capital":false},{"name":"Jodhpur","country":"IN","lat":21.9017,"lng":70.0327,"pop":47329,"capital":false},{"name":"Ambāh","country":"IN","lat":26.7042,"lng":78.2268,"pop":47177,"capital":false},{"name":"Jatoi Shimali","country":"PK","lat":29.5183,"lng":70.8447,"pop":47144,"capital":false},{"name":"Tighri","country":"IN","lat":28.5123,"lng":77.2408,"pop":46974,"capital":false},{"name":"Chhatarpur","country":"IN","lat":28.4985,"lng":77.1825,"pop":46776,"capital":false},{"name":"Dondaicha","country":"IN","lat":21.3236,"lng":74.568,"pop":46767,"capital":false},{"name":"Jāmner","country":"IN","lat":20.8095,"lng":75.7777,"pop":46762,"capital":false},{"name":"Padra","country":"IN","lat":22.2398,"lng":73.0845,"pop":46660,"capital":false},{"name":"Gulāothi","country":"IN","lat":28.5894,"lng":77.7932,"pop":46647,"capital":false},{"name":"Seohāra","country":"IN","lat":29.209,"lng":78.5884,"pop":46546,"capital":false},{"name":"Warora","country":"IN","lat":20.2289,"lng":79.0028,"pop":46532,"capital":false},{"name":"Manglaur","country":"IN","lat":29.7909,"lng":77.8784,"pop":46395,"capital":false},{"name":"Ganj Dundwāra","country":"IN","lat":27.7331,"lng":78.9412,"pop":46314,"capital":false},{"name":"Merta","country":"IN","lat":26.6486,"lng":74.0341,"pop":46070,"capital":false},{"name":"Pāndhurnā","country":"IN","lat":21.5956,"lng":78.5263,"pop":45479,"capital":false},{"name":"Mehkar","country":"IN","lat":20.1505,"lng":76.5684,"pop":45248,"capital":false},{"name":"Dīg","country":"IN","lat":27.4719,"lng":77.3256,"pop":44999,"capital":false},{"name":"Tumsar","country":"IN","lat":21.3833,"lng":79.7333,"pop":44869,"capital":false},{"name":"Tānda","country":"IN","lat":28.9762,"lng":78.9419,"pop":44822,"capital":false},{"name":"Digras","country":"IN","lat":20.1035,"lng":77.7185,"pop":44767,"capital":false},{"name":"Bāndīkūi","country":"IN","lat":27.0509,"lng":76.5733,"pop":44664,"capital":false},{"name":"Bālāpur","country":"IN","lat":20.6661,"lng":76.7739,"pop":44594,"capital":false},{"name":"Nāndūra","country":"IN","lat":20.8342,"lng":76.4592,"pop":44419,"capital":false},{"name":"Libāspur","country":"IN","lat":28.7509,"lng":77.1465,"pop":44375,"capital":false},{"name":"Kālpi","country":"IN","lat":26.1167,"lng":79.7333,"pop":44339,"capital":false},{"name":"Daman","country":"IN","lat":20.4143,"lng":72.8324,"pop":44282,"capital":false},{"name":"Raisen","country":"IN","lat":23.3303,"lng":77.7811,"pop":44162,"capital":false},{"name":"Varangaon","country":"IN","lat":21.0177,"lng":75.9104,"pop":44067,"capital":false},{"name":"Chidawa","country":"IN","lat":28.2394,"lng":75.6404,"pop":43953,"capital":false},{"name":"Kāndhla","country":"IN","lat":29.321,"lng":77.271,"pop":43387,"capital":false},{"name":"Barwāla","country":"IN","lat":29.3675,"lng":75.9081,"pop":43384,"capital":false},{"name":"Nilithi","country":"IN","lat":28.652,"lng":77.0564,"pop":43371,"capital":false},{"name":"Jambusar","country":"IN","lat":22.0524,"lng":72.8007,"pop":43344,"capital":false},{"name":"Kātol","country":"IN","lat":21.2739,"lng":78.5858,"pop":43267,"capital":false},{"name":"Kamal Pur Majra Burari","country":"IN","lat":28.7467,"lng":77.1935,"pop":43086,"capital":false},{"name":"Jīwanpur","country":"IN","lat":28.7145,"lng":77.2849,"pop":43054,"capital":false},{"name":"Sojat","country":"IN","lat":25.9249,"lng":73.6663,"pop":43023,"capital":false},{"name":"Panipat Taraf Ansar","country":"IN","lat":29.4122,"lng":76.9547,"pop":42877,"capital":false},{"name":"Ārvi","country":"IN","lat":20.9959,"lng":78.2291,"pop":42822,"capital":false},{"name":"Parāsia","country":"IN","lat":22.1913,"lng":78.759,"pop":42786,"capital":false},{"name":"Limbdi","country":"IN","lat":22.5651,"lng":71.8108,"pop":42769,"capital":false},{"name":"Dahegām","country":"IN","lat":23.169,"lng":72.8216,"pop":42632,"capital":false},{"name":"Jaspur","country":"IN","lat":29.2792,"lng":78.828,"pop":42524,"capital":false},{"name":"Thān","country":"IN","lat":22.5742,"lng":71.1994,"pop":42508,"capital":false},{"name":"Bāola","country":"IN","lat":22.8284,"lng":72.3636,"pop":42458,"capital":false},{"name":"Khekra","country":"IN","lat":28.8659,"lng":77.2841,"pop":42408,"capital":false},{"name":"Naini Tāl","country":"IN","lat":29.3974,"lng":79.4469,"pop":42309,"capital":false},{"name":"Idar","country":"IN","lat":23.8414,"lng":73.0007,"pop":42306,"capital":false},{"name":"Bhawāni Mandi","country":"IN","lat":24.4158,"lng":75.8355,"pop":42283,"capital":false},{"name":"Sikandra Rao","country":"IN","lat":27.6886,"lng":78.3799,"pop":42229,"capital":false},{"name":"Jora","country":"IN","lat":26.3421,"lng":77.8092,"pop":42153,"capital":false},{"name":"Pratāpgarh","country":"IN","lat":24.0322,"lng":74.7816,"pop":42079,"capital":false},{"name":"Kannad","country":"IN","lat":20.2568,"lng":75.1379,"pop":42056,"capital":false},{"name":"Nāthdwāra","country":"IN","lat":24.9381,"lng":73.8239,"pop":42016,"capital":false},{"name":"Kekri","country":"IN","lat":25.9713,"lng":75.1499,"pop":41890,"capital":false},{"name":"Bāghpat","country":"IN","lat":28.9449,"lng":77.2187,"pop":41766,"capital":false},{"name":"Bilāra","country":"IN","lat":26.1807,"lng":73.7055,"pop":41710,"capital":false},{"name":"Dunyapur","country":"PK","lat":29.8028,"lng":71.7434,"pop":41575,"capital":false},{"name":"Kodīnar","country":"IN","lat":20.7939,"lng":70.7022,"pop":41492,"capital":false},{"name":"Rāmganj Mandi","country":"IN","lat":24.6465,"lng":75.9433,"pop":41328,"capital":false},{"name":"Bharthana","country":"IN","lat":26.7523,"lng":79.2218,"pop":41055,"capital":false},{"name":"Vadgaon","country":"IN","lat":20.3759,"lng":78.1126,"pop":40884,"capital":false},{"name":"Bhādra","country":"IN","lat":29.103,"lng":75.1714,"pop":40662,"capital":false},{"name":"Nowgong","country":"IN","lat":25.0614,"lng":79.4413,"pop":40580,"capital":false},{"name":"Sabalgarh","country":"IN","lat":26.2492,"lng":77.4079,"pop":40333,"capital":false},{"name":"Murtajāpur","country":"IN","lat":20.733,"lng":77.3669,"pop":40295,"capital":false},{"name":"Gursahāiganj","country":"IN","lat":27.1152,"lng":79.7317,"pop":40214,"capital":false},{"name":"Bīlāspur","country":"IN","lat":28.8866,"lng":79.2703,"pop":39873,"capital":false},{"name":"Thakurdwara","country":"IN","lat":29.192,"lng":78.8615,"pop":39860,"capital":false},{"name":"Vyāra","country":"IN","lat":21.1108,"lng":73.3936,"pop":39789,"capital":false},{"name":"Samālkha","country":"IN","lat":29.2355,"lng":77.0127,"pop":39710,"capital":false},{"name":"Porsa","country":"IN","lat":26.6744,"lng":78.3708,"pop":39669,"capital":false},{"name":"Chaklāsi","country":"IN","lat":22.6532,"lng":72.945,"pop":39581,"capital":false},{"name":"Rādhanpur","country":"IN","lat":23.8324,"lng":71.6047,"pop":39558,"capital":false},{"name":"Bhachāu","country":"IN","lat":23.2986,"lng":70.3428,"pop":39532,"capital":false},{"name":"Vādāsinor","country":"IN","lat":22.9568,"lng":73.3351,"pop":39330,"capital":false},{"name":"Sirohi","country":"IN","lat":24.8884,"lng":72.8479,"pop":39229,"capital":false},{"name":"Sumerpur","country":"IN","lat":25.1543,"lng":73.0816,"pop":39132,"capital":false},{"name":"Pehowa","country":"IN","lat":29.979,"lng":76.5825,"pop":39101,"capital":false},{"name":"Nūrpur","country":"IN","lat":29.1496,"lng":78.4084,"pop":39077,"capital":false},{"name":"Sanāwad","country":"IN","lat":22.1739,"lng":76.0699,"pop":38740,"capital":false},{"name":"Sangariā","country":"IN","lat":29.7989,"lng":74.4668,"pop":38638,"capital":false},{"name":"Jalesar","country":"IN","lat":27.4732,"lng":78.3031,"pop":38614,"capital":false},{"name":"Bayāna","country":"IN","lat":26.9079,"lng":77.2899,"pop":38502,"capital":false},{"name":"Rājula","country":"IN","lat":21.0385,"lng":71.4435,"pop":38489,"capital":false},{"name":"Keru","country":"IN","lat":26.1925,"lng":73.0443,"pop":38429,"capital":false},{"name":"Khairtal","country":"IN","lat":27.8043,"lng":76.6386,"pop":38298,"capital":false},{"name":"Kondli","country":"IN","lat":28.6117,"lng":77.3267,"pop":38207,"capital":false},{"name":"Nildoh","country":"IN","lat":21.1108,"lng":78.9892,"pop":38157,"capital":false},{"name":"Kāman","country":"IN","lat":27.6579,"lng":77.2691,"pop":38040,"capital":false},{"name":"Agar","country":"IN","lat":23.7118,"lng":76.0157,"pop":37917,"capital":false},{"name":"Gharonda Neemka Bangar","country":"IN","lat":28.6164,"lng":77.288,"pop":37876,"capital":false},{"name":"Dibai","country":"IN","lat":28.2085,"lng":78.2617,"pop":37873,"capital":false},{"name":"Gharaunda","country":"IN","lat":29.5369,"lng":76.9714,"pop":37816,"capital":false},{"name":"Niwai","country":"IN","lat":26.3607,"lng":75.9184,"pop":37765,"capital":false},{"name":"Nangli Sakrawat","country":"IN","lat":28.6217,"lng":76.9923,"pop":37706,"capital":false},{"name":"Satānā","country":"IN","lat":20.5948,"lng":74.203,"pop":37701,"capital":false},{"name":"Rāwatbhāta","country":"IN","lat":24.9298,"lng":75.5921,"pop":37699,"capital":false},{"name":"Ellenabad","country":"IN","lat":29.4528,"lng":74.6612,"pop":37680,"capital":false},{"name":"Wānādongri","country":"IN","lat":21.0938,"lng":78.9727,"pop":37667,"capital":false},{"name":"Parola","country":"IN","lat":20.881,"lng":75.1194,"pop":37666,"capital":false},{"name":"Bopal","country":"IN","lat":23.0334,"lng":72.4672,"pop":37635,"capital":false},{"name":"Jhālrapātan","country":"IN","lat":24.5421,"lng":76.1724,"pop":37506,"capital":false},{"name":"Sārangpur","country":"IN","lat":23.5665,"lng":76.4731,"pop":37435,"capital":false},{"name":"Morsi","country":"IN","lat":21.3403,"lng":78.0126,"pop":37333,"capital":false},{"name":"Pilibangan","country":"IN","lat":29.4496,"lng":74.1009,"pop":37288,"capital":false},{"name":"Bhadgaon","country":"IN","lat":20.6691,"lng":75.2294,"pop":37214,"capital":false},{"name":"Ratia","country":"IN","lat":29.6903,"lng":75.5769,"pop":37152,"capital":false},{"name":"Bābarpur","country":"IN","lat":28.6875,"lng":77.2856,"pop":37058,"capital":false},{"name":"Garhmuktesar","country":"IN","lat":28.7873,"lng":78.1021,"pop":37043,"capital":false},{"name":"Lūnāvāda","country":"IN","lat":23.1284,"lng":73.6104,"pop":36954,"capital":false},{"name":"Pīpār","country":"IN","lat":26.3844,"lng":73.5439,"pop":36810,"capital":false},{"name":"Yāval","country":"IN","lat":21.1677,"lng":75.6976,"pop":36706,"capital":false},{"name":"Sohna","country":"IN","lat":28.2474,"lng":77.0654,"pop":36552,"capital":false},{"name":"Daryāpur","country":"IN","lat":20.9249,"lng":77.3264,"pop":36463,"capital":false},{"name":"Barnagar","country":"IN","lat":23.0489,"lng":75.378,"pop":36438,"capital":false},{"name":"Neem ka Thana","country":"IN","lat":27.7398,"lng":75.7865,"pop":36231,"capital":false},{"name":"Sadābād","country":"IN","lat":27.4382,"lng":78.0376,"pop":36093,"capital":false},{"name":"Rāvu","country":"IN","lat":22.6373,"lng":75.8147,"pop":36055,"capital":false},{"name":"Mālpura","country":"IN","lat":26.2838,"lng":75.3646,"pop":36028,"capital":false},{"name":"Bramhapuri","country":"IN","lat":20.6111,"lng":79.861,"pop":36025,"capital":false},{"name":"Dīndārpur","country":"IN","lat":28.5981,"lng":76.9916,"pop":35856,"capital":false},{"name":"Jhābua","country":"IN","lat":22.7677,"lng":74.5909,"pop":35753,"capital":false},{"name":"Karāla","country":"IN","lat":28.7355,"lng":77.0352,"pop":35730,"capital":false},{"name":"Gariadhar","country":"IN","lat":21.5389,"lng":71.5774,"pop":35692,"capital":false},{"name":"Kakrāla","country":"IN","lat":27.8927,"lng":79.1945,"pop":35690,"capital":false},{"name":"Bīdāsar","country":"IN","lat":27.836,"lng":74.3178,"pop":35683,"capital":false},{"name":"Lahār","country":"IN","lat":26.194,"lng":78.9414,"pop":35674,"capital":false},{"name":"Ganaur","country":"IN","lat":29.1302,"lng":77.0183,"pop":35603,"capital":false},{"name":"Babīna","country":"IN","lat":25.2395,"lng":78.4703,"pop":35538,"capital":false},{"name":"Budhāna","country":"IN","lat":29.2881,"lng":77.4753,"pop":35442,"capital":false},{"name":"Rājpīpla","country":"IN","lat":21.8667,"lng":73.5,"pop":35392,"capital":false},{"name":"Dharangaon","country":"IN","lat":21.0119,"lng":75.2741,"pop":35375,"capital":false},{"name":"Mahemdāvād","country":"IN","lat":22.8236,"lng":72.7555,"pop":35368,"capital":false},{"name":"Karamsad","country":"IN","lat":22.5424,"lng":72.9039,"pop":35285,"capital":false},{"name":"Pulgaon","country":"IN","lat":20.722,"lng":78.3206,"pop":35238,"capital":false},{"name":"Vijāpur","country":"IN","lat":23.5623,"lng":72.7485,"pop":35118,"capital":false},{"name":"Rāwatsār","country":"IN","lat":29.2672,"lng":74.4029,"pop":35102,"capital":false},{"name":"Jalālābād","country":"IN","lat":27.7263,"lng":79.6552,"pop":35051,"capital":false},{"name":"Shāhābād","country":"IN","lat":28.5668,"lng":79.0096,"pop":34962,"capital":false},{"name":"Kichha","country":"IN","lat":28.9115,"lng":79.5201,"pop":34904,"capital":false},{"name":"Safidon","country":"IN","lat":29.406,"lng":76.6704,"pop":34728,"capital":false},{"name":"Bareli","country":"IN","lat":23.0044,"lng":78.2301,"pop":34663,"capital":false},{"name":"Shikārpūr","country":"IN","lat":28.2807,"lng":78.0141,"pop":34649,"capital":false},{"name":"Bagasra","country":"IN","lat":21.4872,"lng":70.9552,"pop":34521,"capital":false},{"name":"Lālsot","country":"IN","lat":26.5595,"lng":76.3292,"pop":34363,"capital":false},{"name":"Mehidpur","country":"IN","lat":23.4888,"lng":75.658,"pop":34362,"capital":false},{"name":"Soyāgaon","country":"IN","lat":20.5525,"lng":74.5069,"pop":34341,"capital":false},{"name":"Navāpur","country":"IN","lat":21.1616,"lng":73.794,"pop":34207,"capital":false},{"name":"Khāchrod","country":"IN","lat":23.4232,"lng":75.2819,"pop":34191,"capital":false},{"name":"Vapi INA","country":"IN","lat":20.3601,"lng":72.9311,"pop":34162,"capital":false},{"name":"Nawābganj","country":"IN","lat":28.541,"lng":79.6346,"pop":34134,"capital":false},{"name":"Begamganj","country":"IN","lat":23.5992,"lng":78.3406,"pop":34031,"capital":false},{"name":"Shāhpura","country":"IN","lat":27.3912,"lng":75.9596,"pop":33895,"capital":false},{"name":"Umreth","country":"IN","lat":22.6988,"lng":73.1156,"pop":33762,"capital":false},{"name":"Bahjoi","country":"IN","lat":28.395,"lng":78.6266,"pop":33752,"capital":false},{"name":"Rājākhera","country":"IN","lat":26.898,"lng":78.171,"pop":33666,"capital":false},{"name":"Alipur","country":"PK","lat":29.3824,"lng":70.9111,"pop":33601,"capital":false},{"name":"Thāna Bhawan","country":"IN","lat":29.5861,"lng":77.4181,"pop":33498,"capital":false},{"name":"Pūndri","country":"IN","lat":29.761,"lng":76.5603,"pop":33484,"capital":false},{"name":"Chaksu","country":"IN","lat":26.6051,"lng":75.9481,"pop":33432,"capital":false},{"name":"Āmli","country":"IN","lat":20.2833,"lng":73.0167,"pop":33369,"capital":false},{"name":"Anūpgarh","country":"IN","lat":29.1911,"lng":73.2086,"pop":33309,"capital":false},{"name":"Kosamba","country":"IN","lat":21.462,"lng":72.9584,"pop":33221,"capital":false},{"name":"Aya Nagar","country":"IN","lat":28.472,"lng":77.1327,"pop":33123,"capital":false},{"name":"Chanderi","country":"IN","lat":24.7131,"lng":78.1381,"pop":33081,"capital":false},{"name":"Rāmgarh","country":"IN","lat":28.171,"lng":74.9797,"pop":33024,"capital":false},{"name":"Bhādāsar","country":"IN","lat":28.3146,"lng":74.2895,"pop":33006,"capital":false},{"name":"Sānchor","country":"IN","lat":24.7536,"lng":71.7728,"pop":32875,"capital":false},{"name":"Kaimganj","country":"IN","lat":27.5544,"lng":79.3353,"pop":32858,"capital":false},{"name":"Bāmaur","country":"IN","lat":26.339,"lng":78.101,"pop":32838,"capital":false},{"name":"Garhākota","country":"IN","lat":23.7791,"lng":79.1432,"pop":32726,"capital":false},{"name":"Tārānagar","country":"IN","lat":28.6686,"lng":75.0321,"pop":32640,"capital":false},{"name":"Nepānagar","country":"IN","lat":21.4538,"lng":76.3934,"pop":32611,"capital":false},{"name":"Vallabh Vidyanagar","country":"IN","lat":22.5333,"lng":72.9,"pop":32581,"capital":false},{"name":"Saoner","country":"IN","lat":21.3851,"lng":78.9216,"pop":32498,"capital":false},{"name":"Dhandhuka","country":"IN","lat":22.3819,"lng":71.9866,"pop":32475,"capital":false},{"name":"Hatta","country":"IN","lat":24.1341,"lng":79.6012,"pop":32465,"capital":false},{"name":"Almora","country":"IN","lat":29.5971,"lng":79.6591,"pop":32442,"capital":false},{"name":"Anta","country":"IN","lat":25.15,"lng":76.3,"pop":32377,"capital":false},{"name":"Narsinghgarh","country":"IN","lat":23.7076,"lng":77.0932,"pop":32329,"capital":false},{"name":"Chhabra","country":"IN","lat":24.6647,"lng":76.8438,"pop":32285,"capital":false},{"name":"Bisauli","country":"IN","lat":28.3077,"lng":78.9368,"pop":32154,"capital":false},{"name":"Bijaynagar","country":"IN","lat":25.9298,"lng":74.6492,"pop":32124,"capital":false},{"name":"Dhāmnod","country":"IN","lat":22.2093,"lng":75.4706,"pop":32093,"capital":false},{"name":"Jora Khurd","country":"IN","lat":26.4893,"lng":77.9758,"pop":32087,"capital":false},{"name":"Halvad","country":"IN","lat":23.0152,"lng":71.1803,"pop":32024,"capital":false},{"name":"Shafi Pur Ranhola","country":"IN","lat":28.6573,"lng":77.04,"pop":31944,"capital":false},{"name":"Rāhatgarh","country":"IN","lat":23.7897,"lng":78.3947,"pop":31537,"capital":false},{"name":"Sri Mādhopur","country":"IN","lat":27.466,"lng":75.5974,"pop":31366,"capital":false},{"name":"Bagru","country":"IN","lat":26.8107,"lng":75.547,"pop":31229,"capital":false},{"name":"Pāndharkawada","country":"IN","lat":20.0211,"lng":78.5463,"pop":31094,"capital":false},{"name":"Erandol","country":"IN","lat":20.9221,"lng":75.3264,"pop":31071,"capital":false},{"name":"Shamsābād","country":"IN","lat":27.0172,"lng":78.1236,"pop":31009,"capital":false},{"name":"Mangrūl Pīr","country":"IN","lat":20.3138,"lng":77.3418,"pop":30983,"capital":false},{"name":"Khairpur Tamewah","country":"PK","lat":29.5814,"lng":72.238,"pop":30967,"capital":false},{"name":"Berasia","country":"IN","lat":23.6313,"lng":77.4335,"pop":30951,"capital":false},{"name":"Banda","country":"IN","lat":24.0449,"lng":78.9609,"pop":30923,"capital":false},{"name":"Mānāvadar","country":"IN","lat":21.4981,"lng":70.1378,"pop":30850,"capital":false},{"name":"Deūlgaon Rāja","country":"IN","lat":20.0176,"lng":76.0376,"pop":30827,"capital":false},{"name":"Un","country":"IN","lat":23.8875,"lng":71.7698,"pop":30671,"capital":false},{"name":"Siraspur","country":"IN","lat":28.7582,"lng":77.1309,"pop":30445,"capital":false},{"name":"Karjan","country":"IN","lat":22.0467,"lng":73.1181,"pop":30405,"capital":false},{"name":"Manāwar","country":"IN","lat":22.2357,"lng":75.0892,"pop":30393,"capital":false},{"name":"Mānsa","country":"IN","lat":23.4256,"lng":72.6574,"pop":30347,"capital":false},{"name":"Dhāruhera","country":"IN","lat":28.2055,"lng":76.7969,"pop":30344,"capital":false},{"name":"Sarkhej","country":"IN","lat":22.983,"lng":72.502,"pop":30341,"capital":false},{"name":"Rehli","country":"IN","lat":23.6372,"lng":79.0627,"pop":30329,"capital":false},{"name":"Udaipur","country":"IN","lat":27.723,"lng":75.4718,"pop":30264,"capital":false},{"name":"Amla","country":"IN","lat":21.9249,"lng":78.1279,"pop":30215,"capital":false},{"name":"Khair","country":"IN","lat":27.942,"lng":77.8424,"pop":30173,"capital":false},{"name":"Seoni Mālwa","country":"IN","lat":22.4505,"lng":77.4665,"pop":30100,"capital":false},{"name":"Fatehpur Sīkri","country":"IN","lat":27.0937,"lng":77.66,"pop":30026,"capital":false},{"name":"Multai","country":"IN","lat":21.7746,"lng":78.2576,"pop":29976,"capital":false},{"name":"Talāja","country":"IN","lat":21.3527,"lng":72.0352,"pop":29948,"capital":false},{"name":"Kareli","country":"IN","lat":22.9153,"lng":79.0638,"pop":29929,"capital":false},{"name":"Bhongaon","country":"IN","lat":27.2552,"lng":79.1812,"pop":29911,"capital":false},{"name":"Gadhada","country":"IN","lat":21.9696,"lng":71.5783,"pop":29872,"capital":false},{"name":"Rāmgarh","country":"IN","lat":27.251,"lng":75.1789,"pop":29834,"capital":false},{"name":"Pilāni","country":"IN","lat":28.3673,"lng":75.6035,"pop":29741,"capital":false},{"name":"Rājgarh","country":"IN","lat":24.0083,"lng":76.7325,"pop":29726,"capital":false},{"name":"Bilāri","country":"IN","lat":28.6215,"lng":78.8036,"pop":29666,"capital":false},{"name":"Walwadi","country":"IN","lat":20.9209,"lng":74.7611,"pop":29636,"capital":false},{"name":"Rāisinghnagar","country":"IN","lat":29.5358,"lng":73.4492,"pop":29626,"capital":false},{"name":"Mīrānpur Katra","country":"IN","lat":28.0296,"lng":79.6678,"pop":29626,"capital":false},{"name":"Dhanera","country":"IN","lat":24.5097,"lng":72.0234,"pop":29578,"capital":false},{"name":"Lākheri","country":"IN","lat":25.6724,"lng":76.1769,"pop":29572,"capital":false},{"name":"Behror","country":"IN","lat":27.8883,"lng":76.2811,"pop":29531,"capital":false},{"name":"Sāgwāra","country":"IN","lat":23.6795,"lng":74.0201,"pop":29439,"capital":false},{"name":"Khedbrahma","country":"IN","lat":24.0299,"lng":73.0463,"pop":29402,"capital":false},{"name":"Dhāri","country":"IN","lat":21.3286,"lng":71.0265,"pop":29346,"capital":false},{"name":"Jewar","country":"IN","lat":28.122,"lng":77.5573,"pop":29316,"capital":false},{"name":"Tarsadi","country":"IN","lat":21.47,"lng":72.9521,"pop":29305,"capital":false},{"name":"Ner","country":"IN","lat":20.4897,"lng":77.8663,"pop":29302,"capital":false},{"name":"Shāhpura","country":"IN","lat":25.6209,"lng":74.9249,"pop":29259,"capital":false},{"name":"Udaipurwati","country":"IN","lat":27.7301,"lng":75.4716,"pop":29236,"capital":false},{"name":"Bachhraon","country":"IN","lat":28.9269,"lng":78.2346,"pop":29232,"capital":false},{"name":"Renwāl","country":"IN","lat":27.1577,"lng":75.3581,"pop":29201,"capital":false},{"name":"Basni","country":"IN","lat":27.1723,"lng":73.6452,"pop":29187,"capital":false},{"name":"Islāmnagar","country":"IN","lat":28.329,"lng":78.7252,"pop":29144,"capital":false},{"name":"Mahendragarh","country":"IN","lat":28.2694,"lng":76.1525,"pop":29128,"capital":false},{"name":"Khandela","country":"IN","lat":27.605,"lng":75.502,"pop":29044,"capital":false},{"name":"Sirsāganj","country":"IN","lat":27.0572,"lng":78.6866,"pop":29034,"capital":false},{"name":"Suār","country":"IN","lat":29.0284,"lng":79.0565,"pop":28941,"capital":false},{"name":"Manoharpur","country":"IN","lat":27.2977,"lng":75.9495,"pop":28928,"capital":false},{"name":"Lādwa","country":"IN","lat":29.9935,"lng":77.0456,"pop":28887,"capital":false},{"name":"Panipat Taraf Rajputan","country":"IN","lat":29.3609,"lng":76.9426,"pop":28803,"capital":false},{"name":"Desāīganj","country":"IN","lat":20.6235,"lng":79.9645,"pop":28781,"capital":false},{"name":"Jhālod","country":"IN","lat":23.101,"lng":74.1554,"pop":28720,"capital":false},{"name":"Karera","country":"IN","lat":25.4582,"lng":78.1358,"pop":28705,"capital":false},{"name":"Soron","country":"IN","lat":27.8906,"lng":78.7462,"pop":28683,"capital":false},{"name":"Milak","country":"IN","lat":28.6103,"lng":79.17,"pop":28505,"capital":false},{"name":"Losal","country":"IN","lat":27.4,"lng":74.9167,"pop":28504,"capital":false},{"name":"Alirajpur","country":"IN","lat":22.3039,"lng":74.3557,"pop":28498,"capital":false},{"name":"Pārdi","country":"IN","lat":20.5087,"lng":72.9457,"pop":28495,"capital":false},{"name":"Rāpar","country":"IN","lat":23.5727,"lng":70.6472,"pop":28407,"capital":false},{"name":"Kukshi","country":"IN","lat":22.2068,"lng":74.7579,"pop":28331,"capital":false},{"name":"Kansad","country":"IN","lat":21.0747,"lng":72.8789,"pop":28327,"capital":false},{"name":"Kālāvad","country":"IN","lat":22.2079,"lng":70.3834,"pop":28314,"capital":false},{"name":"Dhanaura","country":"IN","lat":28.9591,"lng":78.2563,"pop":28285,"capital":false},{"name":"Jalgaon Jamod","country":"IN","lat":21.0519,"lng":76.5346,"pop":28276,"capital":false},{"name":"Jhadeshwar","country":"IN","lat":21.7136,"lng":73.0323,"pop":28148,"capital":false},{"name":"Sachīn","country":"IN","lat":21.0872,"lng":72.8815,"pop":28102,"capital":false},{"name":"Gotegaon","country":"IN","lat":23.0289,"lng":79.4823,"pop":28074,"capital":false},{"name":"Sheoganj","country":"IN","lat":25.1392,"lng":73.0678,"pop":28053,"capital":false},{"name":"Āron","country":"IN","lat":24.3811,"lng":77.4174,"pop":28010,"capital":false},{"name":"Patran","country":"IN","lat":29.9577,"lng":76.0486,"pop":27963,"capital":false},{"name":"Tharād","country":"IN","lat":24.396,"lng":71.6258,"pop":27954,"capital":false},{"name":"Panāgar","country":"IN","lat":23.2854,"lng":79.9951,"pop":27932,"capital":false},{"name":"Dāsna","country":"IN","lat":28.6774,"lng":77.5225,"pop":27926,"capital":false},{"name":"Bāmor Kalān","country":"IN","lat":24.893,"lng":78.1511,"pop":27860,"capital":false},{"name":"Umargām","country":"IN","lat":20.1972,"lng":72.7504,"pop":27859,"capital":false},{"name":"Vadnagar","country":"IN","lat":23.7859,"lng":72.6389,"pop":27790,"capital":false},{"name":"Jaswantnagar","country":"IN","lat":26.8827,"lng":78.9026,"pop":27777,"capital":false},{"name":"Afzalgarh","country":"IN","lat":29.3937,"lng":78.6739,"pop":27753,"capital":false},{"name":"Sausar","country":"IN","lat":21.6558,"lng":78.7967,"pop":27459,"capital":false},{"name":"Rājaldesar","country":"IN","lat":28.0285,"lng":74.4744,"pop":27419,"capital":false},{"name":"Pachor","country":"IN","lat":23.7098,"lng":76.7339,"pop":27396,"capital":false},{"name":"Sādri","country":"IN","lat":25.1856,"lng":73.4529,"pop":27390,"capital":false},{"name":"Mīrānpur","country":"IN","lat":29.2903,"lng":77.9494,"pop":27390,"capital":false},{"name":"Kālānwāli","country":"IN","lat":29.8357,"lng":74.9717,"pop":27355,"capital":false},{"name":"Kadodara","country":"IN","lat":21.1616,"lng":72.9623,"pop":27336,"capital":false},{"name":"Gulābpura","country":"IN","lat":25.9045,"lng":74.6603,"pop":27215,"capital":false},{"name":"Kundarkhi","country":"IN","lat":28.683,"lng":78.7856,"pop":27197,"capital":false},{"name":"Ali","country":"IN","lat":28.5161,"lng":77.3099,"pop":27169,"capital":false},{"name":"Jāfarābād","country":"IN","lat":20.8661,"lng":71.3661,"pop":27167,"capital":false},{"name":"Bidhūna","country":"IN","lat":26.8017,"lng":79.5083,"pop":27158,"capital":false},{"name":"Āsandh","country":"IN","lat":29.5212,"lng":76.6055,"pop":27125,"capital":false},{"name":"Rāver","country":"IN","lat":21.2476,"lng":76.0351,"pop":27039,"capital":false},{"name":"Kotdwāra","country":"IN","lat":29.7461,"lng":78.5222,"pop":27009,"capital":false},{"name":"Rājgarh","country":"IN","lat":27.2373,"lng":76.6224,"pop":26953,"capital":false},{"name":"Pirthīpur","country":"IN","lat":25.2084,"lng":78.7516,"pop":26883,"capital":false},{"name":"Kemrī","country":"IN","lat":28.8067,"lng":79.2048,"pop":26726,"capital":false},{"name":"Karhal","country":"IN","lat":27.0009,"lng":78.9394,"pop":26693,"capital":false},{"name":"Alīganj","country":"IN","lat":27.4936,"lng":79.1713,"pop":26652,"capital":false},{"name":"Faizpur","country":"IN","lat":21.1677,"lng":75.8601,"pop":26602,"capital":false},{"name":"Manāsa","country":"IN","lat":24.4776,"lng":75.141,"pop":26551,"capital":false},{"name":"Songadh","country":"IN","lat":21.1697,"lng":73.5636,"pop":26515,"capital":false},{"name":"Dhrol","country":"IN","lat":22.567,"lng":70.4177,"pop":26496,"capital":false},{"name":"Barwāh","country":"IN","lat":22.2539,"lng":76.0385,"pop":26459,"capital":false},{"name":"Nādbai","country":"IN","lat":27.2229,"lng":77.1957,"pop":26411,"capital":false},{"name":"Taloda","country":"IN","lat":21.5613,"lng":74.2124,"pop":26363,"capital":false},{"name":"Bilsi","country":"IN","lat":28.1294,"lng":78.9109,"pop":26320,"capital":false},{"name":"Anjad","country":"IN","lat":22.0417,"lng":75.0552,"pop":26289,"capital":false},{"name":"Rāmpur","country":"IN","lat":29.8062,"lng":77.4525,"pop":26257,"capital":false},{"name":"Aklera","country":"IN","lat":24.4129,"lng":76.5672,"pop":26240,"capital":false},{"name":"Mungaoli","country":"IN","lat":24.4084,"lng":78.0959,"pop":26192,"capital":false},{"name":"Budhlāda","country":"IN","lat":29.928,"lng":75.5621,"pop":26172,"capital":false},{"name":"Reengus","country":"IN","lat":27.3636,"lng":75.5684,"pop":26139,"capital":false},{"name":"Sutrāpāra","country":"IN","lat":20.8435,"lng":70.4832,"pop":26132,"capital":false},{"name":"Phulera","country":"IN","lat":26.874,"lng":75.2417,"pop":26091,"capital":false},{"name":"Basi","country":"IN","lat":26.8315,"lng":76.0486,"pop":26029,"capital":false},{"name":"Tirāwari","country":"IN","lat":29.8015,"lng":76.9283,"pop":25944,"capital":false},{"name":"Kālol","country":"IN","lat":22.6078,"lng":73.4627,"pop":25929,"capital":false},{"name":"Kailāras","country":"IN","lat":26.305,"lng":77.616,"pop":25920,"capital":false},{"name":"Dunga Bunga","country":"PK","lat":29.7498,"lng":73.2429,"pop":25893,"capital":false},{"name":"Jamjodhpur","country":"IN","lat":21.9022,"lng":70.0357,"pop":25892,"capital":false},{"name":"Ganguwa","country":"IN","lat":29.1134,"lng":75.6958,"pop":25847,"capital":false},{"name":"Kāndla","country":"IN","lat":23.0333,"lng":70.2167,"pop":25845,"capital":false},{"name":"Dārwha","country":"IN","lat":20.3102,"lng":77.7726,"pop":25791,"capital":false},{"name":"Chhota Udepur","country":"IN","lat":22.304,"lng":74.0158,"pop":25787,"capital":false},{"name":"Khajuraho Group of Monuments","country":"IN","lat":24.8481,"lng":79.9335,"pop":25662,"capital":false},{"name":"Dākor","country":"IN","lat":22.7527,"lng":73.1497,"pop":25658,"capital":false},{"name":"Deori Khās","country":"IN","lat":23.3902,"lng":79.0163,"pop":25632,"capital":false},{"name":"Kheda","country":"IN","lat":22.7522,"lng":72.6853,"pop":25575,"capital":false},{"name":"Nagar","country":"IN","lat":27.424,"lng":77.0992,"pop":25572,"capital":false},{"name":"Adampur","country":"IN","lat":29.2803,"lng":75.4682,"pop":25531,"capital":false},{"name":"Mūl","country":"IN","lat":20.0699,"lng":79.6783,"pop":25449,"capital":false},{"name":"Khātegaon","country":"IN","lat":22.5957,"lng":76.9133,"pop":25413,"capital":false},{"name":"Chāndor","country":"IN","lat":20.3306,"lng":74.2447,"pop":25341,"capital":false},{"name":"Gadkhol","country":"IN","lat":21.6438,"lng":73.0121,"pop":25332,"capital":false},{"name":"Anūpshahr","country":"IN","lat":28.3575,"lng":78.2691,"pop":25306,"capital":false},{"name":"Jalālābad","country":"IN","lat":29.6185,"lng":77.4391,"pop":25302,"capital":false},{"name":"Bābra","country":"IN","lat":21.8458,"lng":71.3054,"pop":25270,"capital":false},{"name":"Shamsābād","country":"IN","lat":27.5371,"lng":79.438,"pop":25266,"capital":false},{"name":"Kithor","country":"IN","lat":28.8668,"lng":77.9386,"pop":25262,"capital":false},{"name":"Bhānder","country":"IN","lat":25.7358,"lng":78.7456,"pop":25204,"capital":false},{"name":"Gursarāi","country":"IN","lat":25.6168,"lng":79.1805,"pop":25191,"capital":false},{"name":"Tirorā","country":"IN","lat":21.4041,"lng":79.9262,"pop":25181,"capital":false},{"name":"Kamaruddinnagar","country":"IN","lat":28.677,"lng":77.0537,"pop":25126,"capital":false},{"name":"Rānia","country":"IN","lat":29.5245,"lng":74.8369,"pop":25123,"capital":false},{"name":"Māngrol","country":"IN","lat":25.3306,"lng":76.5097,"pop":25073,"capital":false},{"name":"Kharkhauda","country":"IN","lat":28.8787,"lng":76.9107,"pop":25051,"capital":false},{"name":"Sohāgpur","country":"IN","lat":22.7006,"lng":78.1952,"pop":25040,"capital":false},{"name":"Sāndi","country":"IN","lat":27.2887,"lng":79.9519,"pop":25008,"capital":false},{"name":"Ābu","country":"IN","lat":24.5937,"lng":72.7176,"pop":24981,"capital":false},{"name":"Sadulshahar","country":"IN","lat":29.9087,"lng":74.1757,"pop":24980,"capital":false},{"name":"Borāwar","country":"IN","lat":27.0237,"lng":74.6758,"pop":24975,"capital":false},{"name":"Tarāna","country":"IN","lat":23.3338,"lng":76.0425,"pop":24908,"capital":false},{"name":"Kānth","country":"IN","lat":29.0594,"lng":78.6295,"pop":24883,"capital":false},{"name":"Charkhāri","country":"IN","lat":25.403,"lng":79.7488,"pop":24881,"capital":false},{"name":"Mahwa","country":"IN","lat":27.0459,"lng":76.9315,"pop":24846,"capital":false},{"name":"Fālna","country":"IN","lat":25.2674,"lng":73.2393,"pop":24839,"capital":false},{"name":"Anklesvar INA","country":"IN","lat":21.6168,"lng":73.0276,"pop":24789,"capital":false},{"name":"Kabrāi","country":"IN","lat":25.4028,"lng":79.9997,"pop":24771,"capital":false},{"name":"Fīrozpur Jhirka","country":"IN","lat":27.7885,"lng":76.945,"pop":24750,"capital":false},{"name":"Tijāra","country":"IN","lat":27.9341,"lng":76.8554,"pop":24747,"capital":false},{"name":"Pūnāhāna","country":"IN","lat":27.8637,"lng":77.2043,"pop":24734,"capital":false},{"name":"Damua","country":"IN","lat":22.1929,"lng":78.467,"pop":24663,"capital":false},{"name":"Shāmgarh","country":"IN","lat":24.1882,"lng":75.639,"pop":24637,"capital":false},{"name":"Keshorai Pātan","country":"IN","lat":25.2928,"lng":75.9395,"pop":24627,"capital":false},{"name":"Bholav","country":"IN","lat":21.7197,"lng":73.011,"pop":24605,"capital":false},{"name":"Dātāganj","country":"IN","lat":28.0253,"lng":79.4082,"pop":24562,"capital":false},{"name":"Chharra","country":"IN","lat":27.9247,"lng":78.401,"pop":24535,"capital":false},{"name":"Hudkeshwar Buzurg","country":"IN","lat":21.0824,"lng":79.1274,"pop":24499,"capital":false},{"name":"Pindwāra","country":"IN","lat":24.7975,"lng":73.0551,"pop":24487,"capital":false},{"name":"Sahaspur","country":"IN","lat":29.1213,"lng":78.6227,"pop":24452,"capital":false},{"name":"Ugrākheri","country":"IN","lat":29.378,"lng":77.0093,"pop":24440,"capital":false},{"name":"Kānt","country":"IN","lat":27.8105,"lng":79.7919,"pop":24430,"capital":false},{"name":"Bhokardan","country":"IN","lat":20.2583,"lng":75.77,"pop":24416,"capital":false},{"name":"Maheshwar","country":"IN","lat":22.1759,"lng":75.5871,"pop":24411,"capital":false},{"name":"Kaithoon","country":"IN","lat":25.1241,"lng":75.9722,"pop":24260,"capital":false},{"name":"Rajākheri","country":"IN","lat":23.8593,"lng":78.7852,"pop":24232,"capital":false},{"name":"Sitārganj","country":"IN","lat":28.9293,"lng":79.7044,"pop":24225,"capital":false},{"name":"Nāndgaon","country":"IN","lat":20.3068,"lng":74.655,"pop":24209,"capital":false},{"name":"Dharampur","country":"IN","lat":20.5369,"lng":73.1737,"pop":24178,"capital":false},{"name":"Alot","country":"IN","lat":23.7634,"lng":75.5566,"pop":24115,"capital":false},{"name":"Hastināpur","country":"IN","lat":29.1604,"lng":78.0076,"pop":24093,"capital":false},{"name":"Diu","country":"IN","lat":20.7141,"lng":70.9822,"pop":23991,"capital":false},{"name":"Bāzpur","country":"IN","lat":29.153,"lng":79.1081,"pop":23900,"capital":false},{"name":"Makronia","country":"IN","lat":23.8477,"lng":78.799,"pop":23861,"capital":false},{"name":"Fatehganj West","country":"IN","lat":28.4662,"lng":79.3066,"pop":23810,"capital":false},{"name":"Nasrullāhganj","country":"IN","lat":22.6837,"lng":77.2707,"pop":23788,"capital":false},{"name":"Malakpur Kohi Rangpur","country":"IN","lat":28.5403,"lng":77.1208,"pop":23726,"capital":false},{"name":"Nivāri","country":"IN","lat":25.3491,"lng":78.7997,"pop":23724,"capital":false},{"name":"Pipri","country":"IN","lat":20.7861,"lng":78.5936,"pop":23661,"capital":false},{"name":"Prāntij","country":"IN","lat":23.4361,"lng":72.8448,"pop":23596,"capital":false},{"name":"Todaraisingh","country":"IN","lat":26.024,"lng":75.4818,"pop":23559,"capital":false},{"name":"Pokaran","country":"IN","lat":26.9201,"lng":71.9163,"pop":23554,"capital":false},{"name":"Kūmher","country":"IN","lat":27.3166,"lng":77.3708,"pop":23540,"capital":false},{"name":"Jhīnjhak","country":"IN","lat":26.5609,"lng":79.7342,"pop":23499,"capital":false},{"name":"Pethāpur","country":"IN","lat":23.2631,"lng":72.6739,"pop":23497,"capital":false},{"name":"Māndal","country":"IN","lat":25.4413,"lng":74.5698,"pop":23478,"capital":false},{"name":"Shīshgarh","country":"IN","lat":28.7293,"lng":79.3147,"pop":23471,"capital":false},{"name":"Kuchera","country":"IN","lat":26.9875,"lng":73.9711,"pop":23468,"capital":false},{"name":"Pawni","country":"IN","lat":20.7923,"lng":79.6364,"pop":23450,"capital":false},{"name":"Mānesar","country":"IN","lat":28.3531,"lng":76.9404,"pop":23448,"capital":false},{"name":"Rāmtek","country":"IN","lat":21.3956,"lng":79.3273,"pop":23404,"capital":false},{"name":"Mandāwa","country":"IN","lat":28.0554,"lng":75.1483,"pop":23335,"capital":false},{"name":"Mahārājpur","country":"IN","lat":25.0194,"lng":79.7319,"pop":23328,"capital":false},{"name":"Soygaon","country":"IN","lat":20.5961,"lng":75.6177,"pop":23320,"capital":false},{"name":"Kalānaur","country":"IN","lat":28.8282,"lng":76.3955,"pop":23319,"capital":false},{"name":"Bewar","country":"IN","lat":27.2187,"lng":79.2976,"pop":23280,"capital":false},{"name":"Od","country":"IN","lat":22.621,"lng":73.1173,"pop":23250,"capital":false},{"name":"Bissāu","country":"IN","lat":28.2474,"lng":75.0767,"pop":23227,"capital":false},{"name":"Seondha","country":"IN","lat":26.1542,"lng":78.7812,"pop":23140,"capital":false},{"name":"Nakūr","country":"IN","lat":29.9196,"lng":77.3044,"pop":23084,"capital":false},{"name":"Palwal Rural","country":"IN","lat":28.1456,"lng":77.3513,"pop":23072,"capital":false},{"name":"Indargarh","country":"IN","lat":25.9109,"lng":78.5619,"pop":23045,"capital":false},{"name":"Todabhim","country":"IN","lat":26.9167,"lng":76.8167,"pop":22977,"capital":false},{"name":"Pehlādpur Bāngar","country":"IN","lat":28.7506,"lng":77.081,"pop":22968,"capital":false},{"name":"Kot Samaba","country":"PK","lat":28.5521,"lng":70.4684,"pop":22953,"capital":false},{"name":"Kanhān","country":"IN","lat":21.229,"lng":79.2398,"pop":22945,"capital":false},{"name":"Jharoda Mazra Burāri","country":"IN","lat":28.7301,"lng":77.2091,"pop":22878,"capital":false},{"name":"Sāngaria","country":"IN","lat":26.1887,"lng":73.0265,"pop":22853,"capital":false},{"name":"Ubaidullāhganj","country":"IN","lat":22.9983,"lng":77.5862,"pop":22845,"capital":false},{"name":"Sāmbhar","country":"IN","lat":26.9081,"lng":75.1914,"pop":22828,"capital":false},{"name":"Fatehnagar","country":"IN","lat":24.8149,"lng":74.095,"pop":22812,"capital":false},{"name":"Kasrāwad","country":"IN","lat":22.1275,"lng":75.611,"pop":22750,"capital":false},{"name":"Lāthi","country":"IN","lat":21.7231,"lng":71.3884,"pop":22745,"capital":false},{"name":"Khirkiya","country":"IN","lat":22.1673,"lng":76.8614,"pop":22737,"capital":false},{"name":"Chorwād","country":"IN","lat":21.0295,"lng":70.233,"pop":22720,"capital":false},{"name":"Etmadpur","country":"IN","lat":27.2354,"lng":78.1983,"pop":22697,"capital":false},{"name":"Lohāra","country":"IN","lat":20.3898,"lng":78.0903,"pop":22664,"capital":false},{"name":"Jaitāran","country":"IN","lat":26.2045,"lng":73.9368,"pop":22621,"capital":false},{"name":"Tāoru","country":"IN","lat":28.2117,"lng":76.9498,"pop":22599,"capital":false},{"name":"Lehragaga","country":"IN","lat":29.9427,"lng":75.8014,"pop":22588,"capital":false},{"name":"Jāmai","country":"IN","lat":22.1964,"lng":78.5919,"pop":22587,"capital":false},{"name":"Pukhrāyān","country":"IN","lat":26.2238,"lng":79.8374,"pop":22555,"capital":false},{"name":"Rāman","country":"IN","lat":29.9505,"lng":74.9785,"pop":22553,"capital":false},{"name":"Sirsi","country":"IN","lat":28.6392,"lng":78.643,"pop":22549,"capital":false},{"name":"Baswa","country":"IN","lat":27.1496,"lng":76.5835,"pop":22515,"capital":false},{"name":"Naraura","country":"IN","lat":28.2015,"lng":78.3872,"pop":22432,"capital":false},{"name":"Timurni","country":"IN","lat":22.3712,"lng":77.2274,"pop":22359,"capital":false},{"name":"Suket","country":"IN","lat":24.6461,"lng":76.0417,"pop":22319,"capital":false},{"name":"Sahāwar","country":"IN","lat":27.796,"lng":78.8337,"pop":22201,"capital":false},{"name":"Muhammadābād","country":"IN","lat":27.309,"lng":79.4325,"pop":22151,"capital":false},{"name":"Nāwa","country":"IN","lat":27.0195,"lng":75.0023,"pop":22088,"capital":false},{"name":"Kathlāl","country":"IN","lat":22.8982,"lng":72.9928,"pop":22071,"capital":false},{"name":"Siwāna","country":"IN","lat":25.6515,"lng":72.4224,"pop":22067,"capital":false},{"name":"Deoli","country":"IN","lat":25.7573,"lng":75.3799,"pop":22065,"capital":false},{"name":"Chhanerā","country":"IN","lat":21.961,"lng":76.6949,"pop":22052,"capital":false},{"name":"Fatehābād","country":"IN","lat":27.0265,"lng":78.3027,"pop":21957,"capital":false},{"name":"Bhābhar","country":"IN","lat":24.0717,"lng":71.5975,"pop":21894,"capital":false},{"name":"Chāchaura","country":"IN","lat":24.1758,"lng":76.9996,"pop":21860,"capital":false},{"name":"Sangod","country":"IN","lat":24.9271,"lng":76.2865,"pop":21846,"capital":false},{"name":"Kherālu","country":"IN","lat":23.8853,"lng":72.6187,"pop":21843,"capital":false},{"name":"Chalthan","country":"IN","lat":21.1542,"lng":72.9614,"pop":21795,"capital":false},{"name":"Sakri","country":"IN","lat":20.991,"lng":74.3148,"pop":21764,"capital":false},{"name":"Dattāpur","country":"IN","lat":20.7808,"lng":78.1407,"pop":21763,"capital":false},{"name":"Umarsera","country":"IN","lat":20.3714,"lng":78.1234,"pop":21752,"capital":false},{"name":"Napāsar","country":"IN","lat":27.9606,"lng":73.5591,"pop":21750,"capital":false},{"name":"Shendurjana","country":"IN","lat":21.5249,"lng":78.2835,"pop":21748,"capital":false},{"name":"Pātūr","country":"IN","lat":20.4609,"lng":76.9373,"pop":21747,"capital":false},{"name":"Jirapur","country":"IN","lat":24.0214,"lng":76.3764,"pop":21724,"capital":false},{"name":"Sūrajgarh","country":"IN","lat":28.3101,"lng":75.7327,"pop":21666,"capital":false},{"name":"Kundli","country":"IN","lat":28.8691,"lng":77.1206,"pop":21633,"capital":false},{"name":"Pushkar","country":"IN","lat":26.4902,"lng":74.5521,"pop":21626,"capital":false},{"name":"Karanpur","country":"IN","lat":29.8404,"lng":73.4552,"pop":21604,"capital":false},{"name":"Samthar","country":"IN","lat":25.8435,"lng":78.9068,"pop":21582,"capital":false},{"name":"Banat","country":"IN","lat":29.4636,"lng":77.3548,"pop":21580,"capital":false},{"name":"Māndalgarh","country":"IN","lat":25.1941,"lng":75.0721,"pop":21569,"capital":false},{"name":"Murādābād Pahāri","country":"IN","lat":28.5646,"lng":77.1513,"pop":21502,"capital":false},{"name":"Mahādula","country":"IN","lat":21.2526,"lng":79.0811,"pop":21481,"capital":false},{"name":"Chotila","country":"IN","lat":22.4235,"lng":71.1964,"pop":21364,"capital":false},{"name":"Mandāwar","country":"IN","lat":29.4866,"lng":78.1273,"pop":21339,"capital":false},{"name":"Mahgawān","country":"IN","lat":26.4947,"lng":78.6159,"pop":21335,"capital":false},{"name":"Bedi","country":"IN","lat":22.5014,"lng":70.0436,"pop":21327,"capital":false},{"name":"Ghātanji","country":"IN","lat":20.1418,"lng":78.3133,"pop":21293,"capital":false},{"name":"Chhāta","country":"IN","lat":27.7237,"lng":77.5081,"pop":21260,"capital":false},{"name":"Telhāra","country":"IN","lat":21.0269,"lng":76.8389,"pop":21146,"capital":false},{"name":"Narkher","country":"IN","lat":21.4723,"lng":78.5342,"pop":21127,"capital":false},{"name":"Talala","country":"IN","lat":21.0547,"lng":70.529,"pop":21060,"capital":false},{"name":"Devgadh Bāriya","country":"IN","lat":22.7052,"lng":73.9088,"pop":21030,"capital":false},{"name":"Patharia","country":"IN","lat":23.8992,"lng":79.1939,"pop":21026,"capital":false},{"name":"Kiraoli","country":"IN","lat":27.1377,"lng":77.7852,"pop":21024,"capital":false},{"name":"Bhānpura","country":"IN","lat":24.513,"lng":75.7469,"pop":21013,"capital":false},{"name":"Anklav","country":"IN","lat":22.3774,"lng":73.0007,"pop":21003,"capital":false},{"name":"Abrama","country":"IN","lat":20.8587,"lng":72.9065,"pop":21000,"capital":false},{"name":"Gunnaur","country":"IN","lat":28.24,"lng":78.4399,"pop":20980,"capital":false},{"name":"Sindi","country":"IN","lat":20.7424,"lng":78.5871,"pop":20956,"capital":false},{"name":"Rajpur","country":"IN","lat":21.9402,"lng":75.1361,"pop":20947,"capital":false},{"name":"Sarauli","country":"IN","lat":28.494,"lng":79.0918,"pop":20923,"capital":false},{"name":"Badnāwar","country":"IN","lat":23.0218,"lng":75.2327,"pop":20917,"capital":false},{"name":"Heli Mandi","country":"IN","lat":28.3449,"lng":76.7569,"pop":20906,"capital":false},{"name":"Kapasan","country":"IN","lat":24.8894,"lng":74.3167,"pop":20869,"capital":false},{"name":"Gormi","country":"IN","lat":26.6003,"lng":78.5119,"pop":20841,"capital":false},{"name":"Begūn","country":"IN","lat":24.9833,"lng":75,"pop":20836,"capital":false},{"name":"Nandri","country":"IN","lat":26.3116,"lng":73.1009,"pop":20827,"capital":false},{"name":"Kāpren","country":"IN","lat":25.4053,"lng":76.0743,"pop":20748,"capital":false},{"name":"Alīpur","country":"IN","lat":28.7986,"lng":77.1331,"pop":20736,"capital":false},{"name":"Vadāli","country":"IN","lat":23.9423,"lng":73.0378,"pop":20646,"capital":false},{"name":"Talwandi Sābo","country":"IN","lat":29.9838,"lng":75.082,"pop":20589,"capital":false},{"name":"Dayal Pur","country":"IN","lat":28.7175,"lng":77.2651,"pop":20589,"capital":false},{"name":"Jahāzpur","country":"IN","lat":25.6199,"lng":75.2761,"pop":20586,"capital":false},{"name":"Sāvda","country":"IN","lat":21.1505,"lng":75.8894,"pop":20584,"capital":false},{"name":"Viratnagar","country":"IN","lat":27.4354,"lng":76.183,"pop":20568,"capital":false},{"name":"Sāmpla","country":"IN","lat":28.7772,"lng":76.7716,"pop":20563,"capital":false},{"name":"Achhnera","country":"IN","lat":27.1783,"lng":77.7567,"pop":20532,"capital":false},{"name":"Tilpat","country":"IN","lat":28.4651,"lng":77.3328,"pop":20514,"capital":false},{"name":"Bijāwar","country":"IN","lat":24.6235,"lng":79.4899,"pop":20513,"capital":false},{"name":"Maham","country":"IN","lat":28.9691,"lng":76.295,"pop":20484,"capital":false},{"name":"Nīmāj","country":"IN","lat":26.15,"lng":74.0009,"pop":20424,"capital":false},{"name":"Pataudi","country":"IN","lat":28.3255,"lng":76.7786,"pop":20418,"capital":false},{"name":"Bāda","country":"IN","lat":26.0648,"lng":75.0216,"pop":20372,"capital":false},{"name":"Sarwar","country":"IN","lat":26.2425,"lng":75.1288,"pop":20372,"capital":false},{"name":"Jhālu","country":"IN","lat":29.3361,"lng":78.2261,"pop":20356,"capital":false},{"name":"Bawāni Khera","country":"IN","lat":28.9492,"lng":76.0311,"pop":20289,"capital":false},{"name":"Umbri","country":"IN","lat":20.7137,"lng":77.0264,"pop":20262,"capital":false},{"name":"Hārij","country":"IN","lat":23.6936,"lng":71.907,"pop":20253,"capital":false},{"name":"Morwa","country":"IN","lat":22.9047,"lng":73.8391,"pop":20168,"capital":false},{"name":"Kaimori","country":"IN","lat":23.3847,"lng":79.7442,"pop":20154,"capital":false},{"name":"Mau","country":"IN","lat":26.2658,"lng":78.6711,"pop":20147,"capital":false},{"name":"Khairāgarh","country":"IN","lat":26.9435,"lng":77.8182,"pop":20095,"capital":false},{"name":"Maksi","country":"IN","lat":23.26,"lng":76.1457,"pop":20094,"capital":false},{"name":"Govardhan","country":"IN","lat":27.4966,"lng":77.4626,"pop":20044,"capital":false},{"name":"Rāya","country":"IN","lat":27.5561,"lng":77.7897,"pop":20008,"capital":false},{"name":"Sawar","country":"IN","lat":25.7557,"lng":75.2229,"pop":20000,"capital":false},{"name":"Bhusawar","country":"IN","lat":27.039,"lng":77.0485,"pop":19946,"capital":false},{"name":"Charthāwal","country":"IN","lat":29.5469,"lng":77.5944,"pop":19942,"capital":false},{"name":"Sarigam INA","country":"IN","lat":20.2885,"lng":72.8503,"pop":19903,"capital":false},{"name":"Bāli","country":"IN","lat":25.1973,"lng":73.2912,"pop":19880,"capital":false},{"name":"Rānikhet","country":"IN","lat":29.6408,"lng":79.4323,"pop":19873,"capital":false},{"name":"Boriavi","country":"IN","lat":22.6112,"lng":72.9328,"pop":19865,"capital":false},{"name":"Deoraniān","country":"IN","lat":28.6299,"lng":79.4765,"pop":19788,"capital":false},{"name":"Kolāras","country":"IN","lat":25.2193,"lng":77.6117,"pop":19781,"capital":false},{"name":"Chāndūr","country":"IN","lat":20.8141,"lng":77.9802,"pop":19776,"capital":false},{"name":"Borgaon","country":"IN","lat":20.7227,"lng":78.6039,"pop":19759,"capital":false},{"name":"Chhāpar","country":"IN","lat":27.819,"lng":74.4394,"pop":19744,"capital":false},{"name":"Shāhpur","country":"IN","lat":21.2374,"lng":76.2256,"pop":19719,"capital":false},{"name":"Jhinjhāna","country":"IN","lat":29.5212,"lng":77.2247,"pop":19711,"capital":false},{"name":"Kumbhrāj","country":"IN","lat":24.3734,"lng":77.0484,"pop":19707,"capital":false},{"name":"Khangarh","country":"PK","lat":29.9145,"lng":71.1607,"pop":19698,"capital":false},{"name":"Bareja","country":"IN","lat":22.8486,"lng":72.5914,"pop":19690,"capital":false},{"name":"Badi","country":"IN","lat":23.0367,"lng":78.0842,"pop":19603,"capital":false},{"name":"Kalmeshwar","country":"IN","lat":21.2322,"lng":78.9199,"pop":19578,"capital":false},{"name":"Jharoda Kalān","country":"IN","lat":28.6526,"lng":76.9521,"pop":19578,"capital":false},{"name":"Lāwar Khās","country":"IN","lat":29.1109,"lng":77.7777,"pop":19556,"capital":false},{"name":"Vīsāvadar","country":"IN","lat":21.3395,"lng":70.7497,"pop":19515,"capital":false},{"name":"Pināhat","country":"IN","lat":26.8849,"lng":78.3765,"pop":19511,"capital":false},{"name":"Nainwa","country":"IN","lat":25.7715,"lng":75.8498,"pop":19485,"capital":false},{"name":"Jānsath","country":"IN","lat":29.325,"lng":77.8504,"pop":19467,"capital":false},{"name":"Santrampur","country":"IN","lat":23.1902,"lng":73.8953,"pop":19465,"capital":false},{"name":"Richha","country":"IN","lat":28.6947,"lng":79.5228,"pop":19459,"capital":false},{"name":"Bhāyāvadar","country":"IN","lat":21.8552,"lng":70.2479,"pop":19458,"capital":false},{"name":"Sojītra","country":"IN","lat":22.5388,"lng":72.7198,"pop":19403,"capital":false},{"name":"Weir","country":"IN","lat":27.0186,"lng":77.1764,"pop":19385,"capital":false},{"name":"Narwar","country":"IN","lat":25.6439,"lng":77.9129,"pop":19385,"capital":false},{"name":"Wazīrganj","country":"IN","lat":28.2115,"lng":79.0567,"pop":19372,"capital":false},{"name":"Raja Pur Khurd","country":"IN","lat":28.6352,"lng":77.033,"pop":19312,"capital":false},{"name":"Deoli","country":"IN","lat":20.6492,"lng":78.4802,"pop":19288,"capital":false},{"name":"Laksar","country":"IN","lat":29.7587,"lng":78.0415,"pop":19270,"capital":false},{"name":"Chhaprauli","country":"IN","lat":29.2099,"lng":77.1745,"pop":19224,"capital":false},{"name":"Sardulgarh","country":"IN","lat":29.6922,"lng":75.2361,"pop":19219,"capital":false},{"name":"Shehera","country":"IN","lat":22.9508,"lng":73.6312,"pop":19175,"capital":false},{"name":"Rijokri","country":"IN","lat":28.5139,"lng":77.1151,"pop":19148,"capital":false},{"name":"Siwāni","country":"IN","lat":28.9091,"lng":75.6147,"pop":19143,"capital":false},{"name":"Mir Pur Turk","country":"IN","lat":28.7049,"lng":77.2642,"pop":19098,"capital":false},{"name":"Bhitarwār","country":"IN","lat":25.7922,"lng":78.1109,"pop":19096,"capital":false},{"name":"Katangi","country":"IN","lat":23.4412,"lng":79.7962,"pop":19040,"capital":false},{"name":"Anshing","country":"IN","lat":20.0409,"lng":77.315,"pop":19000,"capital":false},{"name":"Parīchhatgarh","country":"IN","lat":28.9784,"lng":77.9342,"pop":18990,"capital":false},{"name":"Kulpahār","country":"IN","lat":25.3201,"lng":79.6393,"pop":18976,"capital":false},{"name":"Khilchipur","country":"IN","lat":24.0394,"lng":76.578,"pop":18928,"capital":false},{"name":"Shāhpur","country":"IN","lat":29.3501,"lng":77.5516,"pop":18874,"capital":false},{"name":"Mārahra","country":"IN","lat":27.7368,"lng":78.5689,"pop":18873,"capital":false},{"name":"Chicholi","country":"IN","lat":21.4693,"lng":79.7015,"pop":18864,"capital":false},{"name":"Bhati","country":"IN","lat":28.4295,"lng":77.2257,"pop":18864,"capital":false},{"name":"Pahāsu","country":"IN","lat":28.1722,"lng":78.0638,"pop":18854,"capital":false},{"name":"Lateri","country":"IN","lat":24.0609,"lng":77.4104,"pop":18844,"capital":false},{"name":"Chhipa Barod","country":"IN","lat":24.6236,"lng":76.7078,"pop":18837,"capital":false},{"name":"Akbarpur","country":"IN","lat":26.3837,"lng":79.9493,"pop":18835,"capital":false},{"name":"Chhiri","country":"IN","lat":20.3778,"lng":72.9411,"pop":18829,"capital":false},{"name":"Rānīpur","country":"IN","lat":25.2503,"lng":79.062,"pop":18820,"capital":false},{"name":"Solsumba","country":"IN","lat":20.1575,"lng":72.7891,"pop":18796,"capital":false},{"name":"Chāndūr Bāzār","country":"IN","lat":21.2385,"lng":77.7471,"pop":18780,"capital":false},{"name":"Gangāpur","country":"IN","lat":25.2195,"lng":74.2603,"pop":18777,"capital":false},{"name":"Chanod","country":"IN","lat":20.3467,"lng":72.9283,"pop":18776,"capital":false},{"name":"Shādīpur Julāna","country":"IN","lat":29.1237,"lng":76.4052,"pop":18755,"capital":false},{"name":"Amod","country":"IN","lat":21.9932,"lng":72.8705,"pop":18742,"capital":false},{"name":"Nanauta","country":"IN","lat":29.7122,"lng":77.4173,"pop":18738,"capital":false},{"name":"Pālda","country":"IN","lat":22.68,"lng":75.8939,"pop":18697,"capital":false},{"name":"Haldaur","country":"IN","lat":29.2899,"lng":78.2844,"pop":18686,"capital":false},{"name":"Māndvi","country":"IN","lat":21.2553,"lng":73.3041,"pop":18669,"capital":false},{"name":"Valabhīpur","country":"IN","lat":21.8887,"lng":71.8794,"pop":18663,"capital":false},{"name":"Kalāyat","country":"IN","lat":29.6767,"lng":76.2556,"pop":18660,"capital":false},{"name":"Kim","country":"IN","lat":21.4008,"lng":72.9268,"pop":18638,"capital":false},{"name":"Silvāni","country":"IN","lat":23.3026,"lng":78.4408,"pop":18623,"capital":false},{"name":"Durgāpur","country":"IN","lat":20.0054,"lng":79.3027,"pop":18561,"capital":false},{"name":"Phalauda","country":"IN","lat":29.1882,"lng":77.83,"pop":18545,"capital":false},{"name":"Bānk","country":"IN","lat":22.703,"lng":75.8039,"pop":18534,"capital":false},{"name":"Harpālpur","country":"IN","lat":25.2877,"lng":79.3328,"pop":18529,"capital":false},{"name":"Rāmpura","country":"IN","lat":24.467,"lng":75.44,"pop":18495,"capital":false},{"name":"Alang","country":"IN","lat":21.3988,"lng":72.1754,"pop":18480,"capital":false},{"name":"Deshnoke","country":"IN","lat":27.7984,"lng":73.343,"pop":18470,"capital":false},{"name":"Mukandgarh","country":"IN","lat":27.9521,"lng":75.2243,"pop":18469,"capital":false},{"name":"Chicholi","country":"IN","lat":21.2664,"lng":79.1156,"pop":18469,"capital":false},{"name":"Sāvli","country":"IN","lat":22.5619,"lng":73.2232,"pop":18467,"capital":false},{"name":"Padampur","country":"IN","lat":29.7089,"lng":73.6254,"pop":18454,"capital":false},{"name":"Baroda","country":"IN","lat":25.5,"lng":76.65,"pop":18437,"capital":false},{"name":"Khali Kachigam","country":"IN","lat":20.3833,"lng":72.8667,"pop":18434,"capital":false},{"name":"Kādīpur","country":"IN","lat":28.774,"lng":77.1631,"pop":18369,"capital":false},{"name":"Chhoti Sādri","country":"IN","lat":24.3815,"lng":74.7012,"pop":18360,"capital":false},{"name":"Thāsra","country":"IN","lat":22.7983,"lng":73.2117,"pop":18337,"capital":false},{"name":"Bada Malhera","country":"IN","lat":24.5641,"lng":79.3071,"pop":18335,"capital":false},{"name":"Daboh","country":"IN","lat":26.0024,"lng":78.8766,"pop":18298,"capital":false},{"name":"Talod","country":"IN","lat":23.3514,"lng":72.95,"pop":18298,"capital":false},{"name":"Udaipura","country":"IN","lat":23.0743,"lng":78.5111,"pop":18236,"capital":false},{"name":"Khetri","country":"IN","lat":28.0007,"lng":75.7864,"pop":18209,"capital":false},{"name":"Kheri Nāngal","country":"IN","lat":29.3544,"lng":76.9774,"pop":18195,"capital":false},{"name":"Gairtganj","country":"IN","lat":23.4102,"lng":78.2208,"pop":18184,"capital":false},{"name":"Jalālī","country":"IN","lat":27.8668,"lng":78.2527,"pop":18177,"capital":false},{"name":"Moonak","country":"IN","lat":29.8253,"lng":75.8906,"pop":18141,"capital":false},{"name":"Pichor","country":"IN","lat":25.1756,"lng":78.1886,"pop":18127,"capital":false},{"name":"Bakarwāla","country":"IN","lat":28.6678,"lng":77.0201,"pop":18122,"capital":false},{"name":"Thara","country":"IN","lat":23.9735,"lng":71.8192,"pop":18060,"capital":false},{"name":"Sir Muttra","country":"IN","lat":26.515,"lng":77.3721,"pop":17988,"capital":false},{"name":"Barwala","country":"IN","lat":22.2198,"lng":72.0676,"pop":17951,"capital":false},{"name":"Narauli","country":"IN","lat":28.4855,"lng":78.7148,"pop":17945,"capital":false},{"name":"Nīlokheri","country":"IN","lat":29.8367,"lng":76.9319,"pop":17938,"capital":false},{"name":"Samdari","country":"IN","lat":25.813,"lng":72.5788,"pop":17915,"capital":false},{"name":"Saiyad-ul-ajaib","country":"IN","lat":28.5192,"lng":77.2035,"pop":17914,"capital":false},{"name":"Bayad","country":"IN","lat":23.2234,"lng":73.2149,"pop":17886,"capital":false},{"name":"Kanjari","country":"IN","lat":22.6124,"lng":72.9211,"pop":17881,"capital":false},{"name":"Bhindār","country":"IN","lat":24.5024,"lng":74.1855,"pop":17878,"capital":false},{"name":"Akalkuva","country":"IN","lat":21.5543,"lng":74.0192,"pop":17840,"capital":false},{"name":"Dāmnagar","country":"IN","lat":21.6923,"lng":71.5175,"pop":17766,"capital":false},{"name":"Ambaji","country":"IN","lat":24.3317,"lng":72.8456,"pop":17753,"capital":false},{"name":"Kannod","country":"IN","lat":22.6676,"lng":76.7429,"pop":17744,"capital":false},{"name":"Patdi","country":"IN","lat":23.196,"lng":71.7917,"pop":17725,"capital":false},{"name":"Mahudha","country":"IN","lat":22.8208,"lng":72.9403,"pop":17722,"capital":false},{"name":"Gotan","country":"IN","lat":26.6555,"lng":73.7371,"pop":17700,"capital":false},{"name":"Bhuwāna","country":"IN","lat":24.6214,"lng":73.7082,"pop":17665,"capital":false},{"name":"Kherli","country":"IN","lat":27.2736,"lng":76.9861,"pop":17634,"capital":false},{"name":"Devgarh","country":"IN","lat":25.5253,"lng":73.9081,"pop":17604,"capital":false},{"name":"Bargi","country":"IN","lat":22.9914,"lng":79.8755,"pop":17588,"capital":false},{"name":"Raipur","country":"IN","lat":26.0426,"lng":74.0237,"pop":17537,"capital":false},{"name":"Tājpur","country":"IN","lat":29.1624,"lng":78.4846,"pop":17529,"capital":false},{"name":"Jatāra","country":"IN","lat":25.0096,"lng":79.0487,"pop":17499,"capital":false},{"name":"Palera","country":"IN","lat":25.0201,"lng":79.2282,"pop":17493,"capital":false},{"name":"Indri","country":"IN","lat":29.88,"lng":77.0597,"pop":17487,"capital":false},{"name":"Depālpur","country":"IN","lat":22.851,"lng":75.5422,"pop":17474,"capital":false},{"name":"Mūndwa","country":"IN","lat":27.0631,"lng":73.823,"pop":17465,"capital":false},{"name":"Auhammadpur Mājri","country":"IN","lat":28.7292,"lng":77.0383,"pop":17462,"capital":false},{"name":"Nīsang","country":"IN","lat":29.6923,"lng":76.7546,"pop":17438,"capital":false},{"name":"Amet","country":"IN","lat":25.3061,"lng":73.9258,"pop":17434,"capital":false},{"name":"Bareta","country":"IN","lat":29.8635,"lng":75.6964,"pop":17432,"capital":false},{"name":"Hāt Piplia","country":"IN","lat":22.7695,"lng":76.2999,"pop":17419,"capital":false},{"name":"Bhundsi","country":"IN","lat":28.3505,"lng":77.0614,"pop":17410,"capital":false},{"name":"Indergarh","country":"IN","lat":26.9352,"lng":79.6712,"pop":17366,"capital":false},{"name":"Lāsalgaon","country":"IN","lat":20.1427,"lng":74.2395,"pop":17360,"capital":false},{"name":"Nārsala","country":"IN","lat":21.0897,"lng":79.1359,"pop":17330,"capital":false},{"name":"Jalalpore","country":"IN","lat":20.949,"lng":72.8983,"pop":17325,"capital":false},{"name":"Chhala","country":"IN","lat":23.3078,"lng":72.774,"pop":17323,"capital":false},{"name":"Lakhnādon","country":"IN","lat":22.6005,"lng":79.6009,"pop":17302,"capital":false},{"name":"Takhatgarh","country":"IN","lat":25.3224,"lng":73.0049,"pop":17285,"capital":false},{"name":"Nārnaund","country":"IN","lat":29.2205,"lng":76.1428,"pop":17242,"capital":false},{"name":"Mendarda","country":"IN","lat":21.3211,"lng":70.4408,"pop":17166,"capital":false},{"name":"Jāwad","country":"IN","lat":24.5992,"lng":74.8626,"pop":17129,"capital":false},{"name":"Rājgarh","country":"IN","lat":22.6782,"lng":74.9448,"pop":17113,"capital":false},{"name":"Amroli","country":"IN","lat":21.2508,"lng":72.8388,"pop":17082,"capital":false},{"name":"Chalāla","country":"IN","lat":21.4107,"lng":71.1662,"pop":17081,"capital":false},{"name":"Samālka","country":"IN","lat":28.535,"lng":77.0908,"pop":17076,"capital":false},{"name":"Naraina","country":"IN","lat":26.7907,"lng":75.2061,"pop":17048,"capital":false},{"name":"Kusum Pur","country":"IN","lat":28.5547,"lng":77.1573,"pop":17028,"capital":false},{"name":"Bijaipur","country":"IN","lat":26.0505,"lng":77.3714,"pop":16964,"capital":false},{"name":"Rānpur","country":"IN","lat":22.3516,"lng":71.7118,"pop":16944,"capital":false},{"name":"Mihona","country":"IN","lat":26.2837,"lng":78.9805,"pop":16935,"capital":false},{"name":"Gothara","country":"IN","lat":28.0662,"lng":75.8177,"pop":16933,"capital":false},{"name":"Merta Road","country":"IN","lat":26.7227,"lng":73.9176,"pop":16905,"capital":false},{"name":"Undera","country":"IN","lat":22.3484,"lng":73.1331,"pop":16902,"capital":false},{"name":"Ahor","country":"IN","lat":25.3687,"lng":72.7804,"pop":16867,"capital":false},{"name":"Gandevi","country":"IN","lat":20.8121,"lng":72.9981,"pop":16827,"capital":false},{"name":"Bara Uchāna","country":"IN","lat":29.4675,"lng":76.178,"pop":16815,"capital":false},{"name":"Budhni","country":"IN","lat":22.7866,"lng":77.6811,"pop":16808,"capital":false},{"name":"Bāwal","country":"IN","lat":28.0718,"lng":76.5831,"pop":16776,"capital":false},{"name":"Kadod","country":"IN","lat":21.2172,"lng":73.2197,"pop":16747,"capital":false},{"name":"Bābai","country":"IN","lat":22.7026,"lng":77.9349,"pop":16741,"capital":false},{"name":"Harsūd","country":"IN","lat":22.0995,"lng":76.7342,"pop":16736,"capital":false},{"name":"Andada","country":"IN","lat":21.6559,"lng":73.0215,"pop":16730,"capital":false},{"name":"Beri Khās","country":"IN","lat":28.7015,"lng":76.5771,"pop":16727,"capital":false},{"name":"Dera Māndi","country":"IN","lat":28.436,"lng":77.176,"pop":16725,"capital":false},{"name":"Nal Khera","country":"IN","lat":23.836,"lng":76.2432,"pop":16690,"capital":false},{"name":"Phaphūnd","country":"IN","lat":26.5989,"lng":79.4644,"pop":16675,"capital":false},{"name":"Sarangpore","country":"IN","lat":21.6359,"lng":73.0475,"pop":16671,"capital":false},{"name":"Babrāla","country":"IN","lat":28.2642,"lng":78.4056,"pop":16670,"capital":false},{"name":"Trajpar","country":"IN","lat":22.8157,"lng":70.8665,"pop":16637,"capital":false},{"name":"Āsind","country":"IN","lat":25.7342,"lng":74.3328,"pop":16611,"capital":false},{"name":"Vāghodia","country":"IN","lat":22.3051,"lng":73.4002,"pop":16604,"capital":false},{"name":"Sālūmbar","country":"IN","lat":24.1352,"lng":74.0444,"pop":16557,"capital":false},{"name":"Sonkach","country":"IN","lat":22.9717,"lng":76.3467,"pop":16545,"capital":false},{"name":"Chāndāmeta","country":"IN","lat":22.1909,"lng":78.7303,"pop":16497,"capital":false},{"name":"Susner","country":"IN","lat":23.9467,"lng":76.0883,"pop":16432,"capital":false},{"name":"Rāni Khera","country":"IN","lat":28.706,"lng":77.0258,"pop":16402,"capital":false},{"name":"Bhainsdehi","country":"IN","lat":21.6449,"lng":77.6302,"pop":16400,"capital":false},{"name":"Dharampuri","country":"IN","lat":22.1495,"lng":75.3444,"pop":16363,"capital":false},{"name":"Kandāri","country":"IN","lat":21.0608,"lng":75.8098,"pop":16353,"capital":false},{"name":"Tikri Kalān","country":"IN","lat":28.6836,"lng":76.9701,"pop":16313,"capital":false},{"name":"Shāhgarh","country":"IN","lat":24.3137,"lng":79.1181,"pop":16300,"capital":false},{"name":"Nūh","country":"IN","lat":28.103,"lng":77.0014,"pop":16260,"capital":false},{"name":"Naroli","country":"IN","lat":20.2735,"lng":72.9417,"pop":16260,"capital":false},{"name":"Kamalganj","country":"IN","lat":27.2618,"lng":79.6313,"pop":16222,"capital":false},{"name":"Bhikangaon","country":"IN","lat":21.8676,"lng":75.9639,"pop":16217,"capital":false},{"name":"Shahr Sultan","country":"PK","lat":29.5752,"lng":71.0221,"pop":16166,"capital":false},{"name":"Sānwer","country":"IN","lat":22.9742,"lng":75.8271,"pop":16150,"capital":false},{"name":"Bhiloda","country":"IN","lat":23.7676,"lng":73.247,"pop":16074,"capital":false},{"name":"Shāhi","country":"IN","lat":28.5502,"lng":79.3176,"pop":16064,"capital":false},{"name":"Hindoria","country":"IN","lat":23.9035,"lng":79.5686,"pop":16001,"capital":false},{"name":"Betma","country":"IN","lat":22.6865,"lng":75.6146,"pop":15999,"capital":false},{"name":"Māliya","country":"IN","lat":23.093,"lng":70.7589,"pop":15964,"capital":false},{"name":"Asāra","country":"IN","lat":29.2471,"lng":77.3089,"pop":15959,"capital":false},{"name":"Vaso","country":"IN","lat":22.6608,"lng":72.7552,"pop":15934,"capital":false},{"name":"Chānasma","country":"IN","lat":23.7147,"lng":72.1128,"pop":15932,"capital":false},{"name":"Rura","country":"IN","lat":26.49,"lng":79.9011,"pop":15908,"capital":false},{"name":"Khaniādhāna","country":"IN","lat":25.0298,"lng":78.1271,"pop":15877,"capital":false},{"name":"Sunel","country":"IN","lat":24.3707,"lng":75.9571,"pop":15840,"capital":false},{"name":"Unhel","country":"IN","lat":23.3379,"lng":75.5593,"pop":15837,"capital":false},{"name":"Sisauli","country":"IN","lat":29.4139,"lng":77.4689,"pop":15837,"capital":false},{"name":"Jodiya Bandar","country":"IN","lat":22.7167,"lng":70.2833,"pop":15788,"capital":false},{"name":"Dhārni","country":"IN","lat":21.5533,"lng":76.8897,"pop":15761,"capital":false},{"name":"Bāngarda","country":"IN","lat":22.7592,"lng":75.7954,"pop":15761,"capital":false},{"name":"Thandla","country":"IN","lat":23.0096,"lng":74.5775,"pop":15756,"capital":false},{"name":"Khuldābād","country":"IN","lat":20.0067,"lng":75.1924,"pop":15749,"capital":false},{"name":"Khetia","country":"IN","lat":21.6712,"lng":74.5854,"pop":15744,"capital":false},{"name":"Yerkhera","country":"IN","lat":21.2165,"lng":79.1855,"pop":15727,"capital":false},{"name":"Khatīma","country":"IN","lat":28.9213,"lng":79.9708,"pop":15714,"capital":false},{"name":"Bari Sādri","country":"IN","lat":24.4134,"lng":74.4733,"pop":15713,"capital":false},{"name":"Kabilpor","country":"IN","lat":20.9508,"lng":72.9583,"pop":15699,"capital":false},{"name":"Dhanot","country":"PK","lat":29.5799,"lng":71.7521,"pop":15672,"capital":false},{"name":"Bagar","country":"IN","lat":28.1878,"lng":75.5001,"pop":15670,"capital":false},{"name":"Vidyavihar","country":"IN","lat":28.3681,"lng":75.584,"pop":15644,"capital":false},{"name":"Neb Sarai","country":"IN","lat":28.5084,"lng":77.2006,"pop":15640,"capital":false},{"name":"Sātalkheri","country":"IN","lat":24.6522,"lng":75.9983,"pop":15617,"capital":false},{"name":"Baben","country":"IN","lat":21.1373,"lng":73.0965,"pop":15610,"capital":false},{"name":"Danta","country":"IN","lat":27.2964,"lng":75.1867,"pop":15594,"capital":false},{"name":"Bādshāhpur","country":"IN","lat":28.3932,"lng":77.0492,"pop":15593,"capital":false},{"name":"Toshām","country":"IN","lat":28.8699,"lng":75.9165,"pop":15559,"capital":false},{"name":"Sanjan","country":"IN","lat":20.1917,"lng":72.8183,"pop":15544,"capital":false},{"name":"Bilsanda","country":"IN","lat":28.2434,"lng":79.9514,"pop":15538,"capital":false},{"name":"Leteri","country":"IN","lat":24.0598,"lng":77.4086,"pop":15519,"capital":false},{"name":"Kurwai","country":"IN","lat":24.1172,"lng":78.0383,"pop":15487,"capital":false},{"name":"Ajeetgarh","country":"IN","lat":27.4193,"lng":75.8214,"pop":15414,"capital":false},{"name":"Parvatsar","country":"IN","lat":26.886,"lng":74.766,"pop":15405,"capital":false},{"name":"Sāyla","country":"IN","lat":22.5493,"lng":71.4832,"pop":15376,"capital":false},{"name":"Seoni Chhapāra","country":"IN","lat":22.3939,"lng":79.5424,"pop":15371,"capital":false},{"name":"Bāh","country":"IN","lat":26.8691,"lng":78.5939,"pop":15359,"capital":false},{"name":"Mīrganj","country":"IN","lat":28.5401,"lng":79.2082,"pop":15335,"capital":false},{"name":"Sayan","country":"IN","lat":21.3198,"lng":72.8817,"pop":15324,"capital":false},{"name":"Katangi","country":"IN","lat":21.7737,"lng":79.8051,"pop":15321,"capital":false},{"name":"Bhauri","country":"IN","lat":24.6609,"lng":72.914,"pop":15312,"capital":false},{"name":"Kāthor","country":"IN","lat":21.2885,"lng":72.9407,"pop":15311,"capital":false},{"name":"Bāonlī","country":"IN","lat":26.3261,"lng":76.2283,"pop":15300,"capital":false},{"name":"Bāntva","country":"IN","lat":21.4882,"lng":70.0758,"pop":15291,"capital":false},{"name":"Ichhāwar","country":"IN","lat":23.0282,"lng":77.0173,"pop":15221,"capital":false},{"name":"Khāpa","country":"IN","lat":21.4224,"lng":78.9817,"pop":15175,"capital":false},{"name":"Petlāwad","country":"IN","lat":23.011,"lng":74.7977,"pop":15174,"capital":false},{"name":"Sultan Pur","country":"IN","lat":28.4956,"lng":77.1611,"pop":15160,"capital":false},{"name":"Korwai","country":"IN","lat":24.1177,"lng":78.0401,"pop":15136,"capital":false},{"name":"Garot","country":"IN","lat":24.3234,"lng":75.652,"pop":15122,"capital":false},{"name":"Panth Pīplia","country":"IN","lat":24.1951,"lng":75.006,"pop":15070,"capital":false},{"name":"Usehat","country":"IN","lat":27.798,"lng":79.2376,"pop":15068,"capital":false},{"name":"Khamaria","country":"IN","lat":23.2256,"lng":79.8801,"pop":15019,"capital":false},{"name":"Ūn","country":"IN","lat":29.5848,"lng":77.2554,"pop":15007,"capital":false},{"name":"Ahwa","country":"IN","lat":20.7572,"lng":73.6863,"pop":15004,"capital":false},{"name":"Loniya","country":"IN","lat":22.0618,"lng":78.9126,"pop":14989,"capital":false},{"name":"Tāl","country":"IN","lat":23.7198,"lng":75.3851,"pop":14913,"capital":false},{"name":"Diyodar","country":"IN","lat":24.1087,"lng":71.774,"pop":14912,"capital":false},{"name":"Ghitorni","country":"IN","lat":28.4948,"lng":77.144,"pop":14893,"capital":false},{"name":"Utrān","country":"IN","lat":21.2333,"lng":72.8667,"pop":14855,"capital":false},{"name":"Khānpur","country":"IN","lat":24.7324,"lng":76.396,"pop":14854,"capital":false},{"name":"Fatehgarh","country":"IN","lat":27.3641,"lng":79.6311,"pop":14847,"capital":false},{"name":"Sidhpura","country":"IN","lat":27.6331,"lng":78.8692,"pop":14815,"capital":false},{"name":"Khargāpur","country":"IN","lat":24.823,"lng":79.144,"pop":14813,"capital":false},{"name":"Bānkner","country":"IN","lat":28.8525,"lng":77.0787,"pop":14788,"capital":false},{"name":"Suhāgi","country":"IN","lat":23.2206,"lng":79.9569,"pop":14787,"capital":false},{"name":"Soyatkalan","country":"IN","lat":24.1886,"lng":76.1778,"pop":14781,"capital":false},{"name":"Jetalsar","country":"IN","lat":21.7089,"lng":70.577,"pop":14771,"capital":false},{"name":"Meethari Marwar","country":"IN","lat":27.5762,"lng":74.6866,"pop":14760,"capital":false},{"name":"Satlapur","country":"IN","lat":23.113,"lng":77.5266,"pop":14755,"capital":false},{"name":"Sakharkherda","country":"IN","lat":20.2056,"lng":76.3976,"pop":14719,"capital":false},{"name":"Khānpur","country":"IN","lat":28.5345,"lng":78.0655,"pop":14688,"capital":false},{"name":"Bhalpara","country":"IN","lat":20.9137,"lng":70.387,"pop":14676,"capital":false},{"name":"Chhāwāla","country":"IN","lat":28.5628,"lng":77.0033,"pop":14662,"capital":false},{"name":"Sākoli","country":"IN","lat":21.0871,"lng":79.9915,"pop":14636,"capital":false},{"name":"Pātan","country":"IN","lat":23.2864,"lng":79.6896,"pop":14624,"capital":false},{"name":"Mauda","country":"IN","lat":21.1458,"lng":79.3979,"pop":14606,"capital":false},{"name":"Gautampura","country":"IN","lat":22.9866,"lng":75.5192,"pop":14584,"capital":false},{"name":"Gamdi","country":"IN","lat":22.5722,"lng":72.9682,"pop":14582,"capital":false},{"name":"Bād","country":"IN","lat":27.4107,"lng":77.6922,"pop":14559,"capital":false},{"name":"Vanthli","country":"IN","lat":21.4774,"lng":70.3311,"pop":14554,"capital":false},{"name":"Deolimet","country":"IN","lat":21.158,"lng":78.9679,"pop":14545,"capital":false},{"name":"Lakhtar","country":"IN","lat":22.8568,"lng":71.7884,"pop":14534,"capital":false},{"name":"Saidpur","country":"IN","lat":28.6109,"lng":77.909,"pop":14496,"capital":false},{"name":"Karmeta","country":"IN","lat":23.2072,"lng":79.8962,"pop":14452,"capital":false},{"name":"Dhasa","country":"IN","lat":21.8049,"lng":71.5159,"pop":14448,"capital":false},{"name":"Baqiabad","country":"IN","lat":28.7325,"lng":77.2469,"pop":14429,"capital":false},{"name":"Hattīn","country":"IN","lat":28.0423,"lng":77.2405,"pop":14421,"capital":false},{"name":"Bilkha","country":"IN","lat":21.4415,"lng":70.6006,"pop":14421,"capital":false},{"name":"Tendūkheda","country":"IN","lat":23.3962,"lng":79.5395,"pop":14399,"capital":false},{"name":"Bhīmnagar","country":"IN","lat":20.7243,"lng":78.5844,"pop":14394,"capital":false},{"name":"Bilpura","country":"IN","lat":23.2216,"lng":79.9917,"pop":14349,"capital":false},{"name":"Bisokhar","country":"IN","lat":28.8515,"lng":77.5842,"pop":14332,"capital":false},{"name":"Ambahta","country":"IN","lat":29.8571,"lng":77.3358,"pop":14303,"capital":false},{"name":"Hadgood","country":"IN","lat":22.5282,"lng":72.9785,"pop":14262,"capital":false},{"name":"Rājnagar","country":"IN","lat":24.8893,"lng":79.9118,"pop":14253,"capital":false},{"name":"Bakewar","country":"IN","lat":26.6623,"lng":79.1763,"pop":14217,"capital":false},{"name":"Chirgaon","country":"IN","lat":25.572,"lng":78.8143,"pop":14147,"capital":false},{"name":"Amarwāra","country":"IN","lat":22.2978,"lng":79.1694,"pop":14141,"capital":false},{"name":"Bijolia","country":"IN","lat":25.161,"lng":75.3233,"pop":14140,"capital":false},{"name":"Satwās","country":"IN","lat":22.5363,"lng":76.6845,"pop":14108,"capital":false},{"name":"Pakhi Khanauri","country":"IN","lat":29.8427,"lng":76.1137,"pop":14096,"capital":false},{"name":"Olpād","country":"IN","lat":21.3365,"lng":72.7516,"pop":14091,"capital":false},{"name":"Moth","country":"IN","lat":25.726,"lng":78.9503,"pop":14077,"capital":false},{"name":"Shergarh","country":"IN","lat":28.6513,"lng":79.3682,"pop":14076,"capital":false},{"name":"Vānsada","country":"IN","lat":20.7582,"lng":73.3639,"pop":14072,"capital":false},{"name":"Sītāmau","country":"IN","lat":24.0147,"lng":75.3532,"pop":14056,"capital":false},{"name":"Ghiror","country":"IN","lat":27.1891,"lng":78.7931,"pop":14011,"capital":false},{"name":"Kesrisinghpur","country":"IN","lat":29.9475,"lng":73.6212,"pop":14010,"capital":false},{"name":"Rabūpura","country":"IN","lat":28.2515,"lng":77.6025,"pop":13949,"capital":false},{"name":"Lohāru","country":"IN","lat":28.4299,"lng":75.8078,"pop":13937,"capital":false},{"name":"Mora","country":"IN","lat":21.1783,"lng":72.6589,"pop":13924,"capital":false},{"name":"Saij","country":"IN","lat":23.2183,"lng":72.522,"pop":13882,"capital":false},{"name":"Rāni","country":"IN","lat":25.3503,"lng":73.3089,"pop":13880,"capital":false},{"name":"Shivaji Nagar","country":"IN","lat":20.1265,"lng":79.0337,"pop":13877,"capital":false},{"name":"Buzurg","country":"IN","lat":25.8904,"lng":78.3453,"pop":13868,"capital":false},{"name":"Savgadh","country":"IN","lat":23.6165,"lng":72.9496,"pop":13841,"capital":false},{"name":"Barod","country":"IN","lat":23.7889,"lng":75.8116,"pop":13834,"capital":false},{"name":"Allāhganj","country":"IN","lat":27.5454,"lng":79.6872,"pop":13824,"capital":false},{"name":"Kharela","country":"IN","lat":25.5428,"lng":79.8124,"pop":13798,"capital":false},{"name":"Tālbahat","country":"IN","lat":25.0436,"lng":78.4344,"pop":13789,"capital":false},{"name":"Kadaura","country":"IN","lat":25.9854,"lng":79.8384,"pop":13784,"capital":false},{"name":"Tīkri Khurd","country":"IN","lat":28.8354,"lng":77.1195,"pop":13772,"capital":false},{"name":"Iglās","country":"IN","lat":27.711,"lng":77.9397,"pop":13746,"capital":false},{"name":"Tikādi","country":"IN","lat":21.2577,"lng":79.2261,"pop":13741,"capital":false},{"name":"Malsīsar","country":"IN","lat":28.3537,"lng":75.2975,"pop":13719,"capital":false},{"name":"Sivni","country":"IN","lat":20.688,"lng":77.0489,"pop":13699,"capital":false},{"name":"Pandhāna","country":"IN","lat":21.6982,"lng":76.2249,"pop":13694,"capital":false},{"name":"Tekanpur","country":"IN","lat":25.994,"lng":78.2832,"pop":13681,"capital":false},{"name":"Tīkri","country":"IN","lat":29.2291,"lng":77.3548,"pop":13646,"capital":false},{"name":"Sindi","country":"IN","lat":20.8051,"lng":78.8875,"pop":13636,"capital":false},{"name":"Garhi","country":"IN","lat":25.0449,"lng":79.6882,"pop":13625,"capital":false},{"name":"Jahānābād","country":"IN","lat":28.6303,"lng":79.7182,"pop":13617,"capital":false},{"name":"Tilang Pur Kotla","country":"IN","lat":28.6496,"lng":77.0272,"pop":13614,"capital":false},{"name":"Shāhpura","country":"IN","lat":23.1366,"lng":79.664,"pop":13601,"capital":false},{"name":"Nandelav","country":"IN","lat":21.7203,"lng":72.996,"pop":13583,"capital":false},{"name":"Badarwās","country":"IN","lat":24.9752,"lng":77.5649,"pop":13571,"capital":false},{"name":"Patiāli","country":"IN","lat":27.6909,"lng":78.9982,"pop":13515,"capital":false},{"name":"Farrukhnagar","country":"IN","lat":28.4475,"lng":76.8239,"pop":13513,"capital":false},{"name":"Sāsni","country":"IN","lat":27.7029,"lng":78.0828,"pop":13498,"capital":false},{"name":"Anandpar","country":"IN","lat":22.322,"lng":70.8456,"pop":13483,"capital":false},{"name":"Garhi Pūkhta","country":"IN","lat":29.5498,"lng":77.3088,"pop":13381,"capital":false},{"name":"Māndal","country":"IN","lat":23.2887,"lng":71.9185,"pop":13345,"capital":false},{"name":"Khailār","country":"IN","lat":25.3413,"lng":78.5313,"pop":13334,"capital":false},{"name":"Suwāsra","country":"IN","lat":24.0698,"lng":75.6523,"pop":13304,"capital":false},{"name":"Ghaura","country":"IN","lat":24.5059,"lng":79.0781,"pop":13301,"capital":false},{"name":"Kālāgarh Project Colony","country":"IN","lat":29.4778,"lng":78.7845,"pop":13298,"capital":false},{"name":"Borkherī","country":"IN","lat":20.9479,"lng":79.0151,"pop":13294,"capital":false},{"name":"Asola","country":"IN","lat":28.4573,"lng":77.1841,"pop":13275,"capital":false},{"name":"Kānor","country":"IN","lat":24.4344,"lng":74.2655,"pop":13239,"capital":false},{"name":"Bhadkodara","country":"IN","lat":21.6042,"lng":73.0148,"pop":13233,"capital":false},{"name":"Uklāna","country":"IN","lat":29.5112,"lng":75.8782,"pop":13219,"capital":false},{"name":"Majholi","country":"IN","lat":23.5011,"lng":79.924,"pop":13210,"capital":false},{"name":"Kharkhauda","country":"IN","lat":28.8364,"lng":77.7416,"pop":13189,"capital":false},{"name":"Galpadar","country":"IN","lat":23.0975,"lng":70.1251,"pop":13155,"capital":false},{"name":"Shāhpur","country":"IN","lat":23.8937,"lng":79.0507,"pop":13066,"capital":false},{"name":"Worthi","country":"IN","lat":21.2401,"lng":79.6442,"pop":13058,"capital":false},{"name":"Dadra","country":"IN","lat":20.325,"lng":72.9662,"pop":13039,"capital":false},{"name":"Dankaur","country":"IN","lat":28.3512,"lng":77.5551,"pop":13020,"capital":false},{"name":"Kanīna Khās","country":"IN","lat":28.3309,"lng":76.311,"pop":12989,"capital":false},{"name":"Ladhaura","country":"IN","lat":25.073,"lng":78.8675,"pop":12974,"capital":false},{"name":"Chaurai","country":"IN","lat":22.0546,"lng":79.2519,"pop":12956,"capital":false},{"name":"Meghnagar","country":"IN","lat":22.9066,"lng":74.5416,"pop":12929,"capital":false},{"name":"Bilaua","country":"IN","lat":26.0501,"lng":78.2752,"pop":12893,"capital":false},{"name":"Mundi","country":"IN","lat":22.0669,"lng":76.4933,"pop":12889,"capital":false},{"name":"Shāhpur","country":"IN","lat":22.1561,"lng":70.7707,"pop":12867,"capital":false},{"name":"Ratannagar","country":"IN","lat":28.2134,"lng":74.9552,"pop":12841,"capital":false},{"name":"Banasthali","country":"IN","lat":26.404,"lng":75.8696,"pop":12835,"capital":false},{"name":"Pirāwa","country":"IN","lat":24.1551,"lng":76.0273,"pop":12807,"capital":false},{"name":"Kurāra","country":"IN","lat":25.9805,"lng":79.9898,"pop":12730,"capital":false},{"name":"Kadaiya","country":"IN","lat":20.4645,"lng":72.8543,"pop":12717,"capital":false},{"name":"Bakhtāwarpur","country":"IN","lat":28.8234,"lng":77.1754,"pop":12716,"capital":false},{"name":"Vāghāpur","country":"IN","lat":20.3954,"lng":78.1106,"pop":12684,"capital":false},{"name":"Phūp Kalān","country":"IN","lat":26.6445,"lng":78.8736,"pop":12657,"capital":false},{"name":"Khudāganj","country":"IN","lat":28.1461,"lng":79.7147,"pop":12636,"capital":false},{"name":"Vavol","country":"IN","lat":23.2252,"lng":72.6209,"pop":12628,"capital":false},{"name":"Sonegaon","country":"IN","lat":20.6292,"lng":78.6921,"pop":12614,"capital":false},{"name":"Pingawān","country":"IN","lat":27.8959,"lng":77.1022,"pop":12612,"capital":false},{"name":"Isāgarh","country":"IN","lat":24.8391,"lng":77.8827,"pop":12583,"capital":false},{"name":"Becharaji","country":"IN","lat":23.4994,"lng":72.0447,"pop":12574,"capital":false},{"name":"Mahendranagar","country":"IN","lat":22.8401,"lng":70.8603,"pop":12565,"capital":false},{"name":"Samarvarni","country":"IN","lat":20.2563,"lng":73.008,"pop":12553,"capital":false},{"name":"Uniāra","country":"IN","lat":25.915,"lng":76.026,"pop":12551,"capital":false},{"name":"Singarva","country":"IN","lat":23.0229,"lng":72.6974,"pop":12547,"capital":false},{"name":"Akoda","country":"IN","lat":26.5334,"lng":78.9036,"pop":12534,"capital":false},{"name":"Hansot","country":"IN","lat":21.585,"lng":72.8076,"pop":12525,"capital":false},{"name":"Siāt","country":"IN","lat":25.8879,"lng":73.7385,"pop":12472,"capital":false},{"name":"Dunetha","country":"IN","lat":20.4294,"lng":72.851,"pop":12470,"capital":false},