[{"name":"Pandharpur","country":"IN","lat":17.6792,"lng":75.331,"pop":98923,"capital":false},{"name":"Villupuram","country":"IN","lat":11.9398,"lng":79.4924,"pop":97380,"capital":false},{"name":"Tellicherry","country":"IN","lat":11.7481,"lng":75.4929,"pop":97201,"capital":false},{"name":"Manjeri","country":"IN","lat":11.1202,"lng":76.12,"pop":97102,"capital":false},{"name":"Kuniyamuttūr","country":"IN","lat":10.9638,"lng":76.9525,"pop":95924,"capital":false},{"name":"Tiruchengode","country":"IN","lat":11.3802,"lng":77.8944,"pop":95335,"capital":false},{"name":"Closepet","country":"IN","lat":12.7218,"lng":77.2815,"pop":95167,"capital":false},{"name":"Emmiganūr","country":"IN","lat":15.772,"lng":77.4835,"pop":95149,"capital":false},{"name":"Vaniyambadi","country":"IN","lat":12.6816,"lng":78.6201,"pop":95061,"capital":false},{"name":"Parli Vaijnāth","country":"IN","lat":18.8506,"lng":76.5316,"pop":94863,"capital":false},{"name":"Allinagaram","country":"IN","lat":10.0274,"lng":77.4782,"pop":94453,"capital":false},{"name":"Gudiyatham","country":"IN","lat":12.946,"lng":78.8738,"pop":93973,"capital":false},{"name":"Doddaballapura","country":"IN","lat":13.2945,"lng":77.5378,"pop":93105,"capital":false},{"name":"Ballarpur","country":"IN","lat":19.847,"lng":79.3458,"pop":92146,"capital":false},{"name":"Rayachoti","country":"IN","lat":14.0572,"lng":78.7506,"pop":91234,"capital":false},{"name":"Valparai","country":"IN","lat":10.3269,"lng":76.9512,"pop":90353,"capital":false},{"name":"Pollachi","country":"IN","lat":10.6583,"lng":77.0085,"pop":90180,"capital":false},{"name":"Kāvali","country":"IN","lat":14.9163,"lng":79.9945,"pop":90099,"capital":false},{"name":"Roha","country":"IN","lat":18.4369,"lng":73.1196,"pop":90000,"capital":false},{"name":"Mancherial","country":"IN","lat":18.8707,"lng":79.4286,"pop":89935,"capital":false},{"name":"Kadiri","country":"IN","lat":14.1117,"lng":78.1598,"pop":89429,"capital":false},{"name":"Shrirampur","country":"IN","lat":19.622,"lng":74.657,"pop":89282,"capital":false},{"name":"Nirmal","country":"IN","lat":19.0969,"lng":78.3441,"pop":88433,"capital":false},{"name":"Madgaon","country":"IN","lat":15.275,"lng":73.9579,"pop":87650,"capital":false},{"name":"Velampālaiyam","country":"IN","lat":11.1376,"lng":77.3106,"pop":87427,"capital":false},{"name":"Kāraikāl","country":"IN","lat":10.9167,"lng":79.8333,"pop":86838,"capital":false},{"name":"Mayiladuthurai","country":"IN","lat":11.1035,"lng":79.655,"pop":86660,"capital":false},{"name":"Hingoli","country":"IN","lat":19.7146,"lng":77.1424,"pop":85103,"capital":false},{"name":"Vīrappanchathiram","country":"IN","lat":11.3531,"lng":77.7125,"pop":84453,"capital":false},{"name":"Idaiyarpālaiyam","country":"IN","lat":11.0394,"lng":76.9237,"pop":83908,"capital":false},{"name":"Harihar","country":"IN","lat":14.5129,"lng":75.8072,"pop":83219,"capital":false},{"name":"Sirsilla","country":"IN","lat":18.3886,"lng":78.8105,"pop":83186,"capital":false},{"name":"Kharghar","country":"IN","lat":19.0498,"lng":73.0702,"pop":80612,"capital":false},{"name":"Kāmāreddi","country":"IN","lat":18.32,"lng":78.3418,"pop":80315,"capital":false},{"name":"Srikalahasti","country":"IN","lat":13.7551,"lng":79.7014,"pop":80056,"capital":false},{"name":"Gokak","country":"IN","lat":16.169,"lng":74.8239,"pop":79121,"capital":false},{"name":"Arakkonam","country":"IN","lat":13.0845,"lng":79.6705,"pop":79080,"capital":false},{"name":"Kharakvasla","country":"IN","lat":18.44,"lng":73.7755,"pop":78684,"capital":false},{"name":"Edattala","country":"IN","lat":10.0564,"lng":76.3845,"pop":77811,"capital":false},{"name":"Bodhan","country":"IN","lat":18.6621,"lng":77.8858,"pop":77573,"capital":false},{"name":"Karwar","country":"IN","lat":14.8136,"lng":74.1297,"pop":77139,"capital":false},{"name":"Rabkavi-Banhatti","country":"IN","lat":16.47,"lng":75.12,"pop":77004,"capital":false},{"name":"Badagara","country":"IN","lat":11.5978,"lng":75.5814,"pop":76493,"capital":false},{"name":"Electronic City Phase I","country":"IN","lat":12.8549,"lng":77.6633,"pop":76348,"capital":false},{"name":"Ratnagiri","country":"IN","lat":16.9915,"lng":73.3102,"pop":76229,"capital":false},{"name":"Chintamani","country":"IN","lat":13.4005,"lng":78.0517,"pop":76068,"capital":false},{"name":"Sindhnūr","country":"IN","lat":15.7698,"lng":76.7558,"pop":75837,"capital":false},{"name":"Bodināyakkanūr","country":"IN","lat":10.0117,"lng":77.3498,"pop":75680,"capital":false},{"name":"Khadki","country":"IN","lat":18.5635,"lng":73.8521,"pop":75654,"capital":false},{"name":"Gūdūr","country":"IN","lat":14.1509,"lng":79.8521,"pop":74851,"capital":false},{"name":"Yadgir","country":"IN","lat":16.7701,"lng":77.1376,"pop":74294,"capital":false},{"name":"Ambājogāi","country":"IN","lat":18.7331,"lng":76.3862,"pop":74114,"capital":false},{"name":"Rabkavi","country":"IN","lat":16.4757,"lng":75.1106,"pop":73835,"capital":false},{"name":"Virudhachalam","country":"IN","lat":11.515,"lng":79.3282,"pop":73585,"capital":false},{"name":"Kāsipālaiyam","country":"IN","lat":11.3198,"lng":77.7097,"pop":73425,"capital":false},{"name":"Pattukkottai","country":"IN","lat":10.4236,"lng":79.3195,"pop":73135,"capital":false},{"name":"Pusad","country":"IN","lat":19.9127,"lng":77.5784,"pop":73046,"capital":false},{"name":"Tindivanam","country":"IN","lat":12.234,"lng":79.6555,"pop":72796,"capital":false},{"name":"Taliparamba","country":"IN","lat":12.0416,"lng":75.3593,"pop":72465,"capital":false},{"name":"Sangāreddi","country":"IN","lat":17.6248,"lng":78.0867,"pop":72344,"capital":false},{"name":"Pālghar","country":"IN","lat":19.6969,"lng":72.7654,"pop":72335,"capital":false},{"name":"Dharapuram","country":"IN","lat":10.7383,"lng":77.5322,"pop":72291,"capital":false},{"name":"Payyanur","country":"IN","lat":12.0935,"lng":75.2025,"pop":72111,"capital":false},{"name":"Channapatna","country":"IN","lat":12.6514,"lng":77.2067,"pop":71942,"capital":false},{"name":"Koyilandy","country":"IN","lat":11.4381,"lng":75.6931,"pop":71873,"capital":false},{"name":"Krishnagiri","country":"IN","lat":12.5192,"lng":78.2138,"pop":71323,"capital":false},{"name":"Zahirābād","country":"IN","lat":17.6814,"lng":77.6074,"pop":71166,"capital":false},{"name":"Khopoli","country":"IN","lat":18.7856,"lng":73.3459,"pop":71141,"capital":false},{"name":"Mārkāpur","country":"IN","lat":15.7353,"lng":79.2685,"pop":71092,"capital":false},{"name":"Kalamassery","country":"IN","lat":10.0614,"lng":76.3263,"pop":71038,"capital":false},{"name":"Panjim","country":"IN","lat":15.4957,"lng":73.8262,"pop":70991,"capital":false},{"name":"Beypore","country":"IN","lat":11.1715,"lng":75.8061,"pop":70751,"capital":false},{"name":"Koppal","country":"IN","lat":15.3452,"lng":76.1548,"pop":70698,"capital":false},{"name":"Badvel","country":"IN","lat":14.7451,"lng":79.0629,"pop":70626,"capital":false},{"name":"Palani","country":"IN","lat":10.4503,"lng":77.5209,"pop":70467,"capital":false},{"name":"Nallūr","country":"IN","lat":11.1003,"lng":77.3914,"pop":70115,"capital":false},{"name":"Chamrajnagar","country":"IN","lat":11.9231,"lng":76.9395,"pop":69875,"capital":false},{"name":"Basavakalyan","country":"IN","lat":17.8745,"lng":76.9497,"pop":69717,"capital":false},{"name":"Mettupalayam","country":"IN","lat":11.2997,"lng":76.9349,"pop":69213,"capital":false},{"name":"Jamkhandi","country":"IN","lat":16.5046,"lng":75.2915,"pop":68938,"capital":false},{"name":"Basmat","country":"IN","lat":19.3287,"lng":77.1575,"pop":68846,"capital":false},{"name":"Dharmapuri","country":"IN","lat":12.1277,"lng":78.1579,"pop":68619,"capital":false},{"name":"Munnar","country":"IN","lat":10.0882,"lng":77.0624,"pop":68000,"capital":false},{"name":"Urun-Islāmpur","country":"IN","lat":17.05,"lng":74.2667,"pop":67391,"capital":false},{"name":"Sangamner","country":"IN","lat":19.5678,"lng":74.2115,"pop":67309,"capital":false},{"name":"Hāveri","country":"IN","lat":14.7935,"lng":75.4045,"pop":67102,"capital":false},{"name":"Mannargudi","country":"IN","lat":10.6663,"lng":79.4506,"pop":66999,"capital":false},{"name":"Siddipet","country":"IN","lat":18.1048,"lng":78.8486,"pop":66737,"capital":false},{"name":"Bellampalli","country":"IN","lat":19.0558,"lng":79.493,"pop":66660,"capital":false},{"name":"Koratla","country":"IN","lat":18.8215,"lng":78.7119,"pop":66504,"capital":false},{"name":"Mandamarri","country":"IN","lat":18.9651,"lng":79.4748,"pop":66176,"capital":false},{"name":"Pulivendla","country":"IN","lat":14.4214,"lng":78.225,"pop":65706,"capital":false},{"name":"Chengalpattu","country":"IN","lat":12.6918,"lng":79.9766,"pop":65689,"capital":false},{"name":"Wadgaon Kolhati","country":"IN","lat":19.8431,"lng":75.236,"pop":65620,"capital":false},{"name":"Sinnar","country":"IN","lat":19.8451,"lng":73.9987,"pop":65299,"capital":false},{"name":"Kopargaon","country":"IN","lat":19.8824,"lng":74.4761,"pop":65273,"capital":false},{"name":"Tandur","country":"IN","lat":17.2485,"lng":77.577,"pop":65115,"capital":false},{"name":"Kodār","country":"IN","lat":16.9985,"lng":79.9656,"pop":64234,"capital":false},{"name":"Tirupattur","country":"IN","lat":12.4924,"lng":78.568,"pop":64125,"capital":false},{"name":"Chinnachowk","country":"IN","lat":14.4752,"lng":78.8354,"pop":64053,"capital":false},{"name":"Āmūr","country":"IN","lat":18.7928,"lng":78.2767,"pop":64023,"capital":false},{"name":"Kunnamkulam","country":"IN","lat":10.6467,"lng":76.067,"pop":63903,"capital":false},{"name":"Arni","country":"IN","lat":12.6677,"lng":79.2853,"pop":63671,"capital":false},{"name":"Chik Ballāpur","country":"IN","lat":13.4351,"lng":77.7279,"pop":63652,"capital":false},{"name":"Gadwāl","country":"IN","lat":16.235,"lng":77.7956,"pop":63177,"capital":false},{"name":"Pidugurālla","country":"IN","lat":16.4793,"lng":79.8863,"pop":63103,"capital":false},{"name":"Sirsi","country":"IN","lat":14.6207,"lng":74.8355,"pop":62882,"capital":false},{"name":"Nipāni","country":"IN","lat":16.399,"lng":74.3829,"pop":62865,"capital":false},{"name":"Kannur","country":"IN","lat":11.8675,"lng":75.3576,"pop":62836,"capital":false},{"name":"Vinukonda","country":"IN","lat":16.0531,"lng":79.7396,"pop":62550,"capital":false},{"name":"Nagari","country":"IN","lat":13.3214,"lng":79.5856,"pop":62253,"capital":false},{"name":"Chidambaram","country":"IN","lat":11.3993,"lng":79.6914,"pop":62153,"capital":false},{"name":"Attur","country":"IN","lat":11.5941,"lng":78.6014,"pop":61793,"capital":false},{"name":"Rāyadrug","country":"IN","lat":14.6997,"lng":76.8524,"pop":61749,"capital":false},{"name":"Cheruvannur","country":"IN","lat":11.1903,"lng":75.8283,"pop":61614,"capital":false},{"name":"Vriddhāchalam","country":"IN","lat":11.5183,"lng":79.3241,"pop":61498,"capital":false},{"name":"Udumalaippettai","country":"IN","lat":10.5881,"lng":77.2478,"pop":61133,"capital":false},{"name":"Tiptūr","country":"IN","lat":13.2563,"lng":76.4777,"pop":60957,"capital":false},{"name":"Wanparti","country":"IN","lat":16.3674,"lng":78.0689,"pop":60949,"capital":false},{"name":"Panruti","country":"IN","lat":11.7766,"lng":79.5527,"pop":60323,"capital":false},{"name":"Ilkal","country":"IN","lat":15.9592,"lng":76.1135,"pop":60242,"capital":false},{"name":"Kodungallūr","country":"IN","lat":10.2326,"lng":76.1951,"pop":60190,"capital":false},{"name":"Gobichettipalayam","country":"IN","lat":11.455,"lng":77.4422,"pop":59523,"capital":false},{"name":"Dhone","country":"IN","lat":15.3952,"lng":77.8715,"pop":59272,"capital":false},{"name":"Ullal","country":"IN","lat":12.8057,"lng":74.8606,"pop":59116,"capital":false},{"name":"Thiruvarur","country":"IN","lat":10.7727,"lng":79.6368,"pop":58777,"capital":false},{"name":"Lonavla","country":"IN","lat":18.7528,"lng":73.4058,"pop":58562,"capital":false},{"name":"Sīra","country":"IN","lat":13.7416,"lng":76.9043,"pop":57928,"capital":false},{"name":"Kagaznāgār","country":"IN","lat":19.3316,"lng":79.4661,"pop":57583,"capital":false},{"name":"Mācherla","country":"IN","lat":16.4764,"lng":79.4353,"pop":57290,"capital":false},{"name":"Mulbāgal","country":"IN","lat":13.1635,"lng":78.3935,"pop":57276,"capital":false},{"name":"Kandukūr","country":"IN","lat":15.2154,"lng":79.9039,"pop":57246,"capital":false},{"name":"Kollegāl","country":"IN","lat":12.1545,"lng":77.1105,"pop":57149,"capital":false},{"name":"Hoskote","country":"IN","lat":13.0707,"lng":77.7981,"pop":56980,"capital":false},{"name":"Mettur","country":"IN","lat":11.788,"lng":77.8008,"pop":56743,"capital":false},{"name":"Tirūrangādi","country":"IN","lat":11.0432,"lng":75.9234,"pop":56632,"capital":false},{"name":"Tennala","country":"IN","lat":10.9934,"lng":75.935,"pop":56546,"capital":false},{"name":"Talegaon Dābhāde","country":"IN","lat":18.735,"lng":73.6756,"pop":56435,"capital":false},{"name":"Hiriyūr","country":"IN","lat":13.9446,"lng":76.6172,"pop":56416,"capital":false},{"name":"Tiruvallur","country":"IN","lat":13.1438,"lng":79.9089,"pop":56074,"capital":false},{"name":"Tirur","country":"IN","lat":10.9137,"lng":75.9212,"pop":56058,"capital":false},{"name":"Nāmakkal","country":"IN","lat":11.2213,"lng":78.1652,"pop":55997,"capital":false},{"name":"Arcot","country":"IN","lat":12.9057,"lng":79.319,"pop":55955,"capital":false},{"name":"Karād","country":"IN","lat":17.2894,"lng":74.1818,"pop":55663,"capital":false},{"name":"Moonniyur","country":"IN","lat":11.0597,"lng":75.9031,"pop":55535,"capital":false},{"name":"Periya Semūr","country":"IN","lat":11.3609,"lng":77.6895,"pop":55282,"capital":false},{"name":"Challakere","country":"IN","lat":14.318,"lng":76.6517,"pop":55194,"capital":false},{"name":"Chiplūn","country":"IN","lat":17.5334,"lng":73.5094,"pop":55139,"capital":false},{"name":"Idappadi","country":"IN","lat":11.5862,"lng":77.8389,"pop":54823,"capital":false},{"name":"Punganūru","country":"IN","lat":13.3667,"lng":78.5719,"pop":54746,"capital":false},{"name":"Sāgar","country":"IN","lat":14.165,"lng":75.029,"pop":54550,"capital":false},{"name":"Deglur","country":"IN","lat":18.5483,"lng":77.577,"pop":54493,"capital":false},{"name":"Bārāmati","country":"IN","lat":18.1517,"lng":74.5777,"pop":54415,"capital":false},{"name":"Kāsaragod","country":"IN","lat":12.4984,"lng":74.9896,"pop":54172,"capital":false},{"name":"Puttūr","country":"IN","lat":13.4419,"lng":79.5531,"pop":54092,"capital":false},{"name":"Rāzampeta","country":"IN","lat":14.1954,"lng":79.159,"pop":54050,"capital":false},{"name":"Palmaner","country":"IN","lat":13.2,"lng":78.7472,"pop":54035,"capital":false},{"name":"Deolāli","country":"IN","lat":19.944,"lng":73.8344,"pop":54027,"capital":false},{"name":"Kanakapura","country":"IN","lat":12.5465,"lng":77.4201,"pop":54014,"capital":false},{"name":"Tāndoni","country":"IN","lat":10.9261,"lng":78.0941,"pop":53854,"capital":false},{"name":"Ottapalam","country":"IN","lat":10.7735,"lng":76.3776,"pop":53792,"capital":false},{"name":"Gaddi Annaram","country":"IN","lat":17.3669,"lng":78.5242,"pop":53622,"capital":false},{"name":"Nerupperichchal","country":"IN","lat":11.1611,"lng":77.374,"pop":53579,"capital":false},{"name":"Shāhpur","country":"IN","lat":16.6961,"lng":76.8422,"pop":53366,"capital":false},{"name":"Bhongīr","country":"IN","lat":17.5154,"lng":78.8856,"pop":53339,"capital":false},{"name":"Puttūr","country":"IN","lat":12.7598,"lng":75.2017,"pop":53331,"capital":false},{"name":"Arsikere","country":"IN","lat":13.3145,"lng":76.257,"pop":53216,"capital":false},{"name":"Phaltan","country":"IN","lat":17.9911,"lng":74.4318,"pop":53202,"capital":false},{"name":"Vikārābād","country":"IN","lat":17.3381,"lng":77.9044,"pop":53143,"capital":false},{"name":"Shāhābād","country":"IN","lat":17.1307,"lng":76.9436,"pop":52952,"capital":false},{"name":"Venkatagiri","country":"IN","lat":13.9601,"lng":79.5803,"pop":52688,"capital":false},{"name":"Siruguppa","country":"IN","lat":15.63,"lng":76.8922,"pop":52492,"capital":false},{"name":"Jangaon","country":"IN","lat":17.726,"lng":79.1524,"pop":52394,"capital":false},{"name":"Dandeli","country":"IN","lat":15.2667,"lng":74.6167,"pop":52295,"capital":false},{"name":"Mudhol","country":"IN","lat":16.3335,"lng":75.2831,"pop":52199,"capital":false},{"name":"Shorāpur","country":"IN","lat":16.521,"lng":76.7574,"pop":51398,"capital":false},{"name":"Peranāmpattu","country":"IN","lat":12.9343,"lng":78.7189,"pop":51271,"capital":false},{"name":"Vazhakkala","country":"IN","lat":10.0124,"lng":76.3263,"pop":51242,"capital":false},{"name":"Sidlaghatta","country":"IN","lat":13.389,"lng":77.8644,"pop":51159,"capital":false},{"name":"Mannārakkāt","country":"IN","lat":10.9922,"lng":76.4642,"pop":50921,"capital":false},{"name":"Metpalle","country":"IN","lat":18.8472,"lng":78.6256,"pop":50902,"capital":false},{"name":"Hunsūr","country":"IN","lat":12.3036,"lng":76.2928,"pop":50865,"capital":false},{"name":"Nanjangūd","country":"IN","lat":12.1176,"lng":76.684,"pop":50598,"capital":false},{"name":"Vīrapāndi","country":"IN","lat":11.0625,"lng":77.3508,"pop":50301,"capital":false},{"name":"Dāhānu","country":"IN","lat":19.9678,"lng":72.7126,"pop":50287,"capital":false},{"name":"Rasipuram","country":"IN","lat":11.4601,"lng":78.1864,"pop":50244,"capital":false},{"name":"Gangākher","country":"IN","lat":18.9696,"lng":76.7495,"pop":49891,"capital":false},{"name":"Bhaisa","country":"IN","lat":19.1129,"lng":77.9634,"pop":49764,"capital":false},{"name":"Perintalmanna","country":"IN","lat":10.9772,"lng":76.2254,"pop":49723,"capital":false},{"name":"Perambalur","country":"IN","lat":11.2333,"lng":78.8833,"pop":49648,"capital":false},{"name":"Gudalur","country":"IN","lat":11.5207,"lng":76.4814,"pop":49535,"capital":false},{"name":"Kizhake Chālakudi","country":"IN","lat":10.3007,"lng":76.3376,"pop":49525,"capital":false},{"name":"Majalgaon","country":"IN","lat":19.1551,"lng":76.2099,"pop":49453,"capital":false},{"name":"Daund","country":"IN","lat":18.4652,"lng":74.5838,"pop":49450,"capital":false},{"name":"Bail-Hongal","country":"IN","lat":15.8137,"lng":74.8589,"pop":49182,"capital":false},{"name":"Dehu Road","country":"IN","lat":18.6821,"lng":73.7316,"pop":48961,"capital":false},{"name":"Gooty","country":"IN","lat":15.1184,"lng":77.6378,"pop":48658,"capital":false},{"name":"Vengara","country":"IN","lat":11.0508,"lng":75.9781,"pop":48600,"capital":false},{"name":"Jaisingpur","country":"IN","lat":16.7764,"lng":74.5536,"pop":48510,"capital":false},{"name":"Vite","country":"IN","lat":17.2734,"lng":74.5379,"pop":48289,"capital":false},{"name":"Tānālūr","country":"IN","lat":10.9515,"lng":75.9096,"pop":47976,"capital":false},{"name":"Sadasivpet","country":"IN","lat":17.6193,"lng":77.9526,"pop":47920,"capital":false},{"name":"Athani","country":"IN","lat":16.7261,"lng":75.0642,"pop":47842,"capital":false},{"name":"Walajapet","country":"IN","lat":12.9251,"lng":79.3663,"pop":47498,"capital":false},{"name":"Umarkhed","country":"IN","lat":19.6014,"lng":77.6888,"pop":47458,"capital":false},{"name":"Kunnamangalam","country":"IN","lat":11.3046,"lng":75.8777,"pop":47396,"capital":false},{"name":"Alangad","country":"IN","lat":10.1019,"lng":76.291,"pop":47329,"capital":false},{"name":"Alengād","country":"IN","lat":10.119,"lng":76.3023,"pop":47329,"capital":false},{"name":"Mattanur","country":"IN","lat":11.9302,"lng":75.5715,"pop":47078,"capital":false},{"name":"Harpanahalli","country":"IN","lat":14.7877,"lng":75.9886,"pop":47039,"capital":false},{"name":"Pallikal","country":"IN","lat":11.1372,"lng":75.9257,"pop":46962,"capital":false},{"name":"Selu","country":"IN","lat":19.4551,"lng":76.4407,"pop":46915,"capital":false},{"name":"Medak","country":"IN","lat":18.0453,"lng":78.2608,"pop":46880,"capital":false},{"name":"Patancheru","country":"IN","lat":17.5333,"lng":78.2645,"pop":46821,"capital":false},{"name":"Nellikkuppam","country":"IN","lat":11.7755,"lng":79.6702,"pop":46678,"capital":false},{"name":"Mānvi","country":"IN","lat":15.9913,"lng":77.0503,"pop":46465,"capital":false},{"name":"Nilambūr","country":"IN","lat":11.2727,"lng":76.2257,"pop":46366,"capital":false},{"name":"Jammalamadugu","country":"IN","lat":14.8468,"lng":78.3831,"pop":46069,"capital":false},{"name":"Nāyudupet","country":"IN","lat":13.9074,"lng":79.8947,"pop":45769,"capital":false},{"name":"Farrukhnagar","country":"IN","lat":17.0779,"lng":78.2034,"pop":45675,"capital":false},{"name":"Chirakkal","country":"IN","lat":11.9126,"lng":75.361,"pop":45601,"capital":false},{"name":"Coonoor","country":"IN","lat":11.3498,"lng":76.7938,"pop":45494,"capital":false},{"name":"Kodur","country":"IN","lat":11.0153,"lng":76.0701,"pop":45459,"capital":false},{"name":"Nandikotkūr","country":"IN","lat":15.8567,"lng":78.2657,"pop":45343,"capital":false},{"name":"Bangarapet","country":"IN","lat":12.9912,"lng":78.178,"pop":44849,"capital":false},{"name":"Vishāram","country":"IN","lat":12.9181,"lng":79.2776,"pop":44786,"capital":false},{"name":"Thiruthani","country":"IN","lat":13.1759,"lng":79.6164,"pop":44781,"capital":false},{"name":"Tondalam","country":"IN","lat":11.5014,"lng":76.3498,"pop":44590,"capital":false},{"name":"Jawaharnagar","country":"IN","lat":17.51,"lng":78.5656,"pop":44562,"capital":false},{"name":"Homnābād","country":"IN","lat":17.7707,"lng":77.1252,"pop":44483,"capital":false},{"name":"Kōttakkal","country":"IN","lat":11.0009,"lng":76.0062,"pop":44382,"capital":false},{"name":"Jintūr","country":"IN","lat":19.6119,"lng":76.6874,"pop":44291,"capital":false},{"name":"Anekal","country":"IN","lat":12.7111,"lng":77.6956,"pop":44260,"capital":false},{"name":"Akkarampalle","country":"IN","lat":13.65,"lng":79.42,"pop":44219,"capital":false},{"name":"Ahmadpur","country":"IN","lat":18.7062,"lng":76.9373,"pop":43936,"capital":false},{"name":"Olavanna","country":"IN","lat":11.2184,"lng":75.8325,"pop":43895,"capital":false},{"name":"Bodupāl","country":"IN","lat":17.4188,"lng":78.5843,"pop":43692,"capital":false},{"name":"Shōranūr","country":"IN","lat":10.7618,"lng":76.2708,"pop":43533,"capital":false},{"name":"Choornikkara","country":"IN","lat":10.0879,"lng":76.3411,"pop":43207,"capital":false},{"name":"Periyakulam","country":"IN","lat":10.1227,"lng":77.5437,"pop":42976,"capital":false},{"name":"Kottuvalli","country":"IN","lat":10.1112,"lng":76.2463,"pop":42922,"capital":false},{"name":"Ranjangaon S","country":"IN","lat":19.844,"lng":75.2148,"pop":42877,"capital":false},{"name":"Kakkodi","country":"IN","lat":11.3197,"lng":75.8015,"pop":42866,"capital":false},{"name":"Bhupalpally","country":"IN","lat":18.4287,"lng":79.8639,"pop":42387,"capital":false},{"name":"Aland","country":"IN","lat":17.5643,"lng":76.5685,"pop":42371,"capital":false},{"name":"Kyathampalle","country":"IN","lat":19.6678,"lng":78.5289,"pop":42275,"capital":false},{"name":"Palladam","country":"IN","lat":10.9918,"lng":77.2863,"pop":42225,"capital":false},{"name":"Abdu Rahiman Nagar","country":"IN","lat":11.0698,"lng":75.9388,"pop":41993,"capital":false},{"name":"Mahē","country":"IN","lat":11.7017,"lng":75.5347,"pop":41816,"capital":false},{"name":"Sūrampatti","country":"IN","lat":11.3273,"lng":77.7112,"pop":41782,"capital":false},{"name":"Nārāyanpet","country":"IN","lat":16.748,"lng":77.4954,"pop":41752,"capital":false},{"name":"Paithan","country":"IN","lat":19.4751,"lng":75.3856,"pop":41536,"capital":false},{"name":"Pīleru","country":"IN","lat":13.6558,"lng":78.9385,"pop":41489,"capital":false},{"name":"Pirāyiri","country":"IN","lat":10.7652,"lng":76.6318,"pop":41359,"capital":false},{"name":"Vaijāpur","country":"IN","lat":19.9267,"lng":74.7275,"pop":41296,"capital":false},{"name":"Kannamangalam","country":"IN","lat":11.0754,"lng":75.9852,"pop":41260,"capital":false},{"name":"Saundatti","country":"IN","lat":15.7662,"lng":75.1178,"pop":41215,"capital":false},{"name":"Peddapalli","country":"IN","lat":18.6136,"lng":79.3744,"pop":41171,"capital":false},{"name":"Triprangod","country":"IN","lat":10.8423,"lng":75.9486,"pop":41167,"capital":false},{"name":"Chākan","country":"IN","lat":18.7606,"lng":73.8635,"pop":41113,"capital":false},{"name":"Jalārpet","country":"IN","lat":12.5703,"lng":78.5732,"pop":40959,"capital":false},{"name":"Thottada","country":"IN","lat":11.8385,"lng":75.4208,"pop":40818,"capital":false},{"name":"Arantāngi","country":"IN","lat":10.1724,"lng":78.9912,"pop":40814,"capital":false},{"name":"Icchannūr","country":"IN","lat":11.3615,"lng":75.7782,"pop":40697,"capital":false},{"name":"Savanūr","country":"IN","lat":14.9734,"lng":75.3372,"pop":40567,"capital":false},{"name":"Nannambra","country":"IN","lat":10.9921,"lng":75.908,"pop":40543,"capital":false},{"name":"Manapparai","country":"IN","lat":10.6077,"lng":78.4258,"pop":40510,"capital":false},{"name":"Boyampālaiyam","country":"IN","lat":11.1488,"lng":77.3537,"pop":40503,"capital":false},{"name":"Kallakkurichchi","country":"IN","lat":11.7404,"lng":78.959,"pop":40449,"capital":false},{"name":"Channarāyapatna","country":"IN","lat":12.9064,"lng":76.3878,"pop":40417,"capital":false},{"name":"Vellakkovil","country":"IN","lat":10.9463,"lng":77.7124,"pop":40359,"capital":false},{"name":"Bhālki","country":"IN","lat":18.0435,"lng":77.206,"pop":40333,"capital":false},{"name":"Kāttipparutti","country":"IN","lat":10.8738,"lng":76.0535,"pop":40318,"capital":false},{"name":"Peringathur","country":"IN","lat":11.7137,"lng":75.586,"pop":40292,"capital":false},{"name":"Nādāpuram","country":"IN","lat":11.6847,"lng":75.6549,"pop":40230,"capital":false},{"name":"Bantvāl","country":"IN","lat":12.8905,"lng":75.0349,"pop":40155,"capital":false},{"name":"Pallipalayam","country":"IN","lat":11.3652,"lng":77.7624,"pop":40140,"capital":false},{"name":"Mapusa","country":"IN","lat":15.5915,"lng":73.809,"pop":40122,"capital":false},{"name":"Akalkot","country":"IN","lat":17.5253,"lng":76.2061,"pop":40103,"capital":false},{"name":"Mālūr","country":"IN","lat":13.0032,"lng":77.938,"pop":40050,"capital":false},{"name":"Melur","country":"IN","lat":10.0324,"lng":78.3393,"pop":40017,"capital":false},{"name":"Aklūj","country":"IN","lat":17.8924,"lng":75.0214,"pop":39972,"capital":false},{"name":"Vadavalli","country":"IN","lat":11.0247,"lng":76.8973,"pop":39873,"capital":false},{"name":"Bhavāni","country":"IN","lat":11.4455,"lng":77.6821,"pop":39744,"capital":false},{"name":"Lakkanahalli","country":"IN","lat":12.112,"lng":78.1538,"pop":39697,"capital":false},{"name":"Kadungalūr","country":"IN","lat":10.0948,"lng":76.3211,"pop":39666,"capital":false},{"name":"Kālappatti","country":"IN","lat":11.0794,"lng":77.0371,"pop":39586,"capital":false},{"name":"Kurinjippādi","country":"IN","lat":11.5503,"lng":79.5907,"pop":39514,"capital":false},{"name":"Sedam","country":"IN","lat":17.1786,"lng":77.29,"pop":39341,"capital":false},{"name":"Kampli","country":"IN","lat":15.4063,"lng":76.6001,"pop":39307,"capital":false},{"name":"Mūkondapalli","country":"IN","lat":12.7514,"lng":77.8017,"pop":39245,"capital":false},{"name":"Othukkungal","country":"IN","lat":11.0283,"lng":76.029,"pop":39139,"capital":false},{"name":"Kārakkād","country":"IN","lat":10.588,"lng":76.0388,"pop":39098,"capital":false},{"name":"Betamcherla","country":"IN","lat":15.4514,"lng":78.148,"pop":38994,"capital":false},{"name":"Tuvāgudi","country":"IN","lat":10.7473,"lng":78.8213,"pop":38887,"capital":false},{"name":"Kotamangalam","country":"IN","lat":10.0643,"lng":76.6284,"pop":38837,"capital":false},{"name":"Kātpādi","country":"IN","lat":12.9695,"lng":79.1455,"pop":38833,"capital":false},{"name":"Rāhuri","country":"IN","lat":19.3907,"lng":74.6498,"pop":38813,"capital":false},{"name":"Chikodi","country":"IN","lat":16.429,"lng":74.5859,"pop":38307,"capital":false},{"name":"Chōrōd","country":"IN","lat":11.6277,"lng":75.5915,"pop":38245,"capital":false},{"name":"Indi","country":"IN","lat":17.1774,"lng":75.9526,"pop":38217,"capital":false},{"name":"Kabnur","country":"IN","lat":16.7017,"lng":74.4395,"pop":38146,"capital":false},{"name":"Malavalli","country":"IN","lat":12.3856,"lng":77.0605,"pop":38129,"capital":false},{"name":"Chetwayi","country":"IN","lat":10.5289,"lng":76.0479,"pop":38011,"capital":false},{"name":"Wādi","country":"IN","lat":17.0518,"lng":76.9905,"pop":37988,"capital":false},{"name":"Tirupati NMA","country":"IN","lat":13.6323,"lng":79.4857,"pop":37968,"capital":false},{"name":"Gauribidanur","country":"IN","lat":13.6107,"lng":77.5174,"pop":37947,"capital":false},{"name":"Tāsgaon","country":"IN","lat":17.037,"lng":74.6017,"pop":37945,"capital":false},{"name":"Pen","country":"IN","lat":18.7373,"lng":73.096,"pop":37852,"capital":false},{"name":"Tarikere","country":"IN","lat":13.7095,"lng":75.8138,"pop":37848,"capital":false},{"name":"Sathyamangalam","country":"IN","lat":11.5053,"lng":77.2383,"pop":37816,"capital":false},{"name":"Cheyyar","country":"IN","lat":12.6605,"lng":79.5431,"pop":37802,"capital":false},{"name":"Pāthri","country":"IN","lat":19.2588,"lng":76.4341,"pop":37648,"capital":false},{"name":"Chettipālaiyam","country":"IN","lat":11.1667,"lng":77.335,"pop":37620,"capital":false},{"name":"Sandūr","country":"IN","lat":15.0861,"lng":76.5469,"pop":37431,"capital":false},{"name":"Kanigiri U","country":"IN","lat":15.4064,"lng":79.507,"pop":37420,"capital":false},{"name":"Nelamangala","country":"IN","lat":13.0998,"lng":77.3936,"pop":37232,"capital":false},{"name":"Sindgi","country":"IN","lat":16.9188,"lng":76.2337,"pop":37226,"capital":false},{"name":"Sirūr","country":"IN","lat":18.8276,"lng":74.3748,"pop":37111,"capital":false},{"name":"Ashta","country":"IN","lat":16.9494,"lng":74.4094,"pop":37105,"capital":false},{"name":"Vazhayur","country":"IN","lat":11.2173,"lng":75.8999,"pop":36909,"capital":false},{"name":"Lakshmeshwar","country":"IN","lat":15.1269,"lng":75.4694,"pop":36754,"capital":false},{"name":"Kumta","country":"IN","lat":14.4285,"lng":74.4189,"pop":36719,"capital":false},{"name":"Peringottupulam","country":"IN","lat":11.0268,"lng":76.0987,"pop":36602,"capital":false},{"name":"Kodaikānāl","country":"IN","lat":10.2393,"lng":77.4893,"pop":36501,"capital":false},{"name":"Amīnpur","country":"IN","lat":17.5242,"lng":78.3227,"pop":36452,"capital":false},{"name":"Pūrna","country":"IN","lat":19.1817,"lng":77.0257,"pop":36433,"capital":false},{"name":"Nargund","country":"IN","lat":15.723,"lng":75.3867,"pop":36291,"capital":false},{"name":"Parappur","country":"IN","lat":11.0121,"lng":75.9947,"pop":36270,"capital":false},{"name":"Nilanga","country":"IN","lat":18.1168,"lng":76.7528,"pop":36172,"capital":false},{"name":"Boisar","country":"IN","lat":19.8036,"lng":72.756,"pop":36151,"capital":false},{"name":"Ausa","country":"IN","lat":18.2473,"lng":76.4993,"pop":36118,"capital":false},{"name":"Mahālingpur","country":"IN","lat":16.3888,"lng":75.1087,"pop":36055,"capital":false},{"name":"Wai","country":"IN","lat":17.9528,"lng":73.8906,"pop":36025,"capital":false},{"name":"Shikaripura","country":"IN","lat":14.2698,"lng":75.3564,"pop":36015,"capital":false},{"name":"Shirdi","country":"IN","lat":19.7662,"lng":74.4774,"pop":36004,"capital":false},{"name":"Neduva","country":"IN","lat":11.0567,"lng":75.8669,"pop":35996,"capital":false},{"name":"Ramanattukara","country":"IN","lat":11.178,"lng":75.8689,"pop":35937,"capital":false},{"name":"Mādāyi","country":"IN","lat":12.0343,"lng":75.2378,"pop":35888,"capital":false},{"name":"Partūr","country":"IN","lat":19.5993,"lng":76.2154,"pop":35883,"capital":false},{"name":"Talakkād","country":"IN","lat":10.8846,"lng":75.9309,"pop":35820,"capital":false},{"name":"Krishnarājāsāgara","country":"IN","lat":12.4398,"lng":76.3828,"pop":35805,"capital":false},{"name":"Kaipamangalam","country":"IN","lat":10.335,"lng":76.1392,"pop":35626,"capital":false},{"name":"Medchal","country":"IN","lat":17.6297,"lng":78.4814,"pop":35611,"capital":false},{"name":"Kovūr","country":"IN","lat":14.5005,"lng":79.9852,"pop":35600,"capital":false},{"name":"Tuljāpur","country":"IN","lat":18.008,"lng":76.0701,"pop":35596,"capital":false},{"name":"Uravakonda","country":"IN","lat":14.9435,"lng":77.2549,"pop":35565,"capital":false},{"name":"Umarga","country":"IN","lat":17.8384,"lng":76.6233,"pop":35477,"capital":false},{"name":"Igatpuri","country":"IN","lat":19.6952,"lng":73.5626,"pop":35461,"capital":false},{"name":"Perumanna","country":"IN","lat":11.2529,"lng":75.8906,"pop":35460,"capital":false},{"name":"Lingsugūr","country":"IN","lat":16.1588,"lng":76.5217,"pop":35411,"capital":false},{"name":"Puzhathi","country":"IN","lat":11.9011,"lng":75.3892,"pop":35212,"capital":false},{"name":"Kāramadai","country":"IN","lat":11.2406,"lng":76.9601,"pop":35166,"capital":false},{"name":"Giddalūr","country":"IN","lat":15.3744,"lng":78.9261,"pop":35150,"capital":false},{"name":"Atmakūr","country":"IN","lat":15.8811,"lng":78.587,"pop":35137,"capital":false},{"name":"Pāppinisshēri","country":"IN","lat":11.9566,"lng":75.3403,"pop":35134,"capital":false},{"name":"Karumattampatti","country":"IN","lat":11.1093,"lng":77.182,"pop":35062,"capital":false},{"name":"Māranchēri","country":"IN","lat":10.7405,"lng":75.971,"pop":35011,"capital":false},{"name":"Podaturpet","country":"IN","lat":13.2817,"lng":79.4854,"pop":35000,"capital":false},{"name":"Peruvallur","country":"IN","lat":11.1048,"lng":75.9327,"pop":34941,"capital":false},{"name":"Sīrkāzhi","country":"IN","lat":11.2373,"lng":79.7359,"pop":34927,"capital":false},{"name":"Vijayapura","country":"IN","lat":13.2972,"lng":77.8018,"pop":34866,"capital":false},{"name":"Hebbagodi","country":"IN","lat":12.8263,"lng":77.6809,"pop":34827,"capital":false},{"name":"Chēmanchēri","country":"IN","lat":11.4048,"lng":75.7236,"pop":34819,"capital":false},{"name":"Rāmdurg","country":"IN","lat":15.9458,"lng":75.2979,"pop":34800,"capital":false},{"name":"Bolārum","country":"IN","lat":17.5561,"lng":78.3482,"pop":34667,"capital":false},{"name":"Erāmala","country":"IN","lat":11.6859,"lng":75.591,"pop":34658,"capital":false},{"name":"Sankeshwar","country":"IN","lat":16.2565,"lng":74.482,"pop":34637,"capital":false},{"name":"Karjat","country":"IN","lat":18.9107,"lng":73.3235,"pop":34554,"capital":false},{"name":"Villiappally","country":"IN","lat":11.625,"lng":75.6288,"pop":34502,"capital":false},{"name":"Angamāli","country":"IN","lat":10.1906,"lng":76.3879,"pop":34399,"capital":false},{"name":"Villianur","country":"IN","lat":11.9139,"lng":79.7557,"pop":34383,"capital":false},{"name":"Manipal","country":"IN","lat":13.35,"lng":74.7833,"pop":34370,"capital":false},{"name":"Sāngola","country":"IN","lat":17.4395,"lng":75.1938,"pop":34321,"capital":false},{"name":"Vedaraniyam","country":"IN","lat":10.3721,"lng":79.851,"pop":34266,"capital":false},{"name":"Kuruvattūr","country":"IN","lat":11.3361,"lng":75.8351,"pop":34241,"capital":false},{"name":"Muddebihāl","country":"IN","lat":16.3378,"lng":76.1317,"pop":34217,"capital":false},{"name":"Kunigal","country":"IN","lat":13.0232,"lng":77.0252,"pop":34155,"capital":false},{"name":"Kadūr","country":"IN","lat":13.5529,"lng":76.0116,"pop":34151,"capital":false},{"name":"Chelambra","country":"IN","lat":11.1509,"lng":75.8719,"pop":34149,"capital":false},{"name":"Risod","country":"IN","lat":19.9767,"lng":76.788,"pop":34136,"capital":false},{"name":"Kāgal","country":"IN","lat":16.577,"lng":74.3154,"pop":34106,"capital":false},{"name":"Nagalapuram","country":"IN","lat":13.3884,"lng":79.7962,"pop":34026,"capital":false},{"name":"Jāmkhed","country":"IN","lat":18.7352,"lng":75.3134,"pop":34017,"capital":false},{"name":"Jayamkondacholapuram","country":"IN","lat":11.2127,"lng":79.3637,"pop":33945,"capital":false},{"name":"Tudiyalūr","country":"IN","lat":11.0816,"lng":76.9446,"pop":33924,"capital":false},{"name":"Ālankōd","country":"IN","lat":10.746,"lng":76.0348,"pop":33918,"capital":false},{"name":"Elayavur","country":"IN","lat":11.8892,"lng":75.4124,"pop":33853,"capital":false},{"name":"Guledagudda","country":"IN","lat":16.0502,"lng":75.79,"pop":33851,"capital":false},{"name":"Iramallūr","country":"IN","lat":10.0619,"lng":76.5717,"pop":33829,"capital":false},{"name":"Dharmābād","country":"IN","lat":18.8912,"lng":77.8494,"pop":33741,"capital":false},{"name":"Chockli","country":"IN","lat":11.7274,"lng":75.5551,"pop":33732,"capital":false},{"name":"Vemalwāda","country":"IN","lat":18.4652,"lng":78.8689,"pop":33706,"capital":false},{"name":"Gevrai","country":"IN","lat":19.2637,"lng":75.7501,"pop":33562,"capital":false},{"name":"Madikeri","country":"IN","lat":12.426,"lng":75.7382,"pop":33540,"capital":false},{"name":"Vagholi","country":"IN","lat":18.5823,"lng":73.983,"pop":33479,"capital":false},{"name":"Darsi","country":"IN","lat":15.7698,"lng":79.6794,"pop":33418,"capital":false},{"name":"Puthenvelikara","country":"IN","lat":10.1851,"lng":76.2454,"pop":33372,"capital":false},{"name":"Idangansālai","country":"IN","lat":11.6272,"lng":77.989,"pop":33245,"capital":false},{"name":"Basavana Bāgevādi","country":"IN","lat":16.5728,"lng":75.9725,"pop":33198,"capital":false},{"name":"Ajānūr","country":"IN","lat":12.3361,"lng":75.093,"pop":33079,"capital":false},{"name":"Srvanampatti","country":"IN","lat":11.0764,"lng":77.0045,"pop":32920,"capital":false},{"name":"Bhokar","country":"IN","lat":19.2193,"lng":77.6696,"pop":32899,"capital":false},{"name":"Kurumbapet","country":"IN","lat":11.9398,"lng":79.7713,"pop":32871,"capital":false},{"name":"Vengola Kizhakkumbāgam","country":"IN","lat":10.0637,"lng":76.4761,"pop":32697,"capital":false},{"name":"Nānjikkottai","country":"IN","lat":10.7293,"lng":79.1425,"pop":32689,"capital":false},{"name":"Ghugus","country":"IN","lat":19.9381,"lng":79.1119,"pop":32654,"capital":false},{"name":"Bādepalli","country":"IN","lat":16.7549,"lng":78.1443,"pop":32598,"capital":false},{"name":"Pīrzādagūda","country":"IN","lat":17.3946,"lng":78.5905,"pop":32586,"capital":false},{"name":"Shamshabad","country":"IN","lat":17.2519,"lng":78.4184,"pop":32583,"capital":false},{"name":"Erraguntla","country":"IN","lat":14.6385,"lng":78.5397,"pop":32574,"capital":false},{"name":"Edappāl","country":"IN","lat":10.7834,"lng":76.0079,"pop":32550,"capital":false},{"name":"Ulliyeri","country":"IN","lat":11.4525,"lng":75.7666,"pop":32509,"capital":false},{"name":"Manwath","country":"IN","lat":19.3013,"lng":76.4974,"pop":32488,"capital":false},{"name":"Jūjūvādi","country":"IN","lat":12.7679,"lng":77.7918,"pop":32474,"capital":false},{"name":"Thuraiyur","country":"IN","lat":11.1481,"lng":78.5991,"pop":32439,"capital":false},{"name":"Saknepalli","country":"IN","lat":18.9286,"lng":79.4571,"pop":32385,"capital":false},{"name":"Gajendragarh","country":"IN","lat":15.7363,"lng":75.9698,"pop":32359,"capital":false},{"name":"Kalyandurg","country":"IN","lat":14.5452,"lng":77.1055,"pop":32328,"capital":false},{"name":"Chittūr","country":"IN","lat":10.6997,"lng":76.7471,"pop":32298,"capital":false},{"name":"Kangayam","country":"IN","lat":11.006,"lng":77.5609,"pop":32147,"capital":false},{"name":"Turaiyūr","country":"IN","lat":11.1497,"lng":78.5987,"pop":32134,"capital":false},{"name":"Ferokh","country":"IN","lat":11.1799,"lng":75.8414,"pop":32122,"capital":false},{"name":"Pāvugada","country":"IN","lat":14.0995,"lng":77.2802,"pop":32063,"capital":false},{"name":"Thenhippalam","country":"IN","lat":11.1323,"lng":75.8822,"pop":32045,"capital":false},{"name":"Meerpet","country":"IN","lat":17.321,"lng":78.5305,"pop":32013,"capital":false},{"name":"Bhatkal","country":"IN","lat":13.9853,"lng":74.5553,"pop":32000,"capital":false},{"name":"Malkapur","country":"IN","lat":17.2621,"lng":74.1757,"pop":32000,"capital":false},{"name":"Sāsvad","country":"IN","lat":18.3435,"lng":74.031,"pop":31821,"capital":false},{"name":"Kottaikuppam","country":"IN","lat":11.9613,"lng":79.8392,"pop":31726,"capital":false},{"name":"Khaira","country":"IN","lat":19.7867,"lng":72.7616,"pop":31699,"capital":false},{"name":"Tālīkota","country":"IN","lat":16.4731,"lng":76.3109,"pop":31693,"capital":false},{"name":"Kalpatta","country":"IN","lat":11.6087,"lng":76.0834,"pop":31580,"capital":false},{"name":"Ambad","country":"IN","lat":19.613,"lng":75.7891,"pop":31553,"capital":false},{"name":"Vandavāsi","country":"IN","lat":12.5043,"lng":79.6056,"pop":31530,"capital":false},{"name":"Tirumuruganpūndi","country":"IN","lat":11.1649,"lng":77.3084,"pop":31528,"capital":false},{"name":"Parūr","country":"IN","lat":10.1477,"lng":76.23,"pop":31503,"capital":false},{"name":"Elūr","country":"IN","lat":10.0667,"lng":76.2833,"pop":31468,"capital":false},{"name":"Chemmumiahpet","country":"IN","lat":14.4629,"lng":78.8119,"pop":31416,"capital":false},{"name":"Chītāpur","country":"IN","lat":17.1236,"lng":77.0824,"pop":31299,"capital":false},{"name":"Nāspur","country":"IN","lat":18.8458,"lng":79.4617,"pop":31244,"capital":false},{"name":"Singānallūr","country":"IN","lat":10.999,"lng":77.0324,"pop":31239,"capital":false},{"name":"Unchagao","country":"IN","lat":16.6975,"lng":74.2733,"pop":31238,"capital":false},{"name":"Cheriyamundam","country":"IN","lat":10.9476,"lng":75.9564,"pop":31212,"capital":false},{"name":"Allapuram","country":"IN","lat":12.8951,"lng":79.1279,"pop":31211,"capital":false},{"name":"Rāmāpuram","country":"IN","lat":13.1009,"lng":79.1841,"pop":31169,"capital":false},{"name":"Podili","country":"IN","lat":15.6064,"lng":79.6149,"pop":31145,"capital":false},{"name":"Shrīgonda","country":"IN","lat":18.6153,"lng":74.699,"pop":31134,"capital":false},{"name":"Kalliyasshēri","country":"IN","lat":11.9755,"lng":75.3645,"pop":31122,"capital":false},{"name":"Katirur","country":"IN","lat":11.7849,"lng":75.5302,"pop":31087,"capital":false},{"name":"Adirampattinam","country":"IN","lat":10.3406,"lng":79.3791,"pop":31066,"capital":false},{"name":"Deolali","country":"IN","lat":19.4739,"lng":74.6206,"pop":30997,"capital":false},{"name":"Narsampet","country":"IN","lat":17.9279,"lng":79.8923,"pop":30963,"capital":false},{"name":"Bādāmi","country":"IN","lat":15.915,"lng":75.6768,"pop":30943,"capital":false},{"name":"Puthuppariyāram","country":"IN","lat":10.8131,"lng":76.6287,"pop":30895,"capital":false},{"name":"Sholinghur","country":"IN","lat":13.1181,"lng":79.4203,"pop":30856,"capital":false},{"name":"Dharmadam","country":"IN","lat":11.7754,"lng":75.4646,"pop":30804,"capital":false},{"name":"Madurāntakam","country":"IN","lat":12.5117,"lng":79.8849,"pop":30796,"capital":false},{"name":"Kaij","country":"IN","lat":18.7136,"lng":76.0672,"pop":30704,"capital":false},{"name":"Vadanappally","country":"IN","lat":10.4691,"lng":76.0813,"pop":30657,"capital":false},{"name":"Irimbiliyam","country":"IN","lat":10.8624,"lng":76.0922,"pop":30635,"capital":false},{"name":"Mūdbidri","country":"IN","lat":13.0665,"lng":74.9953,"pop":30632,"capital":false},{"name":"Pallappatti","country":"IN","lat":10.7206,"lng":77.8795,"pop":30624,"capital":false},{"name":"Cheranellūr","country":"IN","lat":10.0543,"lng":76.2896,"pop":30594,"capital":false},{"name":"Nāgāvaram","country":"IN","lat":17.4886,"lng":78.6021,"pop":30502,"capital":false},{"name":"Kundapura","country":"IN","lat":13.6313,"lng":74.6902,"pop":30444,"capital":false},{"name":"Uran","country":"IN","lat":18.8781,"lng":72.9392,"pop":30439,"capital":false},{"name":"Madukkarai","country":"IN","lat":10.9057,"lng":76.9634,"pop":30357,"capital":false},{"name":"Tāramangalam","country":"IN","lat":11.694,"lng":77.9704,"pop":30222,"capital":false},{"name":"Tirukkoyilur","country":"IN","lat":11.9662,"lng":79.2026,"pop":30212,"capital":false},{"name":"Musiri","country":"IN","lat":10.953,"lng":78.4443,"pop":30209,"capital":false},{"name":"Kakkalapalle","country":"IN","lat":14.6415,"lng":77.5668,"pop":30128,"capital":false},{"name":"Cherukavu","country":"IN","lat":11.1731,"lng":75.9086,"pop":30126,"capital":false},{"name":"Oddanchathiram","country":"IN","lat":10.4801,"lng":77.7498,"pop":30064,"capital":false},{"name":"Azhiyūr","country":"IN","lat":11.6935,"lng":75.5601,"pop":30023,"capital":false},{"name":"Byādgi","country":"IN","lat":14.6733,"lng":75.4868,"pop":30014,"capital":false},{"name":"Cherpulassery","country":"IN","lat":10.8766,"lng":76.3093,"pop":30000,"capital":false},{"name":"Holenarasipura","country":"IN","lat":12.7864,"lng":76.2433,"pop":29974,"capital":false},{"name":"Pūlakkōd","country":"IN","lat":11.3098,"lng":75.95,"pop":29872,"capital":false},{"name":"Ariyānkuppam","country":"IN","lat":11.8953,"lng":79.8071,"pop":29808,"capital":false},{"name":"Karumālūr","country":"IN","lat":10.1329,"lng":76.2799,"pop":29805,"capital":false},{"name":"Mavoor","country":"IN","lat":11.2667,"lng":75.9167,"pop":29781,"capital":false},{"name":"Devarkonda","country":"IN","lat":16.6919,"lng":78.9207,"pop":29731,"capital":false},{"name":"Nedumbassery","country":"IN","lat":10.1565,"lng":76.4017,"pop":29706,"capital":false},{"name":"Rājūra","country":"IN","lat":19.7795,"lng":79.3646,"pop":29668,"capital":false},{"name":"Kuttuparamba","country":"IN","lat":11.8278,"lng":75.5659,"pop":29619,"capital":false},{"name":"Ārangaon","country":"IN","lat":19.0268,"lng":74.7149,"pop":29591,"capital":false},{"name":"Chengamanād","country":"IN","lat":10.1541,"lng":76.3416,"pop":29576,"capital":false},{"name":"Sankagiri","country":"IN","lat":11.476,"lng":77.8664,"pop":29467,"capital":false},{"name":"Mharal Bk","country":"IN","lat":19.2459,"lng":73.1771,"pop":29462,"capital":false},{"name":"Nāgar Karnūl","country":"IN","lat":16.4821,"lng":78.3247,"pop":29439,"capital":false},{"name":"Talakkolattur","country":"IN","lat":11.3537,"lng":75.758,"pop":29388,"capital":false},{"name":"Cheruthazham","country":"IN","lat":12.081,"lng":75.2627,"pop":29348,"capital":false},{"name":"Amballūr","country":"IN","lat":10.4343,"lng":76.2634,"pop":29341,"capital":false},{"name":"Koovappady","country":"IN","lat":10.1553,"lng":76.4854,"pop":29339,"capital":false},{"name":"Chendamangalam","country":"IN","lat":10.1632,"lng":76.2346,"pop":29326,"capital":false},{"name":"Irinjālakuda","country":"IN","lat":10.3424,"lng":76.2112,"pop":29208,"capital":false},{"name":"Madhugiri","country":"IN","lat":13.6604,"lng":77.2124,"pop":29159,"capital":false},{"name":"Urakam","country":"IN","lat":11.0512,"lng":75.9883,"pop":29157,"capital":false},{"name":"Ariyalūr","country":"IN","lat":11.1385,"lng":79.0756,"pop":29144,"capital":false},{"name":"Mudalgi","country":"IN","lat":16.3368,"lng":74.9677,"pop":29128,"capital":false},{"name":"Nakrekal","country":"IN","lat":17.1626,"lng":79.4275,"pop":29126,"capital":false},{"name":"Gorai","country":"IN","lat":19.25,"lng":72.7833,"pop":29107,"capital":false},{"name":"Hupari","country":"IN","lat":16.6167,"lng":74.4044,"pop":28953,"capital":false},{"name":"Devadurga","country":"IN","lat":16.4231,"lng":76.9358,"pop":28929,"capital":false},{"name":"Avinashi","country":"IN","lat":11.193,"lng":77.2686,"pop":28868,"capital":false},{"name":"Kotagiri","country":"IN","lat":11.4207,"lng":76.8604,"pop":28848,"capital":false},{"name":"Kondotty","country":"IN","lat":11.1423,"lng":75.9657,"pop":28794,"capital":false},{"name":"Maddūr","country":"IN","lat":12.5828,"lng":77.0429,"pop":28754,"capital":false},{"name":"Mukher","country":"IN","lat":18.7064,"lng":77.3679,"pop":28647,"capital":false},{"name":"Alandi","country":"IN","lat":18.6776,"lng":73.8987,"pop":28645,"capital":false},{"name":"Pattāmbi","country":"IN","lat":10.8001,"lng":76.1841,"pop":28632,"capital":false},{"name":"Kāraippudūr","country":"IN","lat":11.0567,"lng":77.3061,"pop":28602,"capital":false},{"name":"Ambikāpuram","country":"IN","lat":10.7939,"lng":76.653,"pop":28592,"capital":false},{"name":"Sūryampālaiyam","country":"IN","lat":11.4045,"lng":77.7123,"pop":28585,"capital":false},{"name":"Addanki","country":"IN","lat":15.8106,"lng":79.9734,"pop":28547,"capital":false},{"name":"Kinwat","country":"IN","lat":19.6256,"lng":78.1987,"pop":28454,"capital":false},{"name":"Bānswāda","country":"IN","lat":18.3773,"lng":77.8801,"pop":28384,"capital":false},{"name":"Hosadurga","country":"IN","lat":13.7963,"lng":76.2841,"pop":28370,"capital":false},{"name":"Annigeri","country":"IN","lat":15.4251,"lng":75.4335,"pop":28267,"capital":false},{"name":"Atholi","country":"IN","lat":11.3885,"lng":75.7597,"pop":28213,"capital":false},{"name":"Shiggaon","country":"IN","lat":14.9905,"lng":75.225,"pop":28207,"capital":false},{"name":"Kottaikādu","country":"IN","lat":12.2556,"lng":79.9823,"pop":28172,"capital":false},{"name":"Hāngal","country":"IN","lat":14.7647,"lng":75.1246,"pop":28159,"capital":false},{"name":"Polūr","country":"IN","lat":12.5122,"lng":79.1241,"pop":28123,"capital":false},{"name":"Perumbavoor","country":"IN","lat":10.107,"lng":76.4737,"pop":28110,"capital":false},{"name":"Gundlupēt","country":"IN","lat":11.81,"lng":76.6903,"pop":28105,"capital":false},{"name":"Koynanagar","country":"IN","lat":17.4,"lng":73.7667,"pop":28091,"capital":false},{"name":"Kalwākurti","country":"IN","lat":16.664,"lng":78.4914,"pop":28060,"capital":false},{"name":"Devanahalli","country":"IN","lat":13.2466,"lng":77.7118,"pop":28051,"capital":false},{"name":"Hadagalli","country":"IN","lat":15.0205,"lng":75.9319,"pop":27967,"capital":false},{"name":"Kulittalai","country":"IN","lat":10.9349,"lng":78.4125,"pop":27910,"capital":false},{"name":"Sulur","country":"IN","lat":11.0243,"lng":77.1256,"pop":27909,"capital":false},{"name":"Pallikunnu","country":"IN","lat":11.8899,"lng":75.3565,"pop":27820,"capital":false},{"name":"Trittāla","country":"IN","lat":10.803,"lng":76.1289,"pop":27796,"capital":false},{"name":"Gangāpur","country":"IN","lat":19.6972,"lng":75.0105,"pop":27745,"capital":false},{"name":"Māgadi","country":"IN","lat":12.9571,"lng":77.2237,"pop":27605,"capital":false},{"name":"Pūvātūparamba","country":"IN","lat":11.271,"lng":75.8895,"pop":27598,"capital":false},{"name":"Bāspalli","country":"IN","lat":17.5391,"lng":78.3636,"pop":27563,"capital":false},{"name":"Mahād","country":"IN","lat":18.0833,"lng":73.4167,"pop":27536,"capital":false},{"name":"Jilādiguda","country":"IN","lat":17.332,"lng":78.5255,"pop":27461,"capital":false},{"name":"Moothakunnam","country":"IN","lat":10.19,"lng":76.2008,"pop":27458,"capital":false},{"name":"Hadgāon","country":"IN","lat":19.4955,"lng":77.6586,"pop":27433,"capital":false},{"name":"Balussheri","country":"IN","lat":11.4474,"lng":75.8294,"pop":27363,"capital":false},{"name":"Nanminda","country":"IN","lat":11.4233,"lng":75.8231,"pop":27316,"capital":false},{"name":"Kattumannarkoil","country":"IN","lat":11.2763,"lng":79.5578,"pop":27294,"capital":false},{"name":"Kalamb","country":"IN","lat":19.0444,"lng":73.9555,"pop":27287,"capital":false},{"name":"Pāthardi","country":"IN","lat":19.1728,"lng":75.1743,"pop":27211,"capital":false},{"name":"Gadhinglaj","country":"IN","lat":16.2229,"lng":74.3501,"pop":27185,"capital":false},{"name":"Ayakudi","country":"IN","lat":10.4499,"lng":77.552,"pop":27156,"capital":false},{"name":"Perumpāvūr","country":"IN","lat":10.1154,"lng":76.4761,"pop":27105,"capital":false},{"name":"Afzalpur","country":"IN","lat":17.1999,"lng":76.3602,"pop":27088,"capital":false},{"name":"Tikkotti","country":"IN","lat":11.4833,"lng":75.6167,"pop":27051,"capital":false},{"name":"Gingee","country":"IN","lat":12.2528,"lng":79.4173,"pop":27045,"capital":false},{"name":"Bāgepalli","country":"IN","lat":13.7834,"lng":77.7967,"pop":27011,"capital":false},{"name":"Elamkunnapuzha","country":"IN","lat":10.0267,"lng":76.2223,"pop":26997,"capital":false},{"name":"Chengam","country":"IN","lat":12.3089,"lng":78.7914,"pop":26980,"capital":false},{"name":"Vadipatti","country":"IN","lat":10.0848,"lng":77.9611,"pop":26830,"capital":false},{"name":"Edacchēri","country":"IN","lat":11.6818,"lng":75.6248,"pop":26819,"capital":false},{"name":"Srīnivāspur","country":"IN","lat":13.3391,"lng":78.2118,"pop":26793,"capital":false},{"name":"Chāndur","country":"IN","lat":19.7344,"lng":79.1717,"pop":26755,"capital":false},{"name":"Indāpur","country":"IN","lat":18.3,"lng":73.25,"pop":26752,"capital":false},{"name":"Varappuzha","country":"IN","lat":10.0759,"lng":76.2715,"pop":26750,"capital":false},{"name":"Alattūr","country":"IN","lat":10.65,"lng":76.5333,"pop":26720,"capital":false},{"name":"Māmidālapādu","country":"IN","lat":15.8541,"lng":78.0148,"pop":26694,"capital":false},{"name":"Kūdligi","country":"IN","lat":14.905,"lng":76.3853,"pop":26680,"capital":false},{"name":"Kottur","country":"IN","lat":10.5365,"lng":76.9803,"pop":26627,"capital":false},{"name":"Sankarapatti","country":"IN","lat":10.0477,"lng":78.7472,"pop":26536,"capital":false},{"name":"Pallippatti","country":"IN","lat":11.9399,"lng":78.4016,"pop":26492,"capital":false},{"name":"Terdāl","country":"IN","lat":16.4938,"lng":75.0467,"pop":26411,"capital":false},{"name":"Murugampālaiyam","country":"IN","lat":11.0806,"lng":77.3238,"pop":26349,"capital":false},{"name":"Āyanchēri","country":"IN","lat":11.6261,"lng":75.6743,"pop":26293,"capital":false},{"name":"Kottūru","country":"IN","lat":14.8244,"lng":76.2201,"pop":26289,"capital":false},{"name":"Chinnalapatti","country":"IN","lat":10.2848,"lng":77.9233,"pop":26285,"capital":false},{"name":"Ongallur-II","country":"IN","lat":10.7897,"lng":76.219,"pop":26273,"capital":false},{"name":"Kūdlu","country":"IN","lat":12.5298,"lng":74.9788,"pop":26235,"capital":false},{"name":"Tekkalakote","country":"IN","lat":15.5344,"lng":76.877,"pop":26224,"capital":false},{"name":"Kodoli","country":"IN","lat":17.6702,"lng":74.0347,"pop":26106,"capital":false},{"name":"Renigunta","country":"IN","lat":13.6514,"lng":79.5126,"pop":26031,"capital":false},{"name":"Khoni","country":"IN","lat":19.3173,"lng":73.0597,"pop":26016,"capital":false},{"name":"Muttanampālaiyam","country":"IN","lat":11.0845,"lng":77.3969,"pop":26014,"capital":false},{"name":"Junnar","country":"IN","lat":19.2082,"lng":73.8752,"pop":25997,"capital":false},{"name":"Naduvannūr","country":"IN","lat":11.4877,"lng":75.7751,"pop":25979,"capital":false},{"name":"Krishnarājpet","country":"IN","lat":12.6662,"lng":76.4877,"pop":25946,"capital":false},{"name":"Mannachanallur","country":"IN","lat":10.9099,"lng":78.6993,"pop":25931,"capital":false},{"name":"Periyanayakkanpalaiyam","country":"IN","lat":11.1526,"lng":76.9516,"pop":25930,"capital":false},{"name":"Kuttikkāttūr","country":"IN","lat":11.2626,"lng":75.8796,"pop":25929,"capital":false},{"name":"Iringal","country":"IN","lat":11.5593,"lng":75.6166,"pop":25894,"capital":false},{"name":"Kāladi","country":"IN","lat":10.8194,"lng":76.0064,"pop":25872,"capital":false},{"name":"Ponmundam","country":"IN","lat":10.9536,"lng":75.9468,"pop":25855,"capital":false},{"name":"Gokarna","country":"IN","lat":14.55,"lng":74.3167,"pop":25851,"capital":false},{"name":"Koregaon","country":"IN","lat":18.6457,"lng":74.0591,"pop":25846,"capital":false},{"name":"Erannoli","country":"IN","lat":11.7691,"lng":75.5177,"pop":25818,"capital":false},{"name":"Kārkala","country":"IN","lat":13.2143,"lng":74.9923,"pop":25800,"capital":false},{"name":"Kuttippuram","country":"IN","lat":10.8425,"lng":76.0308,"pop":25750,"capital":false},{"name":"Kallam","country":"IN","lat":18.5751,"lng":76.0219,"pop":25713,"capital":false},{"name":"Irugūr","country":"IN","lat":11.0178,"lng":77.0629,"pop":25691,"capital":false},{"name":"Jevargi","country":"IN","lat":17.0139,"lng":76.7732,"pop":25686,"capital":false},{"name":"Mechcheri","country":"IN","lat":11.8341,"lng":77.9439,"pop":25676,"capital":false},{"name":"Wadgaon","country":"IN","lat":16.8355,"lng":74.3134,"pop":25651,"capital":false},{"name":"Balakrishnapuram","country":"IN","lat":10.3591,"lng":78.0026,"pop":25627,"capital":false},{"name":"Kamalāpuram","country":"IN","lat":15.3044,"lng":76.4765,"pop":25552,"capital":false},{"name":"Parangipettai","country":"IN","lat":11.4912,"lng":79.7605,"pop":25541,"capital":false},{"name":"Andipalayam","country":"IN","lat":11.0925,"lng":77.3123,"pop":25539,"capital":false},{"name":"Kakkanad","country":"IN","lat":10.0164,"lng":76.3417,"pop":25531,"capital":false},{"name":"Indāpur","country":"IN","lat":18.1153,"lng":75.0289,"pop":25515,"capital":false},{"name":"Talikkulam","country":"IN","lat":10.4404,"lng":76.0948,"pop":25507,"capital":false},{"name":"Harūr","country":"IN","lat":12.0527,"lng":78.4802,"pop":25469,"capital":false},{"name":"Bannūr","country":"IN","lat":12.333,"lng":76.862,"pop":25455,"capital":false},{"name":"Kuttampuzha","country":"IN","lat":10.1503,"lng":76.7354,"pop":25436,"capital":false},{"name":"Koothanallur","country":"IN","lat":10.7199,"lng":79.5157,"pop":25423,"capital":false},{"name":"Nīlēshwar","country":"IN","lat":12.2595,"lng":75.1352,"pop":25405,"capital":false},{"name":"Banganapalle","country":"IN","lat":15.3177,"lng":78.2267,"pop":25325,"capital":false},{"name":"Chitaguppa","country":"IN","lat":17.6974,"lng":77.2153,"pop":25298,"capital":false},{"name":"Kallūr Vadakummuri","country":"IN","lat":10.2532,"lng":76.3281,"pop":25259,"capital":false},{"name":"Azhikkōd","country":"IN","lat":11.9199,"lng":75.3355,"pop":25195,"capital":false},{"name":"Uttiramerūr","country":"IN","lat":12.6143,"lng":79.7575,"pop":25194,"capital":false},{"name":"Rājgurunagar","country":"IN","lat":18.8667,"lng":73.9,"pop":25146,"capital":false},{"name":"Pottaneri Nallakavundanpatti","country":"IN","lat":11.8039,"lng":77.8567,"pop":25133,"capital":false},{"name":"Thazhecode","country":"IN","lat":11.3226,"lng":75.9758,"pop":25116,"capital":false},{"name":"Chinna Salem","country":"IN","lat":11.6342,"lng":78.8741,"pop":25106,"capital":false},{"name":"Shrīrangapattana","country":"IN","lat":12.4226,"lng":76.6844,"pop":25061,"capital":false},{"name":"Kanigiri","country":"IN","lat":15.4056,"lng":79.5069,"pop":25045,"capital":false},{"name":"Velur","country":"IN","lat":11.1083,"lng":78.0011,"pop":25012,"capital":false},{"name":"Paramathi Velur","country":"IN","lat":11.1916,"lng":77.9563,"pop":25012,"capital":false},{"name":"Marayur","country":"IN","lat":10.2764,"lng":77.162,"pop":25000,"capital":false},{"name":"Shiraguppi","country":"IN","lat":16.6188,"lng":74.7091,"pop":25000,"capital":false},{"name":"Marutharōd","country":"IN","lat":10.7751,"lng":76.6995,"pop":24963,"capital":false},{"name":"Gajwel","country":"IN","lat":17.8482,"lng":78.6829,"pop":24961,"capital":false},{"name":"Devarshola","country":"IN","lat":11.5437,"lng":76.4404,"pop":24954,"capital":false},{"name":"Sakleshpur","country":"IN","lat":12.9412,"lng":75.7847,"pop":24931,"capital":false},{"name":"Perundurai","country":"IN","lat":11.2756,"lng":77.5879,"pop":24930,"capital":false},{"name":"Mundargi","country":"IN","lat":15.2068,"lng":75.8839,"pop":24919,"capital":false},{"name":"Kushtagi","country":"IN","lat":15.7562,"lng":76.1911,"pop":24878,"capital":false},{"name":"Vellalūr","country":"IN","lat":10.9775,"lng":77.026,"pop":24872,"capital":false},{"name":"Srīperumbūdūr","country":"IN","lat":12.9676,"lng":79.942,"pop":24864,"capital":false},{"name":"Muthutala","country":"IN","lat":10.8354,"lng":76.1596,"pop":24861,"capital":false},{"name":"Kandahār","country":"IN","lat":18.8731,"lng":77.1923,"pop":24843,"capital":false},{"name":"Avilala","country":"IN","lat":13.6111,"lng":79.4208,"pop":24839,"capital":false},{"name":"Ghoti Budrukh","country":"IN","lat":19.7164,"lng":73.6282,"pop":24838,"capital":false},{"name":"Brāhmana Periya Agrahāram","country":"IN","lat":11.369,"lng":77.7063,"pop":24798,"capital":false},{"name":"Thirunavaya","country":"IN","lat":10.8746,"lng":75.9855,"pop":24790,"capital":false},{"name":"Kalamnūri","country":"IN","lat":19.6739,"lng":77.3115,"pop":24784,"capital":false},{"name":"Tattānkuttai","country":"IN","lat":11.4352,"lng":77.7237,"pop":24708,"capital":false},{"name":"Koregaon","country":"IN","lat":17.6992,"lng":74.1625,"pop":24690,"capital":false},{"name":"Pākāla","country":"IN","lat":13.449,"lng":79.1149,"pop":24680,"capital":false},{"name":"Andol","country":"IN","lat":17.8146,"lng":78.0771,"pop":24645,"capital":false},{"name":"Navalgund","country":"IN","lat":15.5588,"lng":75.3531,"pop":24613,"capital":false},{"name":"Gorantla","country":"IN","lat":13.9841,"lng":77.7722,"pop":24586,"capital":false},{"name":"Pantheeramkavu","country":"IN","lat":11.2305,"lng":75.8518,"pop":24537,"capital":false},{"name":"Singāpur","country":"IN","lat":17.4698,"lng":78.1257,"pop":24457,"capital":false},{"name":"Thiruthuraipoondi","country":"IN","lat":10.5282,"lng":79.6327,"pop":24404,"capital":false},{"name":"Chiknāyakanhalli","country":"IN","lat":13.4161,"lng":76.6206,"pop":24292,"capital":false},{"name":"Denkanikota","country":"IN","lat":12.5301,"lng":77.7889,"pop":24252,"capital":false},{"name":"Chekkiād","country":"IN","lat":11.7173,"lng":75.6419,"pop":24246,"capital":false},{"name":"Haliyal","country":"IN","lat":15.3286,"lng":74.7564,"pop":24238,"capital":false},{"name":"Vilankurichi","country":"IN","lat":11.0715,"lng":77.0173,"pop":24235,"capital":false},{"name":"Srīsailain","country":"IN","lat":16.0722,"lng":78.8682,"pop":24142,"capital":false},{"name":"Loha","country":"IN","lat":18.9448,"lng":77.1155,"pop":24125,"capital":false},{"name":"Mhaswad","country":"IN","lat":17.6336,"lng":74.7877,"pop":24120,"capital":false},{"name":"Aluva","country":"IN","lat":10.1076,"lng":76.3516,"pop":24108,"capital":false},{"name":"Chettipālaiyam","country":"IN","lat":10.9125,"lng":77.037,"pop":24080,"capital":false},{"name":"Sōmēshvara","country":"IN","lat":12.8035,"lng":74.8647,"pop":24066,"capital":false},{"name":"Pāppākurichchi","country":"IN","lat":10.8137,"lng":78.7481,"pop":24023,"capital":false},{"name":"Karumāndi Chellipālaiyam","country":"IN","lat":11.3019,"lng":77.586,"pop":23868,"capital":false},{"name":"Sāvantvādi","country":"IN","lat":15.9041,"lng":73.8219,"pop":23851,"capital":false},{"name":"Vīrakeralam","country":"IN","lat":11.0077,"lng":76.9126,"pop":23841,"capital":false},{"name":"Sadalgi","country":"IN","lat":16.5587,"lng":74.5321,"pop":23790,"capital":false},{"name":"Narakal","country":"IN","lat":10.0383,"lng":76.2221,"pop":23760,"capital":false},{"name":"Lalgudi","country":"IN","lat":10.8742,"lng":78.8194,"pop":23740,"capital":false},{"name":"Ulundurpet","country":"IN","lat":11.691,"lng":79.2873,"pop":23734,"capital":false},{"name":"Muluppilagadu","country":"IN","lat":11.7979,"lng":75.4511,"pop":23709,"capital":false},{"name":"Alwaye","country":"IN","lat":10.1065,"lng":76.3548,"pop":23703,"capital":false},{"name":"Natham","country":"IN","lat":10.2278,"lng":78.2297,"pop":23660,"capital":false},{"name":"Chinnūr","country":"IN","lat":18.8578,"lng":79.7956,"pop":23579,"capital":false},{"name":"Mudkhed","country":"IN","lat":19.1566,"lng":77.503,"pop":23517,"capital":false},{"name":"Malpe","country":"IN","lat":13.3496,"lng":74.7039,"pop":23496,"capital":false},{"name":"Birūr","country":"IN","lat":13.5972,"lng":75.9717,"pop":23493,"capital":false},{"name":"Sevilimedu","country":"IN","lat":12.8083,"lng":79.6864,"pop":23454,"capital":false},{"name":"Tūnēri","country":"IN","lat":11.697,"lng":75.6349,"pop":23421,"capital":false},{"name":"Lonar","country":"IN","lat":19.9853,"lng":76.5205,"pop":23416,"capital":false},{"name":"Pugalūr","country":"IN","lat":11.074,"lng":78.021,"pop":23408,"capital":false},{"name":"Ron","country":"IN","lat":15.6994,"lng":75.7341,"pop":23311,"capital":false},{"name":"Vengattūr","country":"IN","lat":13.0999,"lng":79.9321,"pop":23292,"capital":false},{"name":"Marampilly","country":"IN","lat":10.1138,"lng":76.4418,"pop":23272,"capital":false},{"name":"Kērkandi","country":"IN","lat":11.3678,"lng":76.7458,"pop":23229,"capital":false},{"name":"Karmāla","country":"IN","lat":18.4077,"lng":75.1939,"pop":23199,"capital":false},{"name":"Tharangambadi","country":"IN","lat":11.0276,"lng":79.8542,"pop":23191,"capital":false},{"name":"Hinakallu","country":"IN","lat":12.3304,"lng":76.6021,"pop":23162,"capital":false},{"name":"Tiruverumbūr","country":"IN","lat":10.7937,"lng":78.769,"pop":23156,"capital":false},{"name":"Kudachi","country":"IN","lat":16.6278,"lng":74.8541,"pop":23154,"capital":false},{"name":"Kurduvādi","country":"IN","lat":18.0934,"lng":75.4157,"pop":23131,"capital":false},{"name":"Mattigiri","country":"IN","lat":12.698,"lng":77.8083,"pop":23129,"capital":false},{"name":"Narasingapuram","country":"IN","lat":11.6038,"lng":78.5778,"pop":23084,"capital":false},{"name":"Pallikonda","country":"IN","lat":12.9052,"lng":78.9427,"pop":23067,"capital":false},{"name":"Asifābād","country":"IN","lat":19.3585,"lng":79.2842,"pop":23059,"capital":false},{"name":"Pīpri","country":"IN","lat":19.7937,"lng":75.5352,"pop":23047,"capital":false},{"name":"Vadakkanandal","country":"IN","lat":11.7817,"lng":78.8354,"pop":23034,"capital":false},{"name":"Ancharakandy","country":"IN","lat":11.8841,"lng":75.485,"pop":23030,"capital":false},{"name":"Trikarpūr South","country":"IN","lat":12.1165,"lng":75.1852,"pop":22991,"capital":false},{"name":"Hukeri","country":"IN","lat":16.2308,"lng":74.6024,"pop":22988,"capital":false},{"name":"Tiruchanur","country":"IN","lat":13.6073,"lng":79.4486,"pop":22963,"capital":false},{"name":"Gopavaram","country":"IN","lat":14.7841,"lng":78.5729,"pop":22936,"capital":false},{"name":"Vattalkundu","country":"IN","lat":10.1607,"lng":77.7588,"pop":22928,"capital":false},{"name":"Tittagudi","country":"IN","lat":11.4072,"lng":79.1222,"pop":22894,"capital":false},{"name":"Kunnatnād","country":"IN","lat":10.0429,"lng":76.4241,"pop":22881,"capital":false},{"name":"Pariyāpuram","country":"IN","lat":11.0167,"lng":75.8667,"pop":22766,"capital":false},{"name":"Mudgal","country":"IN","lat":16.0119,"lng":76.442,"pop":22731,"capital":false},{"name":"Curchorem","country":"IN","lat":15.2635,"lng":74.1088,"pop":22730,"capital":false},{"name":"Kādiganpalli","country":"IN","lat":12.5232,"lng":78.2086,"pop":22714,"capital":false},{"name":"Ponda","country":"IN","lat":15.4034,"lng":74.0152,"pop":22664,"capital":false},{"name":"Cumbum","country":"IN","lat":15.5817,"lng":79.1106,"pop":22653,"capital":false},{"name":"Sholavandan","country":"IN","lat":10.0216,"lng":77.9609,"pop":22578,"capital":false},{"name":"Kurikuppi","country":"IN","lat":15.2176,"lng":76.6487,"pop":22560,"capital":false},{"name":"Ariyallur","country":"IN","lat":11.0833,"lng":75.849,"pop":22558,"capital":false},{"name":"Bankāpur","country":"IN","lat":14.923,"lng":75.2622,"pop":22529,"capital":false},{"name":"Godoli","country":"IN","lat":17.6718,"lng":74.0129,"pop":22517,"capital":false},{"name":"Belūr","country":"IN","lat":13.1656,"lng":75.8652,"pop":22484,"capital":false},{"name":"Senapparetti","country":"IN","lat":10.9625,"lng":78.1132,"pop":22447,"capital":false},{"name":"Kurandvād","country":"IN","lat":16.6832,"lng":74.5889,"pop":22372,"capital":false},{"name":"Pachgaon","country":"IN","lat":16.6602,"lng":74.2274,"pop":22353,"capital":false},{"name":"Rahata","country":"IN","lat":19.7166,"lng":74.4811,"pop":22335,"capital":false},{"name":"Panniyannūr","country":"IN","lat":11.7486,"lng":75.5756,"pop":22308,"capital":false},{"name":"Ankola","country":"IN","lat":14.6605,"lng":74.3047,"pop":22249,"capital":false},{"name":"Dasnapur","country":"IN","lat":19.654,"lng":78.5121,"pop":22216,"capital":false},{"name":"Nilakottai","country":"IN","lat":10.165,"lng":77.8502,"pop":22197,"capital":false},{"name":"Palavansathu","country":"IN","lat":12.8931,"lng":79.1345,"pop":22176,"capital":false},{"name":"Someshwar","country":"IN","lat":13.4911,"lng":75.0665,"pop":22137,"capital":false},{"name":"Nāmagiripettai","country":"IN","lat":11.4551,"lng":78.2682,"pop":22098,"capital":false},{"name":"Peravurani","country":"IN","lat":10.2904,"lng":79.2016,"pop":22084,"capital":false},{"name":"Kizhuparamba","country":"IN","lat":11.2526,"lng":76.0244,"pop":22062,"capital":false},{"name":"Marakkanam","country":"IN","lat":12.1921,"lng":79.9419,"pop":22034,"capital":false},{"name":"Kuppam","country":"IN","lat":12.7493,"lng":78.3419,"pop":21963,"capital":false},{"name":"Kīl Bhuvanagiri","country":"IN","lat":11.4422,"lng":79.6476,"pop":21956,"capital":false},{"name":"Karuvanthuruthy","country":"IN","lat":11.1721,"lng":75.8226,"pop":21952,"capital":false},{"name":"Kollivāyal","country":"IN","lat":11.4998,"lng":76.4815,"pop":21943,"capital":false},{"name":"Sancoale","country":"IN","lat":15.3779,"lng":73.9035,"pop":21923,"capital":false},{"name":"Ghulewadi","country":"IN","lat":19.6031,"lng":74.1936,"pop":21860,"capital":false},{"name":"Mulavukad","country":"IN","lat":10.0136,"lng":76.2631,"pop":21833,"capital":false},{"name":"Mangalvedha","country":"IN","lat":17.5105,"lng":75.4471,"pop":21824,"capital":false},{"name":"Māniyūr","country":"IN","lat":11.5522,"lng":75.6503,"pop":21820,"capital":false},{"name":"Muthupet","country":"IN","lat":10.3951,"lng":79.4935,"pop":21722,"capital":false},{"name":"Munderi","country":"IN","lat":11.9303,"lng":75.4455,"pop":21676,"capital":false},{"name":"Tammampatti","country":"IN","lat":11.4413,"lng":78.4887,"pop":21503,"capital":false},{"name":"Srisailam Project RFC Township","country":"IN","lat":16.0733,"lng":78.8741,"pop":21452,"capital":false},{"name":"Guruvāyūr","country":"IN","lat":10.5943,"lng":76.0411,"pop":21416,"capital":false},{"name":"Kondasamudram","country":"IN","lat":12.9455,"lng":78.8788,"pop":21335,"capital":false},{"name":"Channagiri","country":"IN","lat":14.024,"lng":75.9258,"pop":21313,"capital":false},{"name":"Naduvattam","country":"IN","lat":10.8799,"lng":76.002,"pop":21273,"capital":false},{"name":"Kottappally","country":"IN","lat":11.6127,"lng":75.6614,"pop":21169,"capital":false},{"name":"Anthiyur","country":"IN","lat":11.5751,"lng":77.5904,"pop":21086,"capital":false},{"name":"Perinjanam","country":"IN","lat":10.3133,"lng":76.1485,"pop":21012,"capital":false},{"name":"Pālakkodu","country":"IN","lat":12.307,"lng":78.0702,"pop":20959,"capital":false},{"name":"Chelora","country":"IN","lat":11.8949,"lng":75.4396,"pop":20952,"capital":false},{"name":"Vinnamāla","country":"IN","lat":13.9074,"lng":79.9086,"pop":20924,"capital":false},{"name":"Chincholi","country":"IN","lat":17.4651,"lng":77.4187,"pop":20897,"capital":false},{"name":"Hungund","country":"IN","lat":16.0621,"lng":76.0586,"pop":20877,"capital":false},{"name":"Sālamedu","country":"IN","lat":11.9088,"lng":79.4919,"pop":20854,"capital":false},{"name":"Alībāg","country":"IN","lat":18.6481,"lng":72.8758,"pop":20752,"capital":false},{"name":"Achampet","country":"IN","lat":16.3982,"lng":78.6376,"pop":20721,"capital":false},{"name":"Koduvayur","country":"IN","lat":10.6867,"lng":76.6588,"pop":20703,"capital":false},{"name":"Sāmalāpuram","country":"IN","lat":11.0724,"lng":77.198,"pop":20691,"capital":false},{"name":"koppana Agrahara","country":"IN","lat":12.8551,"lng":77.6671,"pop":20622,"capital":false},{"name":"Madattukkulam","country":"IN","lat":10.5587,"lng":77.366,"pop":20620,"capital":false},{"name":"Gurmatkāl","country":"IN","lat":16.8677,"lng":77.3909,"pop":20614,"capital":false},{"name":"Patuvilāyi","country":"IN","lat":11.8656,"lng":75.5233,"pop":20598,"capital":false},{"name":"Vadakakarai","country":"IN","lat":10.1664,"lng":76.2018,"pop":20571,"capital":false},{"name":"Vasind","country":"IN","lat":19.4084,"lng":73.2629,"pop":20561,"capital":false},{"name":"Attibele","country":"IN","lat":12.7781,"lng":77.7726,"pop":20532,"capital":false},{"name":"Yellāpur","country":"IN","lat":14.9637,"lng":74.7093,"pop":20452,"capital":false},{"name":"Keevallur","country":"IN","lat":11.897,"lng":75.531,"pop":20440,"capital":false},{"name":"Korochi","country":"IN","lat":16.7192,"lng":74.4451,"pop":20420,"capital":false},{"name":"Dhārūr","country":"IN","lat":18.8202,"lng":76.1094,"pop":20417,"capital":false},{"name":"Pariyāram","country":"IN","lat":12.0588,"lng":75.3248,"pop":20405,"capital":false},{"name":"French Rocks","country":"IN","lat":12.5009,"lng":76.6742,"pop":20399,"capital":false},{"name":"Edavilangu","country":"IN","lat":10.2403,"lng":76.171,"pop":20363,"capital":false},{"name":"Killannur","country":"IN","lat":10.5992,"lng":76.218,"pop":20339,"capital":false},{"name":"Byndoor","country":"IN","lat":13.8667,"lng":74.6333,"pop":20323,"capital":false},{"name":"Kondalampatti","country":"IN","lat":11.6345,"lng":78.1237,"pop":20318,"capital":false},{"name":"Ālampālaiyam","country":"IN","lat":11.3635,"lng":77.7677,"pop":20286,"capital":false},{"name":"Wellington","country":"IN","lat":11.3655,"lng":76.7844,"pop":20254,"capital":false},{"name":"Waluj Buzurg","country":"IN","lat":19.7963,"lng":75.2265,"pop":20220,"capital":false},{"name":"Penukonda","country":"IN","lat":14.0829,"lng":77.5947,"pop":20220,"capital":false},{"name":"Puliyankannu","country":"IN","lat":12.9392,"lng":79.3079,"pop":20171,"capital":false},{"name":"Pāttyam","country":"IN","lat":11.793,"lng":75.5641,"pop":20161,"capital":false},{"name":"Pudussery West","country":"IN","lat":10.788,"lng":76.7279,"pop":20140,"capital":false},{"name":"Chinnavādampatti","country":"IN","lat":11.0615,"lng":76.9838,"pop":20122,"capital":false},{"name":"Sūleswaranpatti","country":"IN","lat":10.6389,"lng":77.0084,"pop":20104,"capital":false},{"name":"Annur","country":"IN","lat":11.2362,"lng":77.1051,"pop":20079,"capital":false},{"name":"Sirumugai","country":"IN","lat":11.3214,"lng":77.0052,"pop":20066,"capital":false},{"name":"Singānuram","country":"IN","lat":18.8222,"lng":79.5017,"pop":20061,"capital":false},{"name":"Pāmūru","country":"IN","lat":15.0963,"lng":79.4117,"pop":20000,"capital":false},{"name":"Powai","country":"IN","lat":19.1164,"lng":72.9047,"pop":20000,"capital":false},{"name":"Sullya","country":"IN","lat":12.561,"lng":75.3874,"pop":19958,"capital":false},{"name":"L.A.Sagaram","country":"IN","lat":13.9034,"lng":79.8906,"pop":19904,"capital":false},{"name":"Nattappettai","country":"IN","lat":12.8187,"lng":79.7493,"pop":19883,"capital":false},{"name":"Aurād","country":"IN","lat":18.254,"lng":77.4176,"pop":19849,"capital":false},{"name":"Kalinjur","country":"IN","lat":12.9534,"lng":79.1337,"pop":19828,"capital":false},{"name":"Chetput","country":"IN","lat":12.464,"lng":79.3484,"pop":19827,"capital":false},{"name":"Kolavallúr","country":"IN","lat":11.7507,"lng":75.6199,"pop":19817,"capital":false},{"name":"Chinna Āndānkovil","country":"IN","lat":10.9511,"lng":78.0681,"pop":19779,"capital":false},{"name":"Kannānkurichchi","country":"IN","lat":11.6969,"lng":78.1794,"pop":19765,"capital":false},{"name":"Ghatkesar","country":"IN","lat":17.4508,"lng":78.6837,"pop":19763,"capital":false},{"name":"Sendamangalam","country":"IN","lat":11.2811,"lng":78.2342,"pop":19750,"capital":false},{"name":"Kerūr","country":"IN","lat":16.0138,"lng":75.5463,"pop":19731,"capital":false},{"name":"Mokēri","country":"IN","lat":11.7776,"lng":75.5731,"pop":19684,"capital":false},{"name":"Srīrāmnagar","country":"IN","lat":17.2665,"lng":78.2554,"pop":19550,"capital":false},{"name":"Pennādam","country":"IN","lat":11.4039,"lng":79.2416,"pop":19494,"capital":false},{"name":"Rameswaram","country":"IN","lat":14.7401,"lng":78.5426,"pop":19483,"capital":false},{"name":"Punnayūr","country":"IN","lat":10.6521,"lng":75.9951,"pop":19387,"capital":false},{"name":"Konnūr","country":"IN","lat":16.2014,"lng":74.7489,"pop":19386,"capital":false},{"name":"Jalochi","country":"IN","lat":18.1566,"lng":74.6071,"pop":19346,"capital":false},{"name":"Mangalam","country":"IN","lat":13.6575,"lng":79.4626,"pop":19318,"capital":false},{"name":"Khānāpur","country":"IN","lat":15.6397,"lng":74.5085,"pop":19309,"capital":false},{"name":"Devadanapatti","country":"IN","lat":10.1467,"lng":77.6439,"pop":19285,"capital":false},{"name":"Ezhome","country":"IN","lat":12.03,"lng":75.2819,"pop":19261,"capital":false},{"name":"Ammainaickanur","country":"IN","lat":10.1671,"lng":77.9132,"pop":19257,"capital":false},{"name":"Hirekerūr","country":"IN","lat":14.4551,"lng":75.3952,"pop":19191,"capital":false},{"name":"Kōttayam","country":"IN","lat":11.8252,"lng":75.5478,"pop":19176,"capital":false},{"name":"Kadikkād","country":"IN","lat":10.6705,"lng":75.9798,"pop":19147,"capital":false},{"name":"Honnavar","country":"IN","lat":14.2809,"lng":74.445,"pop":19109,"capital":false},{"name":"Torūr","country":"IN","lat":17.5835,"lng":79.6586,"pop":19100,"capital":false},{"name":"Chautāpal","country":"IN","lat":17.258,"lng":78.8978,"pop":19092,"capital":false},{"name":"Kothakota","country":"IN","lat":16.38,"lng":77.94,"pop":19042,"capital":false},{"name":"Bhor","country":"IN","lat":18.1486,"lng":73.8434,"pop":18982,"capital":false},{"name":"Kadachira","country":"IN","lat":11.837,"lng":75.449,"pop":18979,"capital":false},{"name":"Punjai Puliyampatti","country":"IN","lat":11.3516,"lng":77.1667,"pop":18967,"capital":false},{"name":"Kunnimangalam","country":"IN","lat":12.0735,"lng":75.2412,"pop":18965,"capital":false},{"name":"Mulgund","country":"IN","lat":15.2807,"lng":75.5213,"pop":18928,"capital":false},{"name":"Somandepalle","country":"IN","lat":14.0077,"lng":77.6085,"pop":18895,"capital":false},{"name":"Martūru","country":"IN","lat":10.1717,"lng":76.4264,"pop":18890,"capital":false},{"name":"Manchar","country":"IN","lat":19.0044,"lng":73.9435,"pop":18876,"capital":false},{"name":"Mundgod","country":"IN","lat":14.9714,"lng":75.0366,"pop":18866,"capital":false},{"name":"Mālvan","country":"IN","lat":16.0598,"lng":73.4629,"pop":18858,"capital":false},{"name":"Tādikombu","country":"IN","lat":10.439,"lng":77.9546,"pop":18838,"capital":false},{"name":"Mallasamudram","country":"IN","lat":11.4933,"lng":78.0312,"pop":18820,"capital":false},{"name":"Paranda","country":"IN","lat":18.2632,"lng":75.4632,"pop":18758,"capital":false},{"name":"Rakkiyapālaiyam","country":"IN","lat":11.1061,"lng":76.9425,"pop":18749,"capital":false},{"name":"Kammivapettai","country":"IN","lat":11.753,"lng":79.7457,"pop":18745,"capital":false},{"name":"Raybag","country":"IN","lat":16.4918,"lng":74.7739,"pop":18736,"capital":false},{"name":"Kundgol","country":"IN","lat":15.2561,"lng":75.2474,"pop":18726,"capital":false},{"name":"Murbād","country":"IN","lat":19.254,"lng":73.3899,"pop":18725,"capital":false},{"name":"Lonand","country":"IN","lat":18.0404,"lng":74.1872,"pop":18723,"capital":false},{"name":"Kurumathur","country":"IN","lat":12.0397,"lng":75.4114,"pop":18641,"capital":false},{"name":"Mangattidam","country":"IN","lat":11.8433,"lng":75.5437,"pop":18627,"capital":false},{"name":"Tyāgadurgam","country":"IN","lat":11.7411,"lng":79.077,"pop":18605,"capital":false},{"name":"Bhoom","country":"IN","lat":18.4591,"lng":75.6588,"pop":18561,"capital":false},{"name":"Jogipet","country":"IN","lat":17.8356,"lng":78.0681,"pop":18494,"capital":false},{"name":"Ūttangarai","country":"IN","lat":12.2671,"lng":78.5378,"pop":18470,"capital":false},{"name":"Kannapuram","country":"IN","lat":11.9843,"lng":75.3041,"pop":18459,"capital":false},{"name":"Pottanūr","country":"IN","lat":11.1098,"lng":77.9888,"pop":18455,"capital":false},{"name":"Gubbi","country":"IN","lat":13.3122,"lng":76.941,"pop":18446,"capital":false},{"name":"Neral","country":"IN","lat":19.0248,"lng":73.3169,"pop":18429,"capital":false},{"name":"Moram","country":"IN","lat":17.7881,"lng":76.4708,"pop":18371,"capital":false},{"name":"Vāzhakulam","country":"IN","lat":10.0938,"lng":76.4198,"pop":18358,"capital":false},{"name":"Naldurg","country":"IN","lat":17.8167,"lng":76.2818,"pop":18341,"capital":false},{"name":"Alangāyam","country":"IN","lat":12.6224,"lng":78.7521,"pop":18327,"capital":false},{"name":"Hutagalli","country":"IN","lat":12.3417,"lng":76.5863,"pop":18308,"capital":false},{"name":"Vengikkal","country":"IN","lat":12.2642,"lng":79.0674,"pop":18244,"capital":false},{"name":"Trikarpūr North","country":"IN","lat":12.1458,"lng":75.1748,"pop":18210,"capital":false},{"name":"Pasthal","country":"IN","lat":19.8202,"lng":72.7296,"pop":18194,"capital":false},{"name":"Singampunari","country":"IN","lat":10.1862,"lng":78.415,"pop":18143,"capital":false},{"name":"Palayad","country":"IN","lat":11.5505,"lng":75.6289,"pop":18141,"capital":false},{"name":"Vettaikkaranpudur","country":"IN","lat":10.5621,"lng":76.9131,"pop":18128,"capital":false},{"name":"Koipādi","country":"IN","lat":12.593,"lng":74.9626,"pop":18121,"capital":false},{"name":"Māchai","country":"IN","lat":15.7926,"lng":74.4841,"pop":18073,"capital":false},{"name":"Namminikara","country":"IN","lat":10.4322,"lng":76.2542,"pop":18067,"capital":false},{"name":"Aurangabad Cantonment","country":"IN","lat":19.8761,"lng":75.2916,"pop":18051,"capital":false},{"name":"Kunnummal","country":"IN","lat":11.6832,"lng":75.7108,"pop":18031,"capital":false},{"name":"Kattur","country":"IN","lat":10.3732,"lng":76.1668,"pop":18017,"capital":false},{"name":"Vadamadurai","country":"IN","lat":10.4408,"lng":78.0978,"pop":18015,"capital":false},{"name":"Tirumala","country":"IN","lat":13.6833,"lng":79.35,"pop":18013,"capital":false},{"name":"Patiriyat","country":"IN","lat":11.849,"lng":75.5147,"pop":18008,"capital":false},{"name":"Satyāmangala","country":"IN","lat":13.0193,"lng":76.1243,"pop":18002,"capital":false},{"name":"Jadcherla","country":"IN","lat":16.7738,"lng":78.1367,"pop":17958,"capital":false},{"name":"Murudeshwara","country":"IN","lat":14.0943,"lng":74.4845,"pop":17938,"capital":false},{"name":"Nāteputa","country":"IN","lat":17.899,"lng":74.7522,"pop":17930,"capital":false},{"name":"Honnāli","country":"IN","lat":14.2398,"lng":75.6451,"pop":17928,"capital":false},{"name":"Pudunagaram","country":"IN","lat":10.6802,"lng":76.6836,"pop":17892,"capital":false},{"name":"Vadlapūdi","country":"IN","lat":14.3112,"lng":79.8043,"pop":17881,"capital":false},{"name":"Piranvādi","country":"IN","lat":15.802,"lng":74.4801,"pop":17874,"capital":false},{"name":"V.S.K.Valasai (Dindigul-Dist.)","country":"IN","lat":10.3155,"lng":78.1514,"pop":17865,"capital":false},{"name":"Avalēpalli","country":"IN","lat":12.7714,"lng":77.8594,"pop":17859,"capital":false},{"name":"Narasimhanaickenpalayam","country":"IN","lat":11.1173,"lng":76.9363,"pop":17858,"capital":false},{"name":"Adiyanuthu","country":"IN","lat":10.3308,"lng":77.9812,"pop":17851,"capital":false},{"name":"Sīlappādi","country":"IN","lat":10.394,"lng":78.0078,"pop":17824,"capital":false},{"name":"Kulattuppālaiyam","country":"IN","lat":10.7613,"lng":77.5843,"pop":17819,"capital":false},{"name":"Rāmachettipālaiyam","country":"IN","lat":10.9582,"lng":76.9201,"pop":17809,"capital":false},{"name":"Bilgi","country":"IN","lat":16.3471,"lng":75.618,"pop":17792,"capital":false},{"name":"Nāgamangala","country":"IN","lat":12.8194,"lng":76.7546,"pop":17776,"capital":false},{"name":"Manalur","country":"IN","lat":10.4929,"lng":76.1027,"pop":17757,"capital":false},{"name":"Chettināyakkanpatti","country":"IN","lat":10.394,"lng":77.9754,"pop":17701,"capital":false},{"name":"Mangalam","country":"IN","lat":11.1005,"lng":77.2712,"pop":17699,"capital":false},{"name":"Peddanāyakkanpālaiyam","country":"IN","lat":11.651,"lng":78.5087,"pop":17678,"capital":false},{"name":"Rahimatpur","country":"IN","lat":17.5921,"lng":74.1997,"pop":17633,"capital":false},{"name":"Nangavaram","country":"IN","lat":10.8692,"lng":78.5392,"pop":17629,"capital":false},{"name":"Vittal","country":"IN","lat":12.7633,"lng":75.099,"pop":17618,"capital":false},{"name":"Koratti","country":"IN","lat":10.266,"lng":76.3477,"pop":17618,"capital":false},{"name":"Shirhatti","country":"IN","lat":15.2335,"lng":75.58,"pop":17610,"capital":false},{"name":"Vazhapadi","country":"IN","lat":11.6554,"lng":78.4012,"pop":17559,"capital":false},{"name":"Papanasam","country":"IN","lat":10.9269,"lng":79.2706,"pop":17548,"capital":false},{"name":"Kodoli","country":"IN","lat":16.8764,"lng":74.1909,"pop":17537,"capital":false},{"name":"Pennāgaram","country":"IN","lat":12.1343,"lng":77.8953,"pop":17480,"capital":false},{"name":"Kallūr Tekkumuri","country":"IN","lat":10.2401,"lng":76.3236,"pop":17480,"capital":false},{"name":"Calangute","country":"IN","lat":15.5439,"lng":73.7553,"pop":17446,"capital":false},{"name":"Panoor","country":"IN","lat":11.7594,"lng":75.5784,"pop":17438,"capital":false},{"name":"Puthūr","country":"IN","lat":10.4874,"lng":76.2793,"pop":17430,"capital":false},{"name":"Naregal","country":"IN","lat":15.5732,"lng":75.8081,"pop":17403,"capital":false},{"name":"Periyakottai","country":"IN","lat":10.591,"lng":77.2797,"pop":17356,"capital":false},{"name":"Edakkazhiyūr","country":"IN","lat":10.6228,"lng":75.9965,"pop":17335,"capital":false},{"name":"Sivagirippatti","country":"IN","lat":10.4502,"lng":77.5304,"pop":17306,"capital":false},{"name":"Mūlki","country":"IN","lat":13.091,"lng":74.7935,"pop":17274,"capital":false},{"name":"Mannarai","country":"IN","lat":11.1172,"lng":77.3726,"pop":17261,"capital":false},{"name":"Jagalūr","country":"IN","lat":14.5196,"lng":76.3392,"pop":17257,"capital":false},{"name":"Ajara","country":"IN","lat":16.116,"lng":74.211,"pop":17257,"capital":false},{"name":"Bhikshāndārkovil","country":"IN","lat":10.8827,"lng":78.7046,"pop":17257,"capital":false},{"name":"Palangarai","country":"IN","lat":11.1978,"lng":77.3058,"pop":17248,"capital":false},{"name":"Virajpet","country":"IN","lat":12.1964,"lng":75.8051,"pop":17246,"capital":false},{"name":"Pudūr","country":"IN","lat":11.436,"lng":77.676,"pop":17240,"capital":false},{"name":"Irivēri","country":"IN","lat":11.8559,"lng":75.4736,"pop":17231,"capital":false},{"name":"Alnāvar","country":"IN","lat":15.4273,"lng":74.7411,"pop":17228,"capital":false},{"name":"Anaimalai","country":"IN","lat":10.583,"lng":76.9344,"pop":17208,"capital":false},{"name":"Taleigao","country":"IN","lat":15.4692,"lng":73.8328,"pop":17148,"capital":false},{"name":"Ayyalur","country":"IN","lat":10.4819,"lng":78.1564,"pop":17100,"capital":false},{"name":"Kolaccheri","country":"IN","lat":11.9763,"lng":75.4167,"pop":17095,"capital":false},{"name":"Chālakilakākara","country":"IN","lat":11.854,"lng":75.4387,"pop":17088,"capital":false},{"name":"Shaktinagar","country":"IN","lat":16.3649,"lng":77.3586,"pop":17088,"capital":false},{"name":"Jigani","country":"IN","lat":12.7861,"lng":77.6386,"pop":17036,"capital":false},{"name":"Eravattūr","country":"IN","lat":11.5801,"lng":75.7384,"pop":17016,"capital":false},{"name":"Varam","country":"IN","lat":11.8996,"lng":75.4132,"pop":17008,"capital":false},{"name":"Ongallur-I","country":"IN","lat":10.8027,"lng":76.2185,"pop":16998,"capital":false},{"name":"Bicholim","country":"IN","lat":15.5932,"lng":73.9457,"pop":16986,"capital":false},{"name":"Kalghatgi","country":"IN","lat":15.1832,"lng":74.971,"pop":16917,"capital":false},{"name":"Eruvatti","country":"IN","lat":11.8062,"lng":75.5302,"pop":16905,"capital":false},{"name":"Khed","country":"IN","lat":17.7189,"lng":73.3969,"pop":16892,"capital":false},{"name":"Sirālkoppa","country":"IN","lat":14.3807,"lng":75.2501,"pop":16864,"capital":false},{"name":"Chelamartam","country":"IN","lat":10.1371,"lng":76.457,"pop":16844,"capital":false},{"name":"Peralassery","country":"IN","lat":11.8322,"lng":75.4825,"pop":16821,"capital":false},{"name":"Arkalgūd","country":"IN","lat":12.7617,"lng":76.0604,"pop":16810,"capital":false},{"name":"Pinarāyi","country":"IN","lat":11.8049,"lng":75.481,"pop":16801,"capital":false},{"name":"Pāchchal","country":"IN","lat":12.5112,"lng":78.5552,"pop":16789,"capital":false},{"name":"Navalpattu","country":"IN","lat":10.7505,"lng":78.7763,"pop":16788,"capital":false},{"name":"Sivagiri","country":"IN","lat":11.1203,"lng":77.7881,"pop":16779,"capital":false},{"name":"Porathissery","country":"IN","lat":10.3764,"lng":76.2015,"pop":16768,"capital":false},{"name":"Vallam","country":"IN","lat":10.7199,"lng":79.0598,"pop":16758,"capital":false},{"name":"Vāda","country":"IN","lat":19.6535,"lng":73.1481,"pop":16750,"capital":false},{"name":"Valavanur","country":"IN","lat":11.9209,"lng":79.5824,"pop":16745,"capital":false},{"name":"Chanaje","country":"IN","lat":18.8613,"lng":72.9526,"pop":16714,"capital":false},{"name":"Thorapadi","country":"IN","lat":12.8915,"lng":79.1238,"pop":16700,"capital":false},{"name":"Piriyāpatna","country":"IN","lat":12.335,"lng":76.1007,"pop":16685,"capital":false},{"name":"Vīrnūr","country":"IN","lat":11.8443,"lng":77.8473,"pop":16665,"capital":false},{"name":"Pudusseri","country":"IN","lat":10.7582,"lng":76.7859,"pop":16629,"capital":false},{"name":"Cuncolim","country":"IN","lat":15.1773,"lng":73.9939,"pop":16623,"capital":false},{"name":"Lālpettai","country":"IN","lat":11.3009,"lng":79.5561,"pop":16561,"capital":false},{"name":"Jāmbai","country":"IN","lat":11.4678,"lng":77.6434,"pop":16522,"capital":false},{"name":"Kōtekāra","country":"IN","lat":12.7929,"lng":74.8722,"pop":16505,"capital":false},{"name":"Sundakkāmpālaiyam","country":"IN","lat":10.5666,"lng":77.2135,"pop":16459,"capital":false},{"name":"Sindkhed Raja","country":"IN","lat":19.9536,"lng":76.1264,"pop":16434,"capital":false},{"name":"Chendrappini","country":"IN","lat":10.3555,"lng":76.1282,"pop":16404,"capital":false},{"name":"Kankauli","country":"IN","lat":16.2661,"lng":73.7122,"pop":16398,"capital":false},{"name":"Curti","country":"IN","lat":15.4167,"lng":74.0167,"pop":16385,"capital":false},{"name":"Nambiyūr","country":"IN","lat":11.3581,"lng":77.3212,"pop":16379,"capital":false},{"name":"Bargūr","country":"IN","lat":12.5429,"lng":78.3574,"pop":16366,"capital":false},{"name":"Ūttukuli","country":"IN","lat":10.6519,"lng":76.9778,"pop":16354,"capital":false},{"name":"Kadamakudi","country":"IN","lat":10.0642,"lng":76.2457,"pop":16295,"capital":false},{"name":"Annāmalainagar","country":"IN","lat":11.4,"lng":79.7333,"pop":16289,"capital":false},{"name":"Omalur","country":"IN","lat":11.741,"lng":78.0456,"pop":16279,"capital":false},{"name":"Hatti","country":"IN","lat":16.1984,"lng":76.6604,"pop":16278,"capital":false},{"name":"Chennimalai","country":"IN","lat":11.1638,"lng":77.6039,"pop":16268,"capital":false},{"name":"Madukkūr","country":"IN","lat":10.481,"lng":79.3994,"pop":16266,"capital":false},{"name":"Ayyampettāi","country":"IN","lat":10.9014,"lng":79.1798,"pop":16263,"capital":false},{"name":"Thimiri","country":"IN","lat":12.8283,"lng":79.3079,"pop":16246,"capital":false},{"name":"Ellakkudi","country":"IN","lat":10.806,"lng":78.7503,"pop":16244,"capital":false},{"name":"Neelagiri","country":"IN","lat":10.7594,"lng":79.0934,"pop":16197,"capital":false},{"name":"Jalakandapuram","country":"IN","lat":11.6978,"lng":77.873,"pop":16184,"capital":false},{"name":"Thiruvaiyaru","country":"IN","lat":10.8841,"lng":79.1036,"pop":16164,"capital":false},{"name":"Elandakuttai","country":"IN","lat":11.406,"lng":77.775,"pop":16160,"capital":false},{"name":"Kuthalam","country":"IN","lat":11.0743,"lng":79.5622,"pop":16125,"capital":false},{"name":"Cherukunnu","country":"IN","lat":11.9956,"lng":75.2872,"pop":16111,"capital":false},{"name":"Chevvoor","country":"IN","lat":10.4586,"lng":76.2088,"pop":16086,"capital":false},{"name":"Vāniyamkulam","country":"IN","lat":10.783,"lng":76.3336,"pop":16085,"capital":false},{"name":"Kandamkunnu","country":"IN","lat":11.8695,"lng":75.5808,"pop":16025,"capital":false},{"name":"Kudāl","country":"IN","lat":16.0115,"lng":73.6887,"pop":16015,"capital":false},{"name":"Utnūr","country":"IN","lat":19.368,"lng":78.7761,"pop":16005,"capital":false},{"name":"Vellakkinar","country":"IN","lat":11.0736,"lng":76.9566,"pop":15998,"capital":false},{"name":"Koothappar","country":"IN","lat":10.7971,"lng":78.7923,"pop":15943,"capital":false},{"name":"Vijayapuri North","country":"IN","lat":16.5853,"lng":79.3205,"pop":15887,"capital":false},{"name":"Kannampālaiyam","country":"IN","lat":10.9954,"lng":77.099,"pop":15868,"capital":false},{"name":"Marattakara","country":"IN","lat":10.4733,"lng":76.2558,"pop":15817,"capital":false},{"name":"Vadakkēkkād","country":"IN","lat":10.6635,"lng":76.0033,"pop":15811,"capital":false},{"name":"Molakālumuru","country":"IN","lat":14.7178,"lng":76.7468,"pop":15797,"capital":false},{"name":"Holalkere","country":"IN","lat":14.043,"lng":76.185,"pop":15783,"capital":false},{"name":"Mennānyam","country":"IN","lat":11.5579,"lng":75.7596,"pop":15768,"capital":false},{"name":"Sonpet","country":"IN","lat":19.0259,"lng":76.4739,"pop":15765,"capital":false},{"name":"Bhudgaon","country":"IN","lat":16.9074,"lng":74.5995,"pop":15738,"capital":false},{"name":"Dāpoli","country":"IN","lat":17.7593,"lng":73.1882,"pop":15713,"capital":false},{"name":"Kumārapālaiyam","country":"IN","lat":11.5021,"lng":77.2555,"pop":15706,"capital":false},{"name":"Periyapatti","country":"IN","lat":11.2052,"lng":78.1512,"pop":15690,"capital":false},{"name":"Yamjāl","country":"IN","lat":17.2694,"lng":78.5767,"pop":15689,"capital":false},{"name":"Vadakāncheri","country":"IN","lat":10.6604,"lng":76.2466,"pop":15674,"capital":false},{"name":"Manaveli","country":"IN","lat":11.8909,"lng":79.8104,"pop":15666,"capital":false},{"name":"Manthani","country":"IN","lat":18.6509,"lng":79.665,"pop":15661,"capital":false},{"name":"Panangad","country":"IN","lat":10.2728,"lng":76.1748,"pop":15630,"capital":false},{"name":"Kamatgi","country":"IN","lat":16.0779,"lng":75.8132,"pop":15620,"capital":false},{"name":"Maval","country":"IN","lat":18.7553,"lng":73.4443,"pop":15612,"capital":false},{"name":"Kasāra","country":"IN","lat":19.6451,"lng":73.4743,"pop":15611,"capital":false},{"name":"Nārāyankher","country":"IN","lat":18.0341,"lng":77.7728,"pop":15610,"capital":false},{"name":"Agaram","country":"IN","lat":10.4433,"lng":77.9485,"pop":15610,"capital":false},{"name":"Salangaippālaiyam","country":"IN","lat":11.426,"lng":77.5707,"pop":15609,"capital":false},{"name":"Chengala","country":"IN","lat":12.4984,"lng":75.0503,"pop":15588,"capital":false},{"name":"Kompalli","country":"IN","lat":17.545,"lng":78.4884,"pop":15575,"capital":false},{"name":"Kalher","country":"IN","lat":19.2472,"lng":73.0152,"pop":15573,"capital":false},{"name":"Vettavalam","country":"IN","lat":12.1077,"lng":79.2452,"pop":15506,"capital":false},{"name":"Kosigi","country":"IN","lat":15.8551,"lng":77.2446,"pop":15455,"capital":false},{"name":"Tindal","country":"IN","lat":11.3169,"lng":77.6742,"pop":15440,"capital":false},{"name":"Tīrthahalli","country":"IN","lat":13.6884,"lng":75.2455,"pop":15422,"capital":false},{"name":"Rāmachandrapuran","country":"IN","lat":17.5126,"lng":78.2885,"pop":15381,"capital":false},{"name":"Kanhirode","country":"IN","lat":11.9184,"lng":75.4645,"pop":15353,"capital":false},{"name":"Davorlim","country":"IN","lat":15.2722,"lng":73.9924,"pop":15350,"capital":false},{"name":"Penha de França","country":"IN","lat":15.5171,"lng":73.8354,"pop":15342,"capital":false},{"name":"Pālaiyam","country":"IN","lat":10.7256,"lng":78.1354,"pop":15336,"capital":false},{"name":"Pappinivattom","country":"IN","lat":10.2937,"lng":76.1584,"pop":15336,"capital":false},{"name":"Kushālnagar","country":"IN","lat":12.458,"lng":75.959,"pop":15326,"capital":false},{"name":"Dārāsuram","country":"IN","lat":10.9499,"lng":79.3561,"pop":15326,"capital":false},{"name":"Chimbel","country":"IN","lat":15.4926,"lng":73.8747,"pop":15289,"capital":false},{"name":"Srīvardhan","country":"IN","lat":18.0459,"lng":73.0155,"pop":15279,"capital":false},{"name":"Koratagere","country":"IN","lat":13.522,"lng":77.2373,"pop":15265,"capital":false},{"name":"Thekkumkara","country":"IN","lat":10.2819,"lng":76.2132,"pop":15258,"capital":false},{"name":"Bommasandra Industrial Area","country":"IN","lat":12.8177,"lng":77.6842,"pop":15254,"capital":false},{"name":"Kudali","country":"IN","lat":11.9198,"lng":75.4722,"pop":15236,"capital":false},{"name":"Yadagirigutta","country":"IN","lat":17.5889,"lng":78.9434,"pop":15232,"capital":false},{"name":"Mūlanūr","country":"IN","lat":10.7943,"lng":77.7115,"pop":15223,"capital":false},{"name":"Gangolli","country":"IN","lat":13.6502,"lng":74.6707,"pop":15200,"capital":false},{"name":"Kangeyanallur","country":"IN","lat":12.9508,"lng":79.1506,"pop":15177,"capital":false},{"name":"Karamuck","country":"IN","lat":10.4842,"lng":76.1045,"pop":15129,"capital":false},{"name":"Shrivardhan","country":"IN","lat":18.0532,"lng":73.0011,"pop":15123,"capital":false},{"name":"Saligram","country":"IN","lat":13.4991,"lng":74.7094,"pop":15123,"capital":false},{"name":"Kizhariyūr","country":"IN","lat":11.4982,"lng":75.6807,"pop":15116,"capital":false},{"name":"Tirunāgeswaram","country":"IN","lat":10.9646,"lng":79.4293,"pop":15082,"capital":false},{"name":"Amīngarh","country":"IN","lat":16.0566,"lng":75.9477,"pop":15073,"capital":false},{"name":"Kāveripatnam","country":"IN","lat":12.4219,"lng":78.2188,"pop":15006,"capital":false},{"name":"Vagator","country":"IN","lat":15.5977,"lng":73.745,"pop":14986,"capital":false},{"name":"Perole","country":"IN","lat":12.2573,"lng":75.1393,"pop":14965,"capital":false},{"name":"Chowwara","country":"IN","lat":10.1271,"lng":76.3871,"pop":14933,"capital":false},{"name":"Yellāreddi","country":"IN","lat":18.1943,"lng":78.0178,"pop":14923,"capital":false},{"name":"Biloli","country":"IN","lat":18.7739,"lng":77.7246,"pop":14923,"capital":false},{"name":"Thottiyam","country":"IN","lat":10.99,"lng":78.3341,"pop":14909,"capital":false},{"name":"Shelar","country":"IN","lat":19.3222,"lng":73.0677,"pop":14899,"capital":false},{"name":"Pānchgani","country":"IN","lat":17.9245,"lng":73.8008,"pop":14894,"capital":false},{"name":"Kalas","country":"IN","lat":18.1724,"lng":74.7905,"pop":14858,"capital":false},{"name":"Kunjānpālaiyam","country":"IN","lat":11.5863,"lng":77.8011,"pop":14834,"capital":false},{"name":"Yelbarga","country":"IN","lat":15.6155,"lng":76.0118,"pop":14814,"capital":false},{"name":"Quepem","country":"IN","lat":15.2128,"lng":74.0772,"pop":14795,"capital":false},{"name":"Somāmpālaiyam","country":"IN","lat":11.0484,"lng":76.8973,"pop":14787,"capital":false},{"name":"Thiruvidaimaruthur","country":"IN","lat":10.9986,"lng":79.4523,"pop":14786,"capital":false},{"name":"Kondalwādi","country":"IN","lat":18.8073,"lng":77.7703,"pop":14770,"capital":false},{"name":"Siddāpur","country":"IN","lat":14.3432,"lng":74.894,"pop":14769,"capital":false},{"name":"Kottaiyūr","country":"IN","lat":10.1096,"lng":78.7956,"pop":14766,"capital":false},{"name":"Wālājābād","country":"IN","lat":12.7904,"lng":79.8236,"pop":14684,"capital":false},{"name":"Kāmalāpuram","country":"IN","lat":14.5983,"lng":78.6695,"pop":14677,"capital":false},{"name":"Mānantheri","country":"IN","lat":11.8409,"lng":75.6093,"pop":14667,"capital":false},{"name":"Kandānisshēri","country":"IN","lat":10.5979,"lng":76.0758,"pop":14645,"capital":false},{"name":"Kodavasal","country":"IN","lat":10.8616,"lng":79.4797,"pop":14639,"capital":false},{"name":"Karambakkudi","country":"IN","lat":10.4587,"lng":79.141,"pop":14626,"capital":false},{"name":"Wadgaon","country":"IN","lat":18.7392,"lng":73.6395,"pop":14595,"capital":false},{"name":"Kāveripāk","country":"IN","lat":12.9086,"lng":79.4622,"pop":14583,"capital":false},{"name":"Ammāpettai","country":"IN","lat":10.7948,"lng":79.3199,"pop":14572,"capital":false},{"name":"Vennandur","country":"IN","lat":11.5152,"lng":78.0907,"pop":14568,"capital":false},{"name":"Kākalūr","country":"IN","lat":13.1394,"lng":79.9287,"pop":14528,"capital":false},{"name":"Jejūri","country":"IN","lat":18.2766,"lng":74.1601,"pop":14515,"capital":false},{"name":"Chik Bānavar","country":"IN","lat":13.0822,"lng":77.5019,"pop":14409,"capital":false},{"name":"Brahmakulam","country":"IN","lat":10.5815,"lng":76.0693,"pop":14390,"capital":false},{"name":"Manjathala","country":"IN","lat":11.3624,"lng":76.7789,"pop":14383,"capital":false},{"name":"Lānja","country":"IN","lat":16.8609,"lng":73.5499,"pop":14377,"capital":false},{"name":"Chinchani","country":"IN","lat":19.8746,"lng":72.6851,"pop":14357,"capital":false},{"name":"Pallikere","country":"IN","lat":12.406,"lng":75.0397,"pop":14334,"capital":false},{"name":"Kurumpilavu","country":"IN","lat":10.411,"lng":76.1682,"pop":14329,"capital":false},{"name":"Valayam","country":"IN","lat":11.7256,"lng":75.6492,"pop":14328,"capital":false},{"name":"Chammanād","country":"IN","lat":12.4802,"lng":75.0073,"pop":14323,"capital":false},{"name":"Taloje","country":"IN","lat":19.0856,"lng":73.0984,"pop":14318,"capital":false},{"name":"Mohanūr","country":"IN","lat":11.0594,"lng":78.1397,"pop":14315,"capital":false},{"name":"Heggadadevankote","country":"IN","lat":12.0881,"lng":76.3296,"pop":14313,"capital":false},{"name":"Sendārappatti","country":"IN","lat":11.4373,"lng":78.5215,"pop":14308,"capital":false},{"name":"Bhānumukkala","country":"IN","lat":15.3119,"lng":78.2277,"pop":14307,"capital":false},{"name":"Huliyār","country":"IN","lat":13.5836,"lng":76.5423,"pop":14304,"capital":false},{"name":"Aliyābād","country":"IN","lat":12.6317,"lng":79.2164,"pop":14304,"capital":false},{"name":"Bhairāpura","country":"IN","lat":12.22,"lng":76.8987,"pop":14276,"capital":false},