[{"name":"Paramagudi","country":"IN","lat":9.5463,"lng":78.5907,"pop":95579,"capital":false},{"name":"Kovilpatti","country":"IN","lat":9.1717,"lng":77.8699,"pop":95057,"capital":false},{"name":"Kadayanallur","country":"IN","lat":9.0728,"lng":77.3415,"pop":90364,"capital":false},{"name":"Avaniyāpuram","country":"IN","lat":9.8818,"lng":78.1126,"pop":89635,"capital":false},{"name":"Neyyāttinkara","country":"IN","lat":8.3985,"lng":77.0859,"pop":88104,"capital":false},{"name":"Aruppukkottai","country":"IN","lat":9.5096,"lng":78.0959,"pop":87722,"capital":false},{"name":"Katunayaka","country":"LK","lat":7.1699,"lng":79.8884,"pop":84643,"capital":false},{"name":"Battaramulla South","country":"LK","lat":6.8964,"lng":79.9181,"pop":75633,"capital":false},{"name":"Srivilliputhur","country":"IN","lat":9.5127,"lng":77.6337,"pop":75396,"capital":false},{"name":"Virudunagar","country":"IN","lat":9.5851,"lng":77.9579,"pop":73273,"capital":false},{"name":"Thenkasi","country":"IN","lat":8.96,"lng":77.3153,"pop":70545,"capital":false},{"name":"Tripunittura","country":"IN","lat":9.9428,"lng":76.3333,"pop":69390,"capital":false},{"name":"Kayamkulam","country":"IN","lat":9.1817,"lng":76.5009,"pop":68634,"capital":false},{"name":"Cumbum","country":"IN","lat":9.7365,"lng":77.2847,"pop":68090,"capital":false},{"name":"Puliyankudi","country":"IN","lat":9.1749,"lng":77.398,"pop":66034,"capital":false},{"name":"Ramanathapuram","country":"IN","lat":9.3716,"lng":78.8308,"pop":65314,"capital":false},{"name":"Kolonnawa","country":"LK","lat":6.9329,"lng":79.8848,"pop":64887,"capital":false},{"name":"Kotikawatta","country":"LK","lat":6.9269,"lng":79.9095,"pop":64565,"capital":false},{"name":"Ānaiyūr","country":"IN","lat":9.9615,"lng":78.1118,"pop":63917,"capital":false},{"name":"Nedumangād","country":"IN","lat":8.6027,"lng":77.0014,"pop":60161,"capital":false},{"name":"Sankarankovil","country":"IN","lat":9.1705,"lng":77.5411,"pop":57277,"capital":false},{"name":"Tiruvalla","country":"IN","lat":9.3816,"lng":76.5749,"pop":57223,"capital":false},{"name":"Hendala","country":"LK","lat":6.9909,"lng":79.883,"pop":56978,"capital":false},{"name":"Kottayam","country":"IN","lat":9.5869,"lng":76.5213,"pop":55374,"capital":false},{"name":"Tiruttangal","country":"IN","lat":9.4833,"lng":77.8333,"pop":55362,"capital":false},{"name":"Pallichal","country":"IN","lat":8.4498,"lng":77.0257,"pop":53861,"capital":false},{"name":"Thodupuzha","country":"IN","lat":9.8939,"lng":76.7222,"pop":52045,"capital":false},{"name":"Devakottai","country":"IN","lat":9.947,"lng":78.8233,"pop":51865,"capital":false},{"name":"Changanācheri","country":"IN","lat":9.442,"lng":76.536,"pop":51430,"capital":false},{"name":"Tirumangalam","country":"IN","lat":9.8231,"lng":77.9838,"pop":51194,"capital":false},{"name":"Tirupparangunram","country":"IN","lat":9.8815,"lng":78.0731,"pop":50004,"capital":false},{"name":"Gudalur","country":"IN","lat":9.6783,"lng":77.2495,"pop":47419,"capital":false},{"name":"Punalūr","country":"IN","lat":9.0196,"lng":76.9226,"pop":47263,"capital":false},{"name":"Vikramasingapuram","country":"IN","lat":8.7148,"lng":77.3903,"pop":47241,"capital":false},{"name":"Vattiyūrkāvu","country":"IN","lat":8.5247,"lng":76.9889,"pop":47187,"capital":false},{"name":"Komalapuram","country":"IN","lat":9.5419,"lng":76.3424,"pop":47126,"capital":false},{"name":"Milavittan","country":"IN","lat":8.8193,"lng":78.0909,"pop":45863,"capital":false},{"name":"Cherthala","country":"IN","lat":9.6844,"lng":76.3356,"pop":45827,"capital":false},{"name":"Puttalam","country":"LK","lat":8.0362,"lng":79.8283,"pop":45661,"capital":false},{"name":"Shertallai","country":"IN","lat":9.6858,"lng":76.34,"pop":45474,"capital":false},{"name":"Rameswaram","country":"IN","lat":9.2885,"lng":79.3127,"pop":44856,"capital":false},{"name":"Maradu","country":"IN","lat":9.9365,"lng":76.3238,"pop":44704,"capital":false},{"name":"Kottangara","country":"IN","lat":8.9241,"lng":76.6467,"pop":44402,"capital":false},{"name":"Melmadai","country":"IN","lat":9.9264,"lng":78.1503,"pop":43797,"capital":false},{"name":"Panachikkad","country":"IN","lat":9.5297,"lng":76.5406,"pop":43595,"capital":false},{"name":"Varkala","country":"IN","lat":8.7333,"lng":76.7167,"pop":43276,"capital":false},{"name":"Perumbaikad","country":"IN","lat":9.6183,"lng":76.5313,"pop":42839,"capital":false},{"name":"Sivaganga","country":"IN","lat":9.847,"lng":78.4836,"pop":42785,"capital":false},{"name":"Chavara","country":"IN","lat":8.9673,"lng":76.5419,"pop":42655,"capital":false},{"name":"Kumbalangy","country":"IN","lat":9.8798,"lng":76.2835,"pop":42367,"capital":false},{"name":"Chinnamanūr","country":"IN","lat":9.84,"lng":77.3811,"pop":42305,"capital":false},{"name":"Trikonavattam","country":"IN","lat":8.8899,"lng":76.6659,"pop":41609,"capital":false},{"name":"Kudappanakkunnu","country":"IN","lat":8.5514,"lng":76.9608,"pop":41583,"capital":false},{"name":"Welisara","country":"LK","lat":7.0281,"lng":79.9014,"pop":41306,"capital":false},{"name":"Kalliyoor","country":"IN","lat":8.4313,"lng":77.0129,"pop":40816,"capital":false},{"name":"Athiyannur","country":"IN","lat":8.393,"lng":77.0637,"pop":40712,"capital":false},{"name":"Kayalpattinam","country":"IN","lat":8.5714,"lng":78.1199,"pop":40588,"capital":false},{"name":"Kulathummal","country":"IN","lat":8.5073,"lng":77.0815,"pop":40448,"capital":false},{"name":"Ettumānūr","country":"IN","lat":9.669,"lng":76.5592,"pop":40438,"capital":false},{"name":"Mayyanād","country":"IN","lat":8.8373,"lng":76.6451,"pop":40039,"capital":false},{"name":"Mappilaiurani","country":"IN","lat":8.8359,"lng":78.1352,"pop":40035,"capital":false},{"name":"Manakunnam","country":"IN","lat":9.8857,"lng":76.3733,"pop":39538,"capital":false},{"name":"Tirkadavūr","country":"IN","lat":8.924,"lng":76.591,"pop":39285,"capital":false},{"name":"Aroor","country":"IN","lat":9.8694,"lng":76.305,"pop":39214,"capital":false},{"name":"Paravūr Tekkumbhāgam","country":"IN","lat":8.7947,"lng":76.668,"pop":38946,"capital":false},{"name":"Nattakam","country":"IN","lat":9.5453,"lng":76.5141,"pop":38599,"capital":false},{"name":"Kollancode","country":"IN","lat":8.289,"lng":77.108,"pop":38385,"capital":false},{"name":"Kilakarai","country":"IN","lat":9.2318,"lng":78.7855,"pop":38355,"capital":false},{"name":"Pathanāmthitta","country":"IN","lat":9.2667,"lng":76.7833,"pop":38285,"capital":false},{"name":"Talattala","country":"IN","lat":8.8738,"lng":76.6716,"pop":37517,"capital":false},{"name":"Malayinkeezhu","country":"IN","lat":8.4902,"lng":77.0374,"pop":37350,"capital":false},{"name":"Attingal","country":"IN","lat":8.6961,"lng":76.8151,"pop":37346,"capital":false},{"name":"Vettūr","country":"IN","lat":8.7174,"lng":76.7258,"pop":37219,"capital":false},{"name":"Kalutara","country":"LK","lat":6.5831,"lng":79.9593,"pop":37081,"capital":false},{"name":"Bentota","country":"LK","lat":6.426,"lng":79.9958,"pop":37000,"capital":false},{"name":"Vilappil","country":"IN","lat":8.5222,"lng":77.04,"pop":36212,"capital":false},{"name":"Venganoor","country":"IN","lat":8.3964,"lng":77.0033,"pop":35963,"capital":false},{"name":"Mannar","country":"LK","lat":8.9895,"lng":79.8784,"pop":35817,"capital":false},{"name":"Ambasamudram","country":"IN","lat":8.7107,"lng":77.4519,"pop":35645,"capital":false},{"name":"Sūrandai","country":"IN","lat":8.9757,"lng":77.4192,"pop":35272,"capital":false},{"name":"Usilampatti","country":"IN","lat":9.9694,"lng":77.7862,"pop":35219,"capital":false},{"name":"Perunād","country":"IN","lat":8.949,"lng":76.6427,"pop":35173,"capital":false},{"name":"Erāttupetta","country":"IN","lat":9.6875,"lng":76.7789,"pop":34814,"capital":false},{"name":"Aymanam","country":"IN","lat":9.6068,"lng":76.5006,"pop":34470,"capital":false},{"name":"Beruwala","country":"LK","lat":6.4788,"lng":79.9828,"pop":34250,"capital":false},{"name":"Pārassāla","country":"IN","lat":8.3387,"lng":77.1542,"pop":34096,"capital":false},{"name":"Elampalloor","country":"IN","lat":8.9558,"lng":76.6739,"pop":33959,"capital":false},{"name":"Panadura","country":"LK","lat":6.7132,"lng":79.9026,"pop":33735,"capital":false},{"name":"Mulleriyawa","country":"LK","lat":6.933,"lng":79.9297,"pop":33540,"capital":false},{"name":"Kandana","country":"LK","lat":7.048,"lng":79.8937,"pop":33424,"capital":false},{"name":"Muttayyāpuram","country":"IN","lat":8.7498,"lng":78.1311,"pop":32494,"capital":false},{"name":"Manamadurai","country":"IN","lat":9.6732,"lng":78.471,"pop":32257,"capital":false},{"name":"Ja Ela","country":"LK","lat":7.0744,"lng":79.8919,"pop":32175,"capital":false},{"name":"Tiruchchendur","country":"IN","lat":8.4973,"lng":78.1191,"pop":32171,"capital":false},{"name":"Mannanchōri","country":"IN","lat":9.5722,"lng":76.3525,"pop":32139,"capital":false},{"name":"Sattur","country":"IN","lat":9.3559,"lng":77.9246,"pop":31856,"capital":false},{"name":"Vilavoorkkal","country":"IN","lat":8.4809,"lng":77.022,"pop":31761,"capital":false},{"name":"Thanneermukkom","country":"IN","lat":9.6634,"lng":76.3807,"pop":31525,"capital":false},{"name":"Kannānendal","country":"IN","lat":9.9649,"lng":78.1416,"pop":31095,"capital":false},{"name":"Pāmban","country":"IN","lat":9.279,"lng":79.2109,"pop":30926,"capital":false},{"name":"Kalakkādu","country":"IN","lat":8.5138,"lng":77.5494,"pop":30921,"capital":false},{"name":"Vilāngudi","country":"IN","lat":9.9458,"lng":78.0935,"pop":30884,"capital":false},{"name":"Kizhuvalam-Koonthalloor","country":"IN","lat":8.6625,"lng":76.8097,"pop":30770,"capital":false},{"name":"Wattala","country":"LK","lat":6.9892,"lng":79.8917,"pop":30725,"capital":false},{"name":"Muvattupuzha","country":"IN","lat":9.9799,"lng":76.5738,"pop":30397,"capital":false},{"name":"Pānakkudi","country":"IN","lat":8.322,"lng":77.5771,"pop":29895,"capital":false},{"name":"Kottārakara","country":"IN","lat":9.0036,"lng":76.7738,"pop":29788,"capital":false},{"name":"Mīnād","country":"IN","lat":8.8503,"lng":76.6952,"pop":29716,"capital":false},{"name":"Mūvattupula","country":"IN","lat":9.9849,"lng":76.5773,"pop":29664,"capital":false},{"name":"Adūr","country":"IN","lat":9.156,"lng":76.7319,"pop":29652,"capital":false},{"name":"Puthuppally","country":"IN","lat":9.5575,"lng":76.5748,"pop":29635,"capital":false},{"name":"Kidarakulam","country":"IN","lat":8.5669,"lng":76.9913,"pop":29624,"capital":false},{"name":"Kalavoor","country":"IN","lat":9.5705,"lng":76.3276,"pop":29564,"capital":false},{"name":"Nedumpana","country":"IN","lat":8.908,"lng":76.693,"pop":29454,"capital":false},{"name":"Puttankulam","country":"IN","lat":8.8138,"lng":76.7179,"pop":29447,"capital":false},{"name":"Vadakku Valliyūr","country":"IN","lat":8.3829,"lng":77.6122,"pop":29417,"capital":false},{"name":"Vijayapuram","country":"IN","lat":9.5912,"lng":76.5612,"pop":29248,"capital":false},{"name":"Kumbalam","country":"IN","lat":9.9063,"lng":76.3113,"pop":29193,"capital":false},{"name":"Ponmana","country":"IN","lat":9.008,"lng":76.5202,"pop":29139,"capital":false},{"name":"Uttamapālaiyam","country":"IN","lat":9.807,"lng":77.3272,"pop":29050,"capital":false},{"name":"Kelaniya","country":"LK","lat":6.9553,"lng":79.922,"pop":28846,"capital":false},{"name":"Peliyagoda","country":"LK","lat":6.9685,"lng":79.8836,"pop":28784,"capital":false},{"name":"Vandiyūr","country":"IN","lat":9.9092,"lng":78.1609,"pop":28646,"capital":false},{"name":"Ālangulam","country":"IN","lat":8.864,"lng":77.4994,"pop":28558,"capital":false},{"name":"Ochira","country":"IN","lat":9.1348,"lng":76.5117,"pop":28412,"capital":false},{"name":"Māvelikara","country":"IN","lat":9.2593,"lng":76.5564,"pop":28300,"capital":false},{"name":"Pallipuram","country":"IN","lat":9.755,"lng":76.3572,"pop":28276,"capital":false},{"name":"Piravam","country":"IN","lat":9.8667,"lng":76.5,"pop":28254,"capital":false},{"name":"Uliyazhathura","country":"IN","lat":8.5817,"lng":76.9224,"pop":28230,"capital":false},{"name":"Ezhupunna","country":"IN","lat":9.8211,"lng":76.2998,"pop":27528,"capital":false},{"name":"Pathirappally","country":"IN","lat":9.5354,"lng":76.3221,"pop":27445,"capital":false},{"name":"Azhoor","country":"IN","lat":8.6442,"lng":76.799,"pop":27390,"capital":false},{"name":"Āndippatti","country":"IN","lat":9.998,"lng":77.621,"pop":27287,"capital":false},{"name":"Arumuganeri","country":"IN","lat":8.5688,"lng":78.0909,"pop":27266,"capital":false},{"name":"Adichānallūr","country":"IN","lat":8.8805,"lng":76.7156,"pop":27240,"capital":false},{"name":"Vettanād","country":"IN","lat":8.6059,"lng":76.9424,"pop":27140,"capital":false},{"name":"Ettumanoor","country":"IN","lat":9.67,"lng":76.57,"pop":26993,"capital":false},{"name":"Kumārapuram","country":"IN","lat":9.2708,"lng":76.4326,"pop":26943,"capital":false},{"name":"Kulasēkarapuram","country":"IN","lat":9.0912,"lng":76.5303,"pop":26907,"capital":false},{"name":"Shenkottai","country":"IN","lat":8.9774,"lng":77.2463,"pop":26823,"capital":false},{"name":"Krishnāpuram","country":"IN","lat":9.1521,"lng":76.5234,"pop":26705,"capital":false},{"name":"Kallidaikurichi","country":"IN","lat":8.6859,"lng":77.4659,"pop":26398,"capital":false},{"name":"Anuppānadi","country":"IN","lat":9.904,"lng":78.1433,"pop":26158,"capital":false},{"name":"Edavai","country":"IN","lat":8.7645,"lng":76.6885,"pop":25994,"capital":false},{"name":"Thodiyoor","country":"IN","lat":9.078,"lng":76.5777,"pop":25884,"capital":false},{"name":"Muhamma","country":"IN","lat":9.6089,"lng":76.3608,"pop":25861,"capital":false},{"name":"Mulamthuruthy","country":"IN","lat":9.9003,"lng":76.387,"pop":25852,"capital":false},{"name":"Panayāttur Vadakkumbhāgam","country":"IN","lat":8.9546,"lng":76.6185,"pop":25607,"capital":false},{"name":"Viswanatham","country":"IN","lat":9.4295,"lng":77.8003,"pop":25555,"capital":false},{"name":"Karuva","country":"IN","lat":8.95,"lng":76.5986,"pop":25432,"capital":false},{"name":"Edaicode","country":"IN","lat":8.3825,"lng":77.1983,"pop":25378,"capital":false},{"name":"Kadakkavoor","country":"IN","lat":8.6792,"lng":76.7671,"pop":25362,"capital":false},{"name":"Karungappalli","country":"IN","lat":9.1042,"lng":76.537,"pop":25336,"capital":false},{"name":"Vayalār","country":"IN","lat":9.7116,"lng":76.3389,"pop":25094,"capital":false},{"name":"Chengannūr","country":"IN","lat":9.3158,"lng":76.6151,"pop":25043,"capital":false},{"name":"Ilaiyankudi","country":"IN","lat":9.6251,"lng":78.6243,"pop":24767,"capital":false},{"name":"Chilaw","country":"LK","lat":7.5758,"lng":79.7953,"pop":24712,"capital":false},{"name":"Ezhudesam","country":"IN","lat":8.2651,"lng":77.1421,"pop":24657,"capital":false},{"name":"Tiruppuvanam","country":"IN","lat":9.8256,"lng":78.2579,"pop":24554,"capital":false},{"name":"Ayanavelikulangara Vadakku","country":"IN","lat":9.043,"lng":76.523,"pop":24268,"capital":false},{"name":"Pacode","country":"IN","lat":8.3352,"lng":77.2136,"pop":24050,"capital":false},{"name":"Vypīn","country":"IN","lat":9.9667,"lng":76.25,"pop":23717,"capital":false},{"name":"Tisaiyanvilai","country":"IN","lat":8.337,"lng":77.8678,"pop":23702,"capital":false},{"name":"Srīkandamangalam","country":"IN","lat":9.6594,"lng":76.3634,"pop":23681,"capital":false},{"name":"Kutiatodu","country":"IN","lat":9.8,"lng":76.3333,"pop":23669,"capital":false},{"name":"Unnamalaikadai","country":"IN","lat":8.2996,"lng":77.2406,"pop":23656,"capital":false},{"name":"Painkulam","country":"IN","lat":8.2602,"lng":77.174,"pop":23630,"capital":false},{"name":"Sreekaryam","country":"IN","lat":8.5488,"lng":76.9172,"pop":23528,"capital":false},{"name":"Pattiyūrgrāmam","country":"IN","lat":9.1774,"lng":76.5012,"pop":23460,"capital":false},{"name":"Nāyanakulam","country":"IN","lat":9.9612,"lng":78.1372,"pop":23284,"capital":false},{"name":"Vaikam","country":"IN","lat":9.7486,"lng":76.3964,"pop":23234,"capital":false},{"name":"Colachel","country":"IN","lat":8.1794,"lng":77.2582,"pop":23227,"capital":false},{"name":"Thiruvankulam","country":"IN","lat":9.9468,"lng":76.3666,"pop":23160,"capital":false},{"name":"Iroopara","country":"IN","lat":8.6075,"lng":76.9149,"pop":23113,"capital":false},{"name":"Sivagiri","country":"IN","lat":9.3446,"lng":77.4291,"pop":23040,"capital":false},{"name":"Aramboli","country":"IN","lat":8.2496,"lng":77.5216,"pop":22846,"capital":false},{"name":"Vellūr","country":"IN","lat":8.6262,"lng":76.8305,"pop":22816,"capital":false},{"name":"Kanniyākumāri","country":"IN","lat":8.0901,"lng":77.5384,"pop":22453,"capital":false},{"name":"Triparappu","country":"IN","lat":8.3948,"lng":77.2659,"pop":22401,"capital":false},{"name":"Puthencruz","country":"IN","lat":9.9773,"lng":76.4105,"pop":22378,"capital":false},{"name":"Ādanāttutekkumuri Kizhakku","country":"IN","lat":9.0791,"lng":76.5137,"pop":22250,"capital":false},{"name":"Kilapavoor","country":"IN","lat":8.9086,"lng":77.4311,"pop":22231,"capital":false},{"name":"Attimarappatti","country":"IN","lat":8.7399,"lng":78.1053,"pop":22218,"capital":false},{"name":"Palai","country":"IN","lat":9.7131,"lng":76.6833,"pop":22056,"capital":false},{"name":"Kalleribhāgam","country":"IN","lat":9.054,"lng":76.558,"pop":21723,"capital":false},{"name":"Kadayal","country":"IN","lat":8.4083,"lng":77.2658,"pop":21665,"capital":false},{"name":"Vāsudevanallūr","country":"IN","lat":9.2417,"lng":77.4118,"pop":21361,"capital":false},{"name":"Padmanābhapuram","country":"IN","lat":8.2446,"lng":77.3258,"pop":21342,"capital":false},{"name":"Paippad","country":"IN","lat":9.4246,"lng":76.5848,"pop":21338,"capital":false},{"name":"Kuzhithurai","country":"IN","lat":8.3179,"lng":77.1919,"pop":21307,"capital":false},{"name":"Kodamthuruth","country":"IN","lat":9.8006,"lng":76.3015,"pop":21295,"capital":false},{"name":"Reethapuram","country":"IN","lat":8.1843,"lng":77.2481,"pop":21177,"capital":false},{"name":"Marthandam","country":"IN","lat":8.3081,"lng":77.2214,"pop":20938,"capital":false},{"name":"Thaikkattussery","country":"IN","lat":9.7715,"lng":76.3439,"pop":20874,"capital":false},{"name":"Vadakarai Kīl Pidāgai","country":"IN","lat":9.0401,"lng":77.2741,"pop":20821,"capital":false},{"name":"Muthukulam","country":"IN","lat":9.2168,"lng":76.4592,"pop":20740,"capital":false},{"name":"Settūr","country":"IN","lat":9.4056,"lng":77.4784,"pop":20228,"capital":false},{"name":"Cheppad","country":"IN","lat":9.2346,"lng":76.4733,"pop":20052,"capital":false},{"name":"Paravai","country":"IN","lat":9.9645,"lng":78.0667,"pop":20042,"capital":false},{"name":"Kandalloor","country":"IN","lat":9.1756,"lng":76.4713,"pop":19925,"capital":false},{"name":"Kanjiramkulam","country":"IN","lat":8.3598,"lng":77.0525,"pop":19902,"capital":false},{"name":"Sankaraperi","country":"IN","lat":8.8387,"lng":78.1051,"pop":19844,"capital":false},{"name":"Kattanam","country":"IN","lat":9.1761,"lng":76.5633,"pop":19764,"capital":false},{"name":"Udangudi","country":"IN","lat":8.4292,"lng":78.0297,"pop":19738,"capital":false},{"name":"Verukulambu","country":"IN","lat":8.2953,"lng":77.2939,"pop":19730,"capital":false},{"name":"Vadakku Viravanallur","country":"IN","lat":8.6979,"lng":77.5192,"pop":19689,"capital":false},{"name":"Mulakumūd","country":"IN","lat":8.2681,"lng":77.286,"pop":19538,"capital":false},{"name":"Methukummal","country":"IN","lat":8.3075,"lng":77.1521,"pop":19417,"capital":false},{"name":"Tiruppālai","country":"IN","lat":9.9779,"lng":78.1329,"pop":19305,"capital":false},{"name":"Vakkam","country":"IN","lat":8.6845,"lng":76.7676,"pop":19267,"capital":false},{"name":"Kallukuttam","country":"IN","lat":8.1887,"lng":77.2878,"pop":19093,"capital":false},{"name":"Karthikappally","country":"IN","lat":9.2568,"lng":76.4487,"pop":19021,"capital":false},{"name":"Tiruvattār","country":"IN","lat":8.3307,"lng":77.2673,"pop":18985,"capital":false},{"name":"Tiruvankod","country":"IN","lat":8.2452,"lng":77.301,"pop":18723,"capital":false},{"name":"Mamsapuram","country":"IN","lat":9.4996,"lng":77.5879,"pop":18635,"capital":false},{"name":"Palappallam","country":"IN","lat":8.2095,"lng":77.2476,"pop":18589,"capital":false},{"name":"Pālaiyampatti","country":"IN","lat":9.5392,"lng":78.0984,"pop":18576,"capital":false},{"name":"Tondi","country":"IN","lat":9.7417,"lng":79.0177,"pop":18465,"capital":false},{"name":"Mandapam","country":"IN","lat":9.2757,"lng":79.1236,"pop":18427,"capital":false},{"name":"Cheranmahadevi","country":"IN","lat":8.6755,"lng":77.5696,"pop":18327,"capital":false},{"name":"Palugal","country":"IN","lat":8.3536,"lng":77.1859,"pop":18276,"capital":false},{"name":"Inam Maniyachi","country":"IN","lat":9.1706,"lng":77.8512,"pop":18258,"capital":false},{"name":"Kariapatti","country":"IN","lat":9.6751,"lng":78.0999,"pop":18191,"capital":false},{"name":"Eruvādi","country":"IN","lat":8.4439,"lng":77.6044,"pop":18067,"capital":false},{"name":"Nalloor","country":"IN","lat":8.3064,"lng":77.224,"pop":17989,"capital":false},{"name":"Arukutti","country":"IN","lat":9.8667,"lng":76.35,"pop":17944,"capital":false},{"name":"Kothanallur","country":"IN","lat":8.2791,"lng":77.3096,"pop":17662,"capital":false},{"name":"Settiyārpatti","country":"IN","lat":9.3935,"lng":77.4935,"pop":17520,"capital":false},{"name":"Dharmapuram","country":"IN","lat":8.1203,"lng":77.389,"pop":17476,"capital":false},{"name":"Keezhkulam","country":"IN","lat":8.2307,"lng":77.1863,"pop":17327,"capital":false},{"name":"Kāttatturai","country":"IN","lat":8.2849,"lng":77.2755,"pop":17271,"capital":false},{"name":"Kulasegaram","country":"IN","lat":8.3632,"lng":77.2978,"pop":17267,"capital":false},{"name":"Nāranammālpuram","country":"IN","lat":8.7599,"lng":77.7399,"pop":17094,"capital":false},{"name":"Mēppādam","country":"IN","lat":9.3242,"lng":76.4934,"pop":17067,"capital":false},{"name":"Kokōtamangalam South","country":"IN","lat":9.6795,"lng":76.3589,"pop":17047,"capital":false},{"name":"Valvachatottam","country":"IN","lat":8.2803,"lng":77.2561,"pop":16965,"capital":false},{"name":"Sithurajapuram","country":"IN","lat":9.4214,"lng":77.7873,"pop":16860,"capital":false},{"name":"Āchāripallam Vāniyakudi","country":"IN","lat":8.1743,"lng":77.3849,"pop":16822,"capital":false},{"name":"Vathirairuppu","country":"IN","lat":9.6353,"lng":77.6389,"pop":16784,"capital":false},{"name":"Sāmbūrvadakara","country":"IN","lat":8.9986,"lng":77.3876,"pop":16709,"capital":false},{"name":"Karingal","country":"IN","lat":8.2363,"lng":77.2426,"pop":16691,"capital":false},{"name":"Pattamadai","country":"IN","lat":8.6726,"lng":77.5845,"pop":16625,"capital":false},{"name":"Nazareth","country":"IN","lat":8.561,"lng":77.9721,"pop":16584,"capital":false},{"name":"Arumanai","country":"IN","lat":8.367,"lng":77.2433,"pop":16283,"capital":false},{"name":"Nallavila","country":"IN","lat":8.2055,"lng":77.3444,"pop":16138,"capital":false},{"name":"Kāmayakkavundanpatti","country":"IN","lat":9.7386,"lng":77.32,"pop":16134,"capital":false},{"name":"Chengalam","country":"IN","lat":9.5966,"lng":76.4678,"pop":16111,"capital":false},{"name":"Tevāram","country":"IN","lat":9.8967,"lng":77.2809,"pop":16079,"capital":false},{"name":"Kappiyara","country":"IN","lat":8.2466,"lng":77.2617,"pop":15998,"capital":false},{"name":"Kombai","country":"IN","lat":9.8475,"lng":77.296,"pop":15960,"capital":false},{"name":"Boothapandi","country":"IN","lat":8.2659,"lng":77.4461,"pop":15931,"capital":false},{"name":"Bharanikāvu Tekku","country":"IN","lat":9.1849,"lng":76.5608,"pop":15922,"capital":false},{"name":"Srivaikuntam","country":"IN","lat":8.6293,"lng":77.9128,"pop":15847,"capital":false},{"name":"Pudukkottai","country":"IN","lat":9.9373,"lng":78.0533,"pop":15769,"capital":false},{"name":"Elumalai","country":"IN","lat":9.865,"lng":77.6992,"pop":15746,"capital":false},{"name":"Chokkanāthapuram","country":"IN","lat":9.9921,"lng":77.3566,"pop":15625,"capital":false},{"name":"Haripād","country":"IN","lat":9.2836,"lng":76.4552,"pop":15588,"capital":false},{"name":"Ponmana","country":"IN","lat":8.3553,"lng":77.3283,"pop":15554,"capital":false},{"name":"Kalugumalai","country":"IN","lat":9.1494,"lng":77.7057,"pop":15423,"capital":false},{"name":"Villukuri","country":"IN","lat":8.2226,"lng":77.3732,"pop":15304,"capital":false},{"name":"Vilattikulam","country":"IN","lat":9.1323,"lng":78.1664,"pop":15277,"capital":false},{"name":"Kīlattingal","country":"IN","lat":8.6926,"lng":76.7933,"pop":15185,"capital":false},{"name":"Ottakkadai","country":"IN","lat":9.958,"lng":78.1886,"pop":15152,"capital":false},{"name":"Āyikudi","country":"IN","lat":9.0032,"lng":77.3449,"pop":15129,"capital":false},{"name":"Ālūr","country":"IN","lat":8.1931,"lng":77.3643,"pop":15063,"capital":false},{"name":"Mukkūdal","country":"IN","lat":8.7431,"lng":77.5225,"pop":14983,"capital":false},{"name":"Chingoli","country":"IN","lat":9.2503,"lng":76.452,"pop":14981,"capital":false},{"name":"Pandavarmangalam","country":"IN","lat":9.1533,"lng":77.8818,"pop":14954,"capital":false},{"name":"Kunnumma","country":"IN","lat":9.3567,"lng":76.4134,"pop":14918,"capital":false},{"name":"Palanisettipatti","country":"IN","lat":9.9998,"lng":77.4641,"pop":14879,"capital":false},{"name":"Sayalgudi","country":"IN","lat":9.1693,"lng":78.447,"pop":14801,"capital":false},{"name":"Mudukulathur","country":"IN","lat":9.3417,"lng":78.5139,"pop":14789,"capital":false},{"name":"Kamuthi","country":"IN","lat":9.4073,"lng":78.3734,"pop":14754,"capital":false},{"name":"Kumārapuram","country":"IN","lat":8.2922,"lng":77.3215,"pop":14728,"capital":false},{"name":"Nilaiyūr","country":"IN","lat":9.8572,"lng":78.0598,"pop":14684,"capital":false},{"name":"Samsikāpuram","country":"IN","lat":9.4156,"lng":77.5917,"pop":14601,"capital":false},{"name":"Chandāpuram","country":"IN","lat":8.1584,"lng":77.3646,"pop":14598,"capital":false},{"name":"Thazhakara","country":"IN","lat":9.2502,"lng":76.5674,"pop":14596,"capital":false},{"name":"Rājāsingamangalam","country":"IN","lat":9.6357,"lng":78.8461,"pop":14565,"capital":false},{"name":"Tengampudūr","country":"IN","lat":8.1158,"lng":77.4579,"pop":14538,"capital":false},{"name":"Tanakkangulam","country":"IN","lat":9.8877,"lng":78.0397,"pop":14328,"capital":false},{"name":"Vilavūr","country":"IN","lat":8.2669,"lng":77.3052,"pop":14320,"capital":false},{"name":"Sivandipuram","country":"IN","lat":8.7067,"lng":77.4,"pop":14281,"capital":false},{"name":"Sathankulam","country":"IN","lat":8.4416,"lng":77.9135,"pop":14193,"capital":false},{"name":"Tikkanbankad","country":"IN","lat":8.2216,"lng":77.2733,"pop":14086,"capital":false},{"name":"Odaipatti","country":"IN","lat":9.8323,"lng":77.4433,"pop":13892,"capital":false},{"name":"Tingalāchi","country":"IN","lat":8.201,"lng":77.3036,"pop":13567,"capital":false},{"name":"Achanputtūr","country":"IN","lat":9.0414,"lng":77.2969,"pop":13566,"capital":false},{"name":"Anuppankulam","country":"IN","lat":9.4194,"lng":77.843,"pop":13526,"capital":false},{"name":"Kureekkad","country":"IN","lat":9.9298,"lng":76.3746,"pop":13348,"capital":false},{"name":"Kumaragiri","country":"IN","lat":8.7452,"lng":78.0522,"pop":13344,"capital":false},{"name":"Mandākād","country":"IN","lat":8.1611,"lng":77.2795,"pop":13317,"capital":false},{"name":"Suchindram","country":"IN","lat":8.1544,"lng":77.467,"pop":13193,"capital":false},{"name":"Veillyāchi","country":"IN","lat":8.1517,"lng":77.3366,"pop":13182,"capital":false},{"name":"Puttalam","country":"IN","lat":8.0981,"lng":77.464,"pop":13073,"capital":false},{"name":"Edakkode","country":"IN","lat":8.6808,"lng":76.8519,"pop":12994,"capital":false},{"name":"Mallānkinar","country":"IN","lat":9.5982,"lng":78.0558,"pop":12986,"capital":false},{"name":"Ettaiyapuram","country":"IN","lat":9.1441,"lng":77.9907,"pop":12956,"capital":false},{"name":"Neyyūr","country":"IN","lat":8.1983,"lng":77.3038,"pop":12917,"capital":false},{"name":"Sawyerpuram","country":"IN","lat":8.6822,"lng":78.0265,"pop":12792,"capital":false},{"name":"Temanūr","country":"IN","lat":8.3326,"lng":77.2524,"pop":12715,"capital":false},{"name":"Kodikkulam","country":"IN","lat":9.6493,"lng":77.586,"pop":12713,"capital":false},{"name":"Pudur","country":"IN","lat":9.0001,"lng":77.2076,"pop":12457,"capital":false},{"name":"Chennithala","country":"IN","lat":9.2808,"lng":76.5185,"pop":12360,"capital":false},{"name":"Kozhancheri","country":"IN","lat":9.35,"lng":76.7,"pop":12021,"capital":false},{"name":"Attūr","country":"IN","lat":8.3224,"lng":77.2558,"pop":11910,"capital":false},{"name":"Tamarakutamkudiyiruppu","country":"IN","lat":8.1015,"lng":77.4937,"pop":11872,"capital":false},{"name":"Kurattissery","country":"IN","lat":9.3187,"lng":76.5282,"pop":11849,"capital":false},{"name":"Naranapuram","country":"IN","lat":9.4505,"lng":77.8352,"pop":11665,"capital":false},{"name":"Devipattinam","country":"IN","lat":9.4776,"lng":78.8956,"pop":11599,"capital":false},{"name":"Puduppatti","country":"IN","lat":9.7658,"lng":77.3065,"pop":11511,"capital":false},{"name":"Azhagiapāndipuram","country":"IN","lat":8.3007,"lng":77.4439,"pop":11392,"capital":false},{"name":"Mangalam","country":"IN","lat":9.7647,"lng":78.6404,"pop":11379,"capital":false},{"name":"Manimutharu","country":"IN","lat":8.6577,"lng":77.4139,"pop":11323,"capital":false},{"name":"Idukki","country":"IN","lat":9.85,"lng":76.9667,"pop":11248,"capital":false},{"name":"Marungūr","country":"IN","lat":8.1721,"lng":77.5037,"pop":11236,"capital":false},{"name":"Rāyagiri","country":"IN","lat":9.3037,"lng":77.4475,"pop":11223,"capital":false},{"name":"Mūlaikkaraippatti","country":"IN","lat":8.5454,"lng":77.7679,"pop":11112,"capital":false},{"name":"Kottāram","country":"IN","lat":8.1188,"lng":77.5243,"pop":11055,"capital":false},{"name":"Anjugramam","country":"IN","lat":8.1544,"lng":77.5781,"pop":10982,"capital":false},{"name":"Manavālakurichi","country":"IN","lat":8.1478,"lng":77.3055,"pop":10969,"capital":false},{"name":"Sakkimangalam","country":"IN","lat":9.8812,"lng":78.1924,"pop":10854,"capital":false},{"name":"Gangaikondān","country":"IN","lat":8.8578,"lng":77.7802,"pop":10779,"capital":false},{"name":"Kallupatti","country":"IN","lat":9.7167,"lng":77.8667,"pop":10762,"capital":false},{"name":"Gopālasamudram","country":"IN","lat":8.6747,"lng":77.6379,"pop":10694,"capital":false},{"name":"Kulattūr","country":"IN","lat":9.0032,"lng":78.1928,"pop":10632,"capital":false},{"name":"Hanumantanpatti","country":"IN","lat":9.7859,"lng":77.317,"pop":10619,"capital":false},{"name":"Keerikkad","country":"IN","lat":9.1772,"lng":76.4856,"pop":10465,"capital":false},{"name":"Minicoy","country":"IN","lat":8.289,"lng":73.0617,"pop":10447,"capital":false},{"name":"Kayattār","country":"IN","lat":8.9483,"lng":77.7742,"pop":10400,"capital":false},{"name":"Peraiyur","country":"IN","lat":9.7358,"lng":77.7896,"pop":10394,"capital":false},{"name":"Eraniel","country":"IN","lat":8.2059,"lng":77.3173,"pop":10375,"capital":false},{"name":"Ilanji","country":"IN","lat":8.9605,"lng":77.28,"pop":10282,"capital":false},{"name":"Mayilādi","country":"IN","lat":8.155,"lng":77.5056,"pop":10070,"capital":false},{"name":"Ālwārkurichchi","country":"IN","lat":8.7838,"lng":77.3952,"pop":10045,"capital":false},{"name":"Rāmamangalam","country":"IN","lat":9.9333,"lng":76.5,"pop":9999,"capital":false},{"name":"Puthukkadai","country":"IN","lat":8.2759,"lng":77.1793,"pop":9909,"capital":false},{"name":"Periyapattinam","country":"IN","lat":9.2726,"lng":78.9023,"pop":9730,"capital":false},{"name":"Agastīswaram","country":"IN","lat":8.0996,"lng":77.5215,"pop":9717,"capital":false},{"name":"Alagappapuram","country":"IN","lat":8.1468,"lng":77.5413,"pop":9626,"capital":false},{"name":"Venkatachalapuram","country":"IN","lat":9.3747,"lng":77.9101,"pop":9540,"capital":false},{"name":"Vaittilingapuram","country":"IN","lat":9.4751,"lng":77.6098,"pop":9538,"capital":false},{"name":"Kulhudhuffushi","country":"MV","lat":6.6221,"lng":73.07,"pop":9500,"capital":false},{"name":"Eral","country":"IN","lat":8.6258,"lng":78.0228,"pop":9478,"capital":false},{"name":"Gampaha","country":"LK","lat":7.0897,"lng":79.9925,"pop":9350,"capital":false},{"name":"Tirukurangudi","country":"IN","lat":8.4365,"lng":77.5657,"pop":9342,"capital":false},{"name":"Pannaipuram","country":"IN","lat":9.8658,"lng":77.2836,"pop":9323,"capital":false},{"name":"Panpuli","country":"IN","lat":9.0214,"lng":77.2502,"pop":9313,"capital":false},{"name":"Chottanikkara","country":"IN","lat":9.9364,"lng":76.3811,"pop":9308,"capital":false},{"name":"Alwa Tirunagari","country":"IN","lat":8.6064,"lng":77.9398,"pop":9289,"capital":false},{"name":"Samayanallūr","country":"IN","lat":9.9792,"lng":78.0359,"pop":9227,"capital":false},{"name":"Vadakkankulam","country":"IN","lat":8.2588,"lng":77.6084,"pop":9220,"capital":false},{"name":"Tittangulam","country":"IN","lat":9.1706,"lng":77.8983,"pop":9115,"capital":false},{"name":"Ottappatti","country":"IN","lat":9.896,"lng":78.0896,"pop":9016,"capital":false},{"name":"Tāzhakudi","country":"IN","lat":8.2348,"lng":77.4533,"pop":8992,"capital":false},{"name":"Pudūr","country":"IN","lat":9.2917,"lng":78.1385,"pop":8891,"capital":false},{"name":"Adaikkakuzhi","country":"IN","lat":8.3078,"lng":77.1411,"pop":8888,"capital":false},{"name":"Ayakod","country":"IN","lat":8.3457,"lng":77.2987,"pop":8874,"capital":false},{"name":"Tiruppālaikudi","country":"IN","lat":9.5461,"lng":78.9172,"pop":8824,"capital":false},{"name":"Nadaikavu","country":"IN","lat":8.2915,"lng":77.1479,"pop":8727,"capital":false},{"name":"Midalam","country":"IN","lat":8.2216,"lng":77.2617,"pop":8625,"capital":false},{"name":"Lālam","country":"IN","lat":9.7167,"lng":76.7,"pop":8571,"capital":false},{"name":"Kattimancode","country":"IN","lat":8.1905,"lng":77.3526,"pop":8541,"capital":false},{"name":"Sundarapāndiyam","country":"IN","lat":9.6127,"lng":77.6738,"pop":8513,"capital":false},{"name":"Mel Seval","country":"IN","lat":8.6722,"lng":77.6147,"pop":8435,"capital":false},{"name":"Attippatti","country":"IN","lat":9.4939,"lng":78.1271,"pop":8384,"capital":false},{"name":"Vavarai","country":"IN","lat":8.2921,"lng":77.1617,"pop":8362,"capital":false},{"name":"Tiruvengadam","country":"IN","lat":9.2586,"lng":77.6748,"pop":8337,"capital":false},{"name":"Puduppatti","country":"IN","lat":9.6171,"lng":77.6375,"pop":8316,"capital":false},{"name":"Vilavancode","country":"IN","lat":8.3129,"lng":77.2048,"pop":8277,"capital":false},{"name":"Pārtibanūr","country":"IN","lat":9.5855,"lng":78.4545,"pop":8232,"capital":false},{"name":"Abirāmam","country":"IN","lat":9.4423,"lng":78.4399,"pop":8144,"capital":false},{"name":"Pudūr","country":"IN","lat":8.8692,"lng":77.9938,"pop":8012,"capital":false},{"name":"Muzhucode","country":"IN","lat":8.3619,"lng":77.2281,"pop":8000,"capital":false},{"name":"Nambutalai","country":"IN","lat":9.7277,"lng":79.0071,"pop":7914,"capital":false},{"name":"Mīnākshipuram","country":"IN","lat":9.9908,"lng":77.3709,"pop":7846,"capital":false},{"name":"Nallūr","country":"IN","lat":8.8705,"lng":77.5171,"pop":7828,"capital":false},{"name":"Malayadi","country":"IN","lat":8.3609,"lng":77.1795,"pop":7812,"capital":false},{"name":"Vilāchcheri","country":"IN","lat":9.8937,"lng":78.0603,"pop":7787,"capital":false},{"name":"Minuwangoda","country":"LK","lat":7.1663,"lng":79.9533,"pop":7772,"capital":false},{"name":"Kannanūr","country":"IN","lat":8.2793,"lng":77.2922,"pop":7747,"capital":false},{"name":"Kulappuram","country":"IN","lat":8.322,"lng":77.1489,"pop":7677,"capital":false},{"name":"Nattalam","country":"IN","lat":8.2796,"lng":77.2346,"pop":7674,"capital":false},{"name":"Pavali","country":"IN","lat":9.6023,"lng":77.9213,"pop":7622,"capital":false},{"name":"Terūr","country":"IN","lat":8.1733,"lng":77.4651,"pop":7615,"capital":false},{"name":"Vālāntaravai","country":"IN","lat":9.3391,"lng":78.8871,"pop":7498,"capital":false},{"name":"Airāvadanallūr","country":"IN","lat":9.9058,"lng":78.1552,"pop":7423,"capital":false},{"name":"Kandanvilai","country":"IN","lat":8.2068,"lng":77.3281,"pop":7401,"capital":false},{"name":"Karadipatti","country":"IN","lat":9.9181,"lng":78.0239,"pop":7289,"capital":false},{"name":"Perungulam","country":"IN","lat":8.6413,"lng":77.9985,"pop":7203,"capital":false},{"name":"Viraganūr","country":"IN","lat":9.9036,"lng":78.1552,"pop":7121,"capital":false},{"name":"Sankarnagar","country":"IN","lat":8.7969,"lng":77.734,"pop":7095,"capital":false},{"name":"Kujjanūr","country":"IN","lat":9.8743,"lng":77.3747,"pop":7024,"capital":false},{"name":"Panaikulam","country":"IN","lat":9.3757,"lng":78.954,"pop":6980,"capital":false},{"name":"Nanguneri","country":"IN","lat":8.4933,"lng":77.6581,"pop":6969,"capital":false},{"name":"Chatrapatti","country":"IN","lat":9.3448,"lng":77.9206,"pop":6948,"capital":false},{"name":"Manjalumoodu","country":"IN","lat":8.3745,"lng":77.2222,"pop":6840,"capital":false},{"name":"Paloor","country":"IN","lat":8.2427,"lng":77.2365,"pop":6818,"capital":false},{"name":"Elāyirampannai","country":"IN","lat":9.2703,"lng":77.8249,"pop":6814,"capital":false},{"name":"Choozhal","country":"IN","lat":8.3101,"lng":77.128,"pop":6807,"capital":false},{"name":"Cholapuram","country":"IN","lat":9.3519,"lng":77.5684,"pop":6557,"capital":false},{"name":"Silaimān","country":"IN","lat":9.8731,"lng":78.1906,"pop":6436,"capital":false},{"name":"Thinadhoo","country":"MV","lat":0.5306,"lng":72.9997,"pop":6376,"capital":false},{"name":"Puliyoorsalai","country":"IN","lat":8.4197,"lng":77.1972,"pop":6361,"capital":false},{"name":"Jagadāpatnam","country":"IN","lat":9.968,"lng":79.1901,"pop":6274,"capital":false},{"name":"Tadikārakonam","country":"IN","lat":8.3302,"lng":77.4149,"pop":6241,"capital":false},{"name":"Kila Ambur","country":"IN","lat":8.761,"lng":77.401,"pop":6233,"capital":false},{"name":"Arumbanūr","country":"IN","lat":9.9944,"lng":78.1924,"pop":6148,"capital":false},{"name":"Mārkkayankottai","country":"IN","lat":9.8526,"lng":77.3603,"pop":6135,"capital":false},{"name":"Gandipuram","country":"IN","lat":8.1796,"lng":77.4449,"pop":6106,"capital":false},{"name":"Peruvila","country":"IN","lat":8.1855,"lng":77.3961,"pop":6090,"capital":false},{"name":"Vīrapāndiyanpattanam","country":"IN","lat":8.519,"lng":78.1183,"pop":6015,"capital":false},{"name":"Kovalam","country":"IN","lat":8.3667,"lng":76.9967,"pop":6000,"capital":false},{"name":"Terku Kallikulam","country":"IN","lat":8.3528,"lng":77.6637,"pop":5980,"capital":false},{"name":"Narasingam","country":"IN","lat":9.9658,"lng":78.1833,"pop":5971,"capital":false},{"name":"Nāttarasankottai","country":"IN","lat":9.8691,"lng":78.5531,"pop":5920,"capital":false},{"name":"Ovari Paravarnattam","country":"IN","lat":8.2774,"lng":77.8915,"pop":5694,"capital":false},{"name":"Puderiyūr","country":"IN","lat":8.2152,"lng":77.4336,"pop":5576,"capital":false},{"name":"Dalavaypuram","country":"IN","lat":9.3918,"lng":77.4977,"pop":5474,"capital":false},{"name":"Kadaiyam","country":"IN","lat":8.8204,"lng":77.3729,"pop":5430,"capital":false},{"name":"Puttantura","country":"IN","lat":8.1027,"lng":77.4188,"pop":5386,"capital":false},{"name":"Kullursandai","country":"IN","lat":9.5431,"lng":77.9806,"pop":5383,"capital":false},{"name":"Chathirareddipatti","country":"IN","lat":9.6254,"lng":77.9667,"pop":5360,"capital":false},{"name":"Mettamalai","country":"IN","lat":9.3955,"lng":77.8946,"pop":5175,"capital":false},{"name":"Kūttankuli","country":"IN","lat":8.2174,"lng":77.7811,"pop":5118,"capital":false},{"name":"Naifaru","country":"MV","lat":5.4444,"lng":73.3657,"pop":5044,"capital":false},{"name":"Chembagarāmanpudūr","country":"IN","lat":8.2461,"lng":77.4907,"pop":5028,"capital":false},{"name":"Dhihdhoo","country":"MV","lat":6.8874,"lng":73.114,"pop":3039,"capital":false},{"name":"Viligili","country":"MV","lat":0.7591,"lng":73.433,"pop":2925,"capital":false},{"name":"Funadhoo","country":"MV","lat":6.1509,"lng":73.2901,"pop":2900,"capital":false},{"name":"Eydhafushi","country":"MV","lat":5.1033,"lng":73.0708,"pop":2808,"capital":false},{"name":"Mahibadhoo","country":"MV","lat":3.7571,"lng":72.9689,"pop":2156,"capital":false},{"name":"Fonadhoo","country":"MV","lat":1.8324,"lng":73.5026,"pop":1773,"capital":false},{"name":"Manadhoo","country":"MV","lat":5.7669,"lng":73.4136,"pop":1580,"capital":false},{"name":"Un’goofaaru","country":"MV","lat":5.6681,"lng":73.0302,"pop":1575,"capital":false},{"name":"Kudahuvadhoo","country":"MV","lat":2.6708,"lng":72.8944,"pop":1562,"capital":false},{"name":"Veymandoo","country":"MV","lat":2.1877,"lng":73.0956,"pop":1100,"capital":false},{"name":"Muli","country":"MV","lat":2.9217,"lng":73.5811,"pop":1008,"capital":false},{"name":"Felidhoo","country":"MV","lat":3.4718,"lng":73.547,"pop":541,"capital":false},{"name":"Nilandhoo","country":"MV","lat":3.0567,"lng":72.89,"pop":0,"capital":false}]