[{"name":"Baijiantan","country":"CN","lat":45.693,"lng":85.1394,"pop":93697,"capital":false},{"name":"Wensu","country":"CN","lat":41.2755,"lng":80.2361,"pop":83110,"capital":false},{"name":"Wusu","country":"CN","lat":44.4311,"lng":84.6762,"pop":72587,"capital":false},{"name":"Qarasu","country":"CN","lat":44.2028,"lng":80.4164,"pop":71446,"capital":false},{"name":"Xininglu","country":"CN","lat":44.3396,"lng":84.9043,"pop":69361,"capital":false},{"name":"Sandaohezi","country":"CN","lat":44.326,"lng":85.6201,"pop":60129,"capital":false},{"name":"Emin","country":"CN","lat":46.5258,"lng":83.6342,"pop":57782,"capital":false},{"name":"Yuqunweng","country":"CN","lat":43.8744,"lng":81.6206,"pop":46759,"capital":false},{"name":"Altay","country":"KZ","lat":49.7363,"lng":84.2542,"pop":44929,"capital":false},{"name":"Jelilyüzi","country":"CN","lat":43.9749,"lng":81.5356,"pop":37238,"capital":false},{"name":"Dadamtu","country":"CN","lat":43.9803,"lng":81.3142,"pop":36572,"capital":false},{"name":"Zharkent","country":"KZ","lat":44.1662,"lng":80.0074,"pop":34422,"capital":false},{"name":"Ayagoz","country":"KZ","lat":47.9645,"lng":80.4344,"pop":33479,"capital":false},{"name":"Bayandai","country":"CN","lat":43.9659,"lng":81.2485,"pop":33131,"capital":false},{"name":"Huyanghe","country":"CN","lat":44.6984,"lng":84.8336,"pop":29891,"capital":false},{"name":"Ölgii","country":"MN","lat":48.9683,"lng":89.9625,"pop":28400,"capital":false},{"name":"Onyar","country":"CN","lat":43.8504,"lng":81.7831,"pop":26322,"capital":false},{"name":"Panjim","country":"CN","lat":44.0075,"lng":81.4247,"pop":25307,"capital":false},{"name":"Yengitam","country":"CN","lat":43.7458,"lng":81.6569,"pop":24761,"capital":false},{"name":"Kax","country":"CN","lat":43.6411,"lng":81.87,"pop":23543,"capital":false},{"name":"Chapchal","country":"CN","lat":43.8356,"lng":81.1476,"pop":22111,"capital":false},{"name":"Kalbatau","country":"KZ","lat":49.3301,"lng":81.5728,"pop":22047,"capital":false},{"name":"Hoxtolgay","country":"CN","lat":46.5187,"lng":86.0021,"pop":22000,"capital":false},{"name":"Beitun","country":"CN","lat":47.3525,"lng":87.8205,"pop":20414,"capital":false},{"name":"Burqin","country":"CN","lat":47.7028,"lng":86.8638,"pop":20205,"capital":false},{"name":"Arewusitang","country":"CN","lat":43.7977,"lng":81.5244,"pop":19986,"capital":false},{"name":"Fuyun","country":"CN","lat":46.9919,"lng":89.5212,"pop":19772,"capital":false},{"name":"Samuyuzi","country":"CN","lat":43.7195,"lng":81.864,"pop":19621,"capital":false},{"name":"Baytokay","country":"CN","lat":43.6817,"lng":81.7889,"pop":19217,"capital":false},{"name":"Maqanshy","country":"KZ","lat":46.7817,"lng":82.0226,"pop":18754,"capital":false},{"name":"Weiwu'eryuqiwen","country":"CN","lat":43.756,"lng":81.8606,"pop":18669,"capital":false},{"name":"Hudiyuzi","country":"CN","lat":43.9255,"lng":81.4121,"pop":18537,"capital":false},{"name":"Zaysan","country":"KZ","lat":47.4666,"lng":84.8714,"pop":17600,"capital":false},{"name":"Taxkowrük","country":"CN","lat":43.8926,"lng":81.306,"pop":17015,"capital":false},{"name":"Awuliya","country":"CN","lat":43.9303,"lng":81.6932,"pop":15427,"capital":false},{"name":"Dure","country":"CN","lat":46.5119,"lng":88.5339,"pop":15253,"capital":false},{"name":"Oymak","country":"CN","lat":47.8781,"lng":86.9895,"pop":15187,"capital":false},{"name":"Urzhar","country":"KZ","lat":47.093,"lng":81.6294,"pop":14826,"capital":false},{"name":"Turgun","country":"CN","lat":46.9793,"lng":89.8434,"pop":14143,"capital":false},{"name":"Turpanyüzi","country":"CN","lat":43.9987,"lng":81.4786,"pop":13565,"capital":false},{"name":"Mazha","country":"CN","lat":43.8532,"lng":81.937,"pop":12069,"capital":false},{"name":"Dongmazar","country":"CN","lat":43.8314,"lng":81.8506,"pop":11932,"capital":false},{"name":"Qongkur","country":"CN","lat":48.1222,"lng":87.1125,"pop":11850,"capital":false},{"name":"Kalayagaqi","country":"CN","lat":44.058,"lng":81.4761,"pop":11766,"capital":false},{"name":"Aykol","country":"CN","lat":40.9576,"lng":80.1357,"pop":11260,"capital":false},{"name":"Kezilexilike","country":"CN","lat":46.1775,"lng":89.9269,"pop":11077,"capital":false},{"name":"Qulukay","country":"CN","lat":43.9558,"lng":81.6622,"pop":10447,"capital":false},{"name":"Hanbin","country":"CN","lat":43.9385,"lng":81.2614,"pop":10407,"capital":false},{"name":"Ka'erdun","country":"CN","lat":43.908,"lng":81.3434,"pop":10232,"capital":false},{"name":"Kürti","country":"CN","lat":47.2,"lng":89.3053,"pop":10093,"capital":false},{"name":"Alakak","country":"CN","lat":47.7446,"lng":87.4981,"pop":9917,"capital":false},{"name":"Shar","country":"KZ","lat":49.5872,"lng":81.0488,"pop":9087,"capital":false},{"name":"Kurchum","country":"KZ","lat":48.566,"lng":83.6615,"pop":8800,"capital":false},{"name":"Sishilichengzi","country":"CN","lat":41.9619,"lng":86.4767,"pop":8722,"capital":false},{"name":"Alashankou","country":"CN","lat":45.1702,"lng":82.5698,"pop":8525,"capital":false},{"name":"Dulayti","country":"CN","lat":47.7665,"lng":87.0831,"pop":8133,"capital":false},{"name":"Narynkol","country":"KZ","lat":42.7264,"lng":80.175,"pop":7731,"capital":false},{"name":"Kipekyüzi","country":"CN","lat":43.9497,"lng":81.3895,"pop":6972,"capital":false},{"name":"Tughyl","country":"KZ","lat":47.725,"lng":84.2059,"pop":6696,"capital":false},{"name":"Aksuat","country":"KZ","lat":48.7167,"lng":83.7,"pop":6696,"capital":false},{"name":"Novaya Bukhtarma","country":"KZ","lat":49.6287,"lng":83.521,"pop":6026,"capital":false},{"name":"Kosh-Agach","country":"RU","lat":49.9927,"lng":88.676,"pop":5732,"capital":false},{"name":"Asubulak","country":"KZ","lat":49.5403,"lng":82.9947,"pop":5644,"capital":false},{"name":"Baluntaicun","country":"CN","lat":42.6684,"lng":86.3242,"pop":5300,"capital":false},{"name":"Kalabulegen","country":"CN","lat":46.4138,"lng":88.6849,"pop":5261,"capital":false},{"name":"Ulken Naryn","country":"KZ","lat":49.2124,"lng":84.5076,"pop":5236,"capital":false},{"name":"Sadikyüzi","country":"CN","lat":43.9281,"lng":81.5559,"pop":5229,"capital":false},{"name":"Kokpekty","country":"KZ","lat":48.75,"lng":82.4,"pop":5165,"capital":false},{"name":"Koktokay","country":"CN","lat":47.2165,"lng":89.8172,"pop":5120,"capital":false},{"name":"Atameken","country":"KZ","lat":44.2132,"lng":80.2061,"pop":5081,"capital":false},{"name":"Kalaxilike","country":"CN","lat":47.7295,"lng":87.4589,"pop":5035,"capital":false}]