[{"name":"Han’airike","country":"CN","lat":37.5417,"lng":80.1174,"pop":43751,"capital":false},{"name":"Mugala","country":"CN","lat":36.8545,"lng":81.6643,"pop":30179,"capital":false},{"name":"Tawakule","country":"CN","lat":37.7588,"lng":80.2165,"pop":26983,"capital":false},{"name":"Gar","country":"CN","lat":32.5012,"lng":80.0976,"pop":24910,"capital":false},{"name":"Siyeke","country":"CN","lat":36.8853,"lng":81.523,"pop":21862,"capital":false},{"name":"Yisilamu'awati","country":"CN","lat":37.5849,"lng":80.184,"pop":19828,"capital":false},{"name":"Xambabazar","country":"CN","lat":36.8864,"lng":81.5097,"pop":19796,"capital":false},{"name":"Langgar","country":"CN","lat":36.7,"lng":81.5,"pop":19524,"capital":false},{"name":"Qiemo","country":"CN","lat":38.1339,"lng":85.5299,"pop":18893,"capital":false},{"name":"Kokyar","country":"CN","lat":36.819,"lng":81.6333,"pop":18582,"capital":false},{"name":"Oytograk","country":"CN","lat":36.8333,"lng":81.9333,"pop":18271,"capital":false},{"name":"Lop","country":"CN","lat":37.0789,"lng":80.1818,"pop":18127,"capital":false},{"name":"Arix","country":"CN","lat":36.7554,"lng":81.6077,"pop":17941,"capital":false},{"name":"Arele","country":"CN","lat":36.813,"lng":81.6669,"pop":17941,"capital":false},{"name":"Jiayi","country":"CN","lat":36.8548,"lng":81.6355,"pop":17612,"capital":false},{"name":"Tuogerigaizi","country":"CN","lat":36.8484,"lng":81.4713,"pop":14573,"capital":false},{"name":"Karaki","country":"CN","lat":36.9814,"lng":81.2251,"pop":14294,"capital":false},{"name":"Kawake","country":"CN","lat":37.6598,"lng":80.0803,"pop":10992,"capital":false},{"name":"Ruoqiang","country":"CN","lat":39.0197,"lng":88.1663,"pop":9872,"capital":false},{"name":"Yengibag","country":"CN","lat":36.9658,"lng":81.6783,"pop":9070,"capital":false},{"name":"Aqqan","country":"CN","lat":36.4667,"lng":81.9667,"pop":8494,"capital":false},{"name":"Katang Ailieke","country":"CN","lat":38.1528,"lng":85.5178,"pop":8011,"capital":false},{"name":"Bingtuan Sanshiliu Tuan","country":"CN","lat":39.2438,"lng":88.8996,"pop":7600,"capital":false},{"name":"Yingwusitangcun","country":"CN","lat":38.1788,"lng":85.4151,"pop":6233,"capital":false},{"name":"Waxxari","country":"CN","lat":38.6891,"lng":87.3722,"pop":5886,"capital":false},{"name":"Qiongkulecun","country":"CN","lat":38.0934,"lng":85.5377,"pop":5455,"capital":false},{"name":"Tieganlike","country":"CN","lat":39.0291,"lng":88.1903,"pop":5156,"capital":false},{"name":"Burang","country":"CN","lat":30.2956,"lng":81.1751,"pop":5026,"capital":false}]