[{"name":"Gengqing","country":"CN","lat":31.8167,"lng":98.5806,"pop":88542,"capital":false},{"name":"Qamdo","country":"CN","lat":31.1304,"lng":97.1798,"pop":86280,"capital":false},{"name":"Laojunmiao","country":"CN","lat":39.8333,"lng":97.7333,"pop":84769,"capital":false},{"name":"Damxung","country":"CN","lat":30.478,"lng":91.1055,"pop":47900,"capital":false},{"name":"Guōlèmùdé","country":"CN","lat":36.4293,"lng":94.8246,"pop":31941,"capital":false},{"name":"Nagqu","country":"CN","lat":31.4768,"lng":92.0573,"pop":30000,"capital":false},{"name":"Huatugou","country":"CN","lat":38.2554,"lng":90.8679,"pop":27000,"capital":false},{"name":"Mangnai Zhen","country":"CN","lat":38.3855,"lng":90.1555,"pop":18856,"capital":false}]