[{"name":"Usol’ye-Sibirskoye","country":"RU","lat":52.7519,"lng":103.6453,"pop":85900,"capital":false},{"name":"Cheremkhovo","country":"RU","lat":53.1475,"lng":103.0819,"pop":57395,"capital":false},{"name":"Tulun","country":"RU","lat":54.5676,"lng":100.5766,"pop":51330,"capital":false},{"name":"Ust’-Kut","country":"RU","lat":56.7979,"lng":105.7866,"pop":48202,"capital":false},{"name":"Shelekhov","country":"RU","lat":52.2159,"lng":104.0993,"pop":47459,"capital":false},{"name":"Sayansk","country":"RU","lat":54.1129,"lng":102.1777,"pop":43949,"capital":false},{"name":"Zima","country":"RU","lat":53.9202,"lng":102.0442,"pop":33323,"capital":false},{"name":"Zheleznogorsk-Ilimskiy","country":"RU","lat":56.5767,"lng":104.1297,"pop":28456,"capital":false},{"name":"Severobaykal’sk","country":"RU","lat":55.6383,"lng":109.3271,"pop":25800,"capital":false},{"name":"Gusinoozyorsk","country":"RU","lat":51.2833,"lng":106.5,"pop":24083,"capital":false},{"name":"Sühbaatar","country":"MN","lat":50.2314,"lng":106.2078,"pop":22741,"capital":false},{"name":"Vikhorevka","country":"RU","lat":56.1213,"lng":101.1777,"pop":22500,"capital":false},{"name":"Petrovsk-Zabaykal’skiy","country":"RU","lat":51.2758,"lng":108.8471,"pop":19713,"capital":false},{"name":"Slyudyanka","country":"RU","lat":51.6621,"lng":103.71,"pop":18809,"capital":false},{"name":"Kyakhta","country":"RU","lat":50.3496,"lng":106.451,"pop":18431,"capital":false},{"name":"Markova","country":"RU","lat":52.2067,"lng":104.2177,"pop":17756,"capital":false},{"name":"Baykal’sk","country":"RU","lat":51.515,"lng":104.1402,"pop":15600,"capital":false},{"name":"Svirsk","country":"RU","lat":53.0911,"lng":103.3435,"pop":14717,"capital":false},{"name":"Ust’-Ordynskiy","country":"RU","lat":52.8088,"lng":104.7471,"pop":14538,"capital":false},{"name":"Kirensk","country":"RU","lat":57.7756,"lng":108.1154,"pop":13308,"capital":false},{"name":"Selenginsk","country":"RU","lat":52.0064,"lng":106.8647,"pop":13187,"capital":false},{"name":"Zakamensk","country":"RU","lat":50.3763,"lng":103.2871,"pop":12250,"capital":false},{"name":"Novaya Igirma","country":"RU","lat":57.1334,"lng":103.9112,"pop":10681,"capital":false},{"name":"Kuytun","country":"RU","lat":54.3389,"lng":101.5082,"pop":10566,"capital":false},{"name":"Onokhoy","country":"RU","lat":51.9262,"lng":108.0604,"pop":10478,"capital":false},{"name":"Zarechnyy","country":"RU","lat":51.8493,"lng":107.521,"pop":9806,"capital":false},{"name":"Zalari","country":"RU","lat":53.5588,"lng":102.5091,"pop":9781,"capital":false},{"name":"Bichura","country":"RU","lat":50.5901,"lng":107.5977,"pop":9559,"capital":false},{"name":"Meget","country":"RU","lat":52.415,"lng":104.0494,"pop":8370,"capital":false},{"name":"Khorinsk","country":"RU","lat":52.1625,"lng":109.7801,"pop":7986,"capital":false},{"name":"Magistral’nyy","country":"RU","lat":56.1715,"lng":107.4417,"pop":7638,"capital":false},{"name":"Zheleznodorozhnyy","country":"RU","lat":57.9053,"lng":102.7784,"pop":7629,"capital":false},{"name":"Petropavlovka","country":"RU","lat":50.6121,"lng":105.3235,"pop":7582,"capital":false},{"name":"Belorechenskiy","country":"RU","lat":52.812,"lng":103.5239,"pop":7558,"capital":false},{"name":"Mishelevka","country":"RU","lat":52.8575,"lng":103.1719,"pop":7529,"capital":false},{"name":"Mikhaylovka","country":"RU","lat":52.9589,"lng":103.2846,"pop":7410,"capital":false},{"name":"Ust’-Barguzin","country":"RU","lat":53.4112,"lng":109.031,"pop":7195,"capital":false},{"name":"Ivolginsk","country":"RU","lat":51.7452,"lng":107.2844,"pop":7109,"capital":false},{"name":"Kachug","country":"RU","lat":53.9623,"lng":105.8859,"pop":6971,"capital":false},{"name":"Krasnyy Chikoy","country":"RU","lat":50.3639,"lng":108.7559,"pop":6824,"capital":false},{"name":"Kizhinga","country":"RU","lat":51.8485,"lng":109.9067,"pop":6459,"capital":false},{"name":"Markovo","country":"RU","lat":57.3206,"lng":107.0881,"pop":6340,"capital":false},{"name":"Kamensk","country":"RU","lat":51.9831,"lng":106.5848,"pop":6308,"capital":false},{"name":"Turuntayevo","country":"RU","lat":52.202,"lng":107.6429,"pop":6260,"capital":false},{"name":"Kabansk","country":"RU","lat":52.0523,"lng":106.6549,"pop":6257,"capital":false},{"name":"Barguzin","country":"RU","lat":53.617,"lng":109.6319,"pop":6052,"capital":false},{"name":"Sokol","country":"RU","lat":51.8004,"lng":107.4444,"pop":5928,"capital":false},{"name":"Zaigrayevo","country":"RU","lat":51.8312,"lng":108.2594,"pop":5512,"capital":false},{"name":"Mukhorshibir’","country":"RU","lat":51.0499,"lng":107.83,"pop":5500,"capital":false},{"name":"Nizhneangarsk","country":"RU","lat":55.7933,"lng":109.5803,"pop":5493,"capital":false},{"name":"Sredniy","country":"RU","lat":52.8884,"lng":103.4904,"pop":5400,"capital":false},{"name":"Kutulik","country":"RU","lat":53.353,"lng":102.7858,"pop":5390,"capital":false},{"name":"Bokhan","country":"RU","lat":53.1527,"lng":103.7701,"pop":5387,"capital":false},{"name":"Kyren","country":"RU","lat":51.6823,"lng":102.1404,"pop":5334,"capital":false},{"name":"Vydrino","country":"RU","lat":51.463,"lng":104.6425,"pop":5300,"capital":false},{"name":"Zhigalovo","country":"RU","lat":54.8101,"lng":105.1593,"pop":5272,"capital":false},{"name":"Rechka-Vydrino","country":"RU","lat":51.487,"lng":104.848,"pop":5211,"capital":false},{"name":"Ust’-Uda","country":"RU","lat":54.1739,"lng":103.0287,"pop":5169,"capital":false},{"name":"Bada","country":"RU","lat":51.389,"lng":109.8596,"pop":5149,"capital":false},{"name":"Tayturka","country":"RU","lat":52.8692,"lng":103.4608,"pop":5100,"capital":false}]