[{"name":"Dukuhturi","country":"ID","lat":-6.9,"lng":109.0833,"pop":98074,"capital":false},{"name":"Sumber","country":"ID","lat":-6.7603,"lng":108.4831,"pop":96725,"capital":false},{"name":"Wonosobo","country":"ID","lat":-7.3589,"lng":109.9031,"pop":92990,"capital":false},{"name":"Palimanan","country":"ID","lat":-6.7069,"lng":108.4242,"pop":92600,"capital":false},{"name":"Pandeglang","country":"ID","lat":-6.3084,"lng":106.1067,"pop":92316,"capital":false},{"name":"Pariaman","country":"ID","lat":-0.619,"lng":100.12,"pop":92183,"capital":false},{"name":"Caringin","country":"ID","lat":-6.7061,"lng":106.8214,"pop":91845,"capital":false},{"name":"Cicurug","country":"ID","lat":-6.7814,"lng":106.7825,"pop":88965,"capital":false},{"name":"Klangenan","country":"ID","lat":-6.7094,"lng":108.44,"pop":88378,"capital":false},{"name":"Margahayukencana","country":"ID","lat":-6.9708,"lng":107.5675,"pop":83119,"capital":false},{"name":"Serpong","country":"ID","lat":-6.3169,"lng":106.6642,"pop":80193,"capital":false},{"name":"Ciranjang-hilir","country":"ID","lat":-6.82,"lng":107.2572,"pop":77758,"capital":false},{"name":"Karangsembung","country":"ID","lat":-6.8487,"lng":108.6422,"pop":75856,"capital":false},{"name":"Tarub","country":"ID","lat":-6.9333,"lng":109.1667,"pop":75739,"capital":false},{"name":"Solok","country":"ID","lat":-0.8006,"lng":100.6571,"pop":73438,"capital":false},{"name":"Majalengka","country":"ID","lat":-6.8361,"lng":108.2278,"pop":73052,"capital":false},{"name":"Jatibarang","country":"ID","lat":-6.4747,"lng":108.3153,"pop":73010,"capital":false},{"name":"Pagar Alam","country":"ID","lat":-4.0251,"lng":103.2469,"pop":70386,"capital":false},{"name":"Sokaraja","country":"ID","lat":-7.4581,"lng":109.2881,"pop":66482,"capital":false},{"name":"Lahat","country":"ID","lat":-3.7851,"lng":103.5428,"pop":65906,"capital":false},{"name":"Slawi","country":"ID","lat":-6.9816,"lng":109.1407,"pop":61206,"capital":false},{"name":"Padangpanjang","country":"ID","lat":-0.456,"lng":100.4052,"pop":58627,"capital":false},{"name":"Jatiwangi","country":"ID","lat":-6.7336,"lng":108.2628,"pop":57973,"capital":false},{"name":"Purbalingga","country":"ID","lat":-7.3881,"lng":109.3639,"pop":56903,"capital":false},{"name":"Mendaha","country":"ID","lat":-1.0163,"lng":103.5933,"pop":56268,"capital":false},{"name":"Tanjungagung","country":"ID","lat":-3.9373,"lng":103.8047,"pop":53117,"capital":false},{"name":"Terbanggi Besar","country":"ID","lat":-4.879,"lng":105.2182,"pop":52566,"capital":false},{"name":"Comal","country":"ID","lat":-6.9053,"lng":109.5347,"pop":51092,"capital":false},{"name":"Gombong","country":"ID","lat":-7.6072,"lng":109.5142,"pop":50950,"capital":false},{"name":"Kawalu","country":"ID","lat":-7.3817,"lng":108.2082,"pop":50541,"capital":false},{"name":"Singaparna","country":"ID","lat":-7.3515,"lng":108.111,"pop":48882,"capital":false},{"name":"Banyumas","country":"ID","lat":-7.5142,"lng":109.2942,"pop":48378,"capital":false},{"name":"Pameungpeuk","country":"ID","lat":-7.0183,"lng":107.6039,"pop":48294,"capital":false},{"name":"Curup","country":"ID","lat":-3.4703,"lng":102.5207,"pop":46245,"capital":false},{"name":"Ketanggungan","country":"ID","lat":-6.9383,"lng":108.891,"pop":44288,"capital":false},{"name":"Indralaya","country":"ID","lat":-3.2525,"lng":104.6756,"pop":42498,"capital":false},{"name":"Baturaden","country":"ID","lat":-7.3,"lng":109.2167,"pop":42394,"capital":false},{"name":"Kotabumi","country":"ID","lat":-4.825,"lng":104.8817,"pop":42366,"capital":false},{"name":"Rajapolah","country":"ID","lat":-7.221,"lng":108.1896,"pop":39840,"capital":false},{"name":"Wiradesa","country":"ID","lat":-6.8922,"lng":109.619,"pop":39407,"capital":false},{"name":"Manggar","country":"ID","lat":-2.8833,"lng":108.2667,"pop":39135,"capital":false},{"name":"Majenang","country":"ID","lat":-7.2975,"lng":108.7642,"pop":38897,"capital":false},{"name":"Buaran","country":"ID","lat":-7.05,"lng":109.55,"pop":38770,"capital":false},{"name":"Wonopringgo","country":"ID","lat":-6.9833,"lng":109.6167,"pop":38429,"capital":false},{"name":"Simpang","country":"ID","lat":-1.2642,"lng":104.097,"pop":36652,"capital":false},{"name":"Wangon","country":"ID","lat":-7.5161,"lng":109.0539,"pop":35530,"capital":false},{"name":"Kuala Tungkal","country":"ID","lat":-0.8162,"lng":103.4611,"pop":33683,"capital":false},{"name":"Lebaksiu","country":"ID","lat":-7.0496,"lng":109.1441,"pop":33606,"capital":false},{"name":"Labuan","country":"ID","lat":-6.3784,"lng":105.83,"pop":33576,"capital":false},{"name":"Kutoarjo","country":"ID","lat":-7.7169,"lng":109.9128,"pop":31352,"capital":false},{"name":"Karangampel","country":"ID","lat":-6.4622,"lng":108.4519,"pop":31234,"capital":false},{"name":"Sidareja","country":"ID","lat":-7.4846,"lng":108.7923,"pop":30313,"capital":false},{"name":"Utan","country":"ID","lat":-6.1769,"lng":106.9467,"pop":28745,"capital":false},{"name":"Randudongkal","country":"ID","lat":-7.0981,"lng":109.3243,"pop":28532,"capital":false},{"name":"Balapulang","country":"ID","lat":-7.0486,"lng":109.1006,"pop":28483,"capital":false},{"name":"Margasari","country":"ID","lat":-7.0948,"lng":109.025,"pop":27814,"capital":false},{"name":"Sijunjung","country":"ID","lat":-0.7005,"lng":100.9774,"pop":27786,"capital":false},{"name":"Bulakamba","country":"ID","lat":-6.8748,"lng":108.9559,"pop":27367,"capital":false},{"name":"Muntok","country":"ID","lat":-2.0672,"lng":105.1623,"pop":26709,"capital":false},{"name":"Wanaraja","country":"ID","lat":-7.1749,"lng":107.9808,"pop":26240,"capital":false},{"name":"Kroya","country":"ID","lat":-7.6331,"lng":109.2461,"pop":23255,"capital":false},{"name":"Muara Bungo","country":"ID","lat":-1.4902,"lng":102.1149,"pop":21243,"capital":false},{"name":"Leuwiliang","country":"ID","lat":-7.1169,"lng":107.5019,"pop":15275,"capital":false},{"name":"Dabo","country":"ID","lat":-0.4931,"lng":104.5631,"pop":10388,"capital":false},{"name":"Bejubang Dua","country":"ID","lat":-1.7923,"lng":103.3167,"pop":7957,"capital":false},{"name":"Kuala Cenaku","country":"ID","lat":-0.4708,"lng":102.6827,"pop":7000,"capital":false}]