[{"name":"Changping","country":"CN","lat":40.2161,"lng":116.2347,"pop":93174,"capital":false},{"name":"Lingyuan","country":"CN","lat":41.24,"lng":119.4011,"pop":91418,"capital":false},{"name":"Beichengqu","country":"CN","lat":40.4394,"lng":113.1536,"pop":72444,"capital":false},{"name":"Shiguai","country":"CN","lat":40.7058,"lng":110.2856,"pop":70357,"capital":false},{"name":"Pingzhuang","country":"CN","lat":42.0372,"lng":119.2889,"pop":67273,"capital":false},{"name":"Yebaishou","country":"CN","lat":41.3975,"lng":119.6408,"pop":65536,"capital":false},{"name":"Mujiayingzi","country":"CN","lat":42.1167,"lng":118.7833,"pop":60627,"capital":false},{"name":"Manzhouli","country":"CN","lat":49.6,"lng":117.4333,"pop":54808,"capital":false},{"name":"Songlingcun","country":"CN","lat":40.2939,"lng":118.2714,"pop":52277,"capital":false},{"name":"Choibalsan","country":"MN","lat":48.0726,"lng":114.5326,"pop":44835,"capital":false},{"name":"Undurkhaan","country":"MN","lat":47.3194,"lng":110.6556,"pop":22741,"capital":false},{"name":"Saynshand","country":"MN","lat":44.8824,"lng":110.1163,"pop":19891,"capital":false},{"name":"Lingquan","country":"CN","lat":49.4052,"lng":117.677,"pop":18336,"capital":false},{"name":"Baruun-Urt","country":"MN","lat":46.6806,"lng":113.2792,"pop":18190,"capital":false},{"name":"Erenhot","country":"CN","lat":43.6475,"lng":111.9767,"pop":16427,"capital":false},{"name":"Zamiin Uud","country":"MN","lat":43.7193,"lng":111.9078,"pop":11527,"capital":false},{"name":"Zabaykal’sk","country":"RU","lat":49.6514,"lng":117.3267,"pop":10563,"capital":false},{"name":"Badaling","country":"CN","lat":40.364,"lng":115.9851,"pop":10024,"capital":false}]