[{"name":"Krasnokamensk","country":"RU","lat":50.0928,"lng":118.0322,"pop":54316,"capital":false},{"name":"Borzya","country":"RU","lat":50.3914,"lng":116.5336,"pop":30421,"capital":false},{"name":"Aginskoye","country":"RU","lat":51.1075,"lng":114.5417,"pop":17496,"capital":false},{"name":"Bodaybo","country":"RU","lat":57.8535,"lng":114.2041,"pop":15933,"capital":false},{"name":"Nerchinsk","country":"RU","lat":51.9798,"lng":116.5869,"pop":15360,"capital":false},{"name":"Shilka","country":"RU","lat":51.8514,"lng":116.0285,"pop":14132,"capital":false},{"name":"Baley","country":"RU","lat":51.5817,"lng":116.634,"pop":13404,"capital":false},{"name":"Pervomayskiy","country":"RU","lat":51.663,"lng":115.6242,"pop":13141,"capital":false},{"name":"Mogocha","country":"RU","lat":53.7397,"lng":119.7689,"pop":12647,"capital":false},{"name":"Chernyshevsk","country":"RU","lat":52.5223,"lng":117.0175,"pop":12466,"capital":false},{"name":"Karymskoye","country":"RU","lat":51.6268,"lng":114.3368,"pop":11901,"capital":false},{"name":"Atamanovka","country":"RU","lat":51.9293,"lng":113.6439,"pop":10904,"capital":false},{"name":"Khilok","country":"RU","lat":51.3588,"lng":110.4617,"pop":10627,"capital":false},{"name":"Taksimo","country":"RU","lat":56.3454,"lng":114.8943,"pop":10359,"capital":false},{"name":"Sherlovaya Gora","country":"RU","lat":50.5338,"lng":116.3183,"pop":10081,"capital":false},{"name":"Kuanda","country":"RU","lat":56.3269,"lng":116.0931,"pop":9601,"capital":false},{"name":"Novokruchininskiy","country":"RU","lat":51.7714,"lng":113.7999,"pop":9391,"capital":false},{"name":"Yasnogorsk","country":"RU","lat":50.8734,"lng":115.6956,"pop":8873,"capital":false},{"name":"Mogoytuy","country":"RU","lat":51.2876,"lng":114.9318,"pop":8420,"capital":false},{"name":"Olovyannaya","country":"RU","lat":50.9463,"lng":115.5755,"pop":8247,"capital":false},{"name":"Priargunsk","country":"RU","lat":50.3648,"lng":119.0953,"pop":7902,"capital":false},{"name":"Yasnaya","country":"RU","lat":50.8283,"lng":115.8031,"pop":7785,"capital":false},{"name":"Kokuy","country":"RU","lat":52.2082,"lng":117.5534,"pop":7767,"capital":false},{"name":"Darasun","country":"RU","lat":51.6585,"lng":113.9741,"pop":7755,"capital":false},{"name":"Sretensk","country":"RU","lat":52.2488,"lng":117.7089,"pop":7698,"capital":false},{"name":"Gornyi","country":"RU","lat":51.5481,"lng":113.0388,"pop":7411,"capital":false},{"name":"Domna","country":"RU","lat":51.8938,"lng":113.1524,"pop":6576,"capital":false},{"name":"Vershino-Darasunskiy","country":"RU","lat":52.3663,"lng":115.5305,"pop":6451,"capital":false},{"name":"Dul’durga","country":"RU","lat":50.6744,"lng":113.5893,"pop":6382,"capital":false},{"name":"Ulety","country":"RU","lat":51.3559,"lng":112.4843,"pop":6075,"capital":false},{"name":"Kurumkan","country":"RU","lat":54.3209,"lng":110.3065,"pop":5848,"capital":false},{"name":"Sosnovo-Ozërskoye","country":"RU","lat":52.5229,"lng":111.5385,"pop":5840,"capital":false}]