[{"name":"Labuan","country":"MY","lat":5.2803,"lng":115.2475,"pop":95120,"capital":false},{"name":"Marudi","country":"MY","lat":4.1833,"lng":114.3167,"pop":90100,"capital":false},{"name":"Sintang","country":"ID","lat":0.0667,"lng":111.5,"pop":85000,"capital":false},{"name":"Putatan","country":"MY","lat":5.9258,"lng":116.0609,"pop":78340,"capital":false},{"name":"Donggongon","country":"MY","lat":5.907,"lng":116.1015,"pop":78086,"capital":false},{"name":"Keningau","country":"MY","lat":5.3378,"lng":116.1602,"pop":77650,"capital":false},{"name":"Brookes Point","country":"PH","lat":8.772,"lng":117.8371,"pop":76715,"capital":false},{"name":"Tanjung Selor","country":"ID","lat":2.8375,"lng":117.3653,"pop":67837,"capital":false},{"name":"Nunukan","country":"ID","lat":4.1384,"lng":117.6507,"pop":67006,"capital":false},{"name":"Semporna","country":"MY","lat":4.4818,"lng":118.6112,"pop":62641,"capital":false},{"name":"Jose Rizal","country":"PH","lat":8.8772,"lng":117.5042,"pop":59040,"capital":false},{"name":"Serian","country":"MY","lat":1.1667,"lng":110.5667,"pop":58059,"capital":false},{"name":"Bandar Labuan","country":"MY","lat":5.2832,"lng":115.2537,"pop":54752,"capital":false},{"name":"Bau","country":"MY","lat":1.4167,"lng":110.15,"pop":52643,"capital":false},{"name":"Niah","country":"MY","lat":3.862,"lng":113.7152,"pop":48875,"capital":false},{"name":"Sri Aman","country":"MY","lat":1.2472,"lng":111.4528,"pop":47313,"capital":false},{"name":"Sarikei","country":"MY","lat":2.1167,"lng":111.5167,"pop":44039,"capital":false},{"name":"Sengkurong","country":"BN","lat":4.8833,"lng":114.8333,"pop":40972,"capital":false},{"name":"Mentiri","country":"BN","lat":4.9706,"lng":115.0208,"pop":39324,"capital":false},{"name":"Sipitang","country":"MY","lat":5.079,"lng":115.5496,"pop":39300,"capital":false},{"name":"Limbang","country":"MY","lat":4.7548,"lng":115.0101,"pop":38093,"capital":false},{"name":"Betong","country":"MY","lat":1.4,"lng":111.5167,"pop":36303,"capital":false},{"name":"Petagas","country":"MY","lat":5.9116,"lng":116.0499,"pop":35844,"capital":false},{"name":"Sibu Jaya","country":"MY","lat":2.2403,"lng":111.9714,"pop":35000,"capital":false},{"name":"Mukah","country":"MY","lat":2.8944,"lng":112.0915,"pop":33478,"capital":false},{"name":"Kapit","country":"MY","lat":1.9955,"lng":112.9325,"pop":33014,"capital":false},{"name":"Kudat","country":"MY","lat":6.8873,"lng":116.8236,"pop":32393,"capital":false},{"name":"Tatau","country":"MY","lat":2.8833,"lng":112.85,"pop":31920,"capital":false},{"name":"Bandar Nabawan","country":"MY","lat":5.0393,"lng":116.4274,"pop":31807,"capital":false},{"name":"Kuala Belait","country":"BN","lat":4.5836,"lng":114.2312,"pop":31178,"capital":false},{"name":"Seria","country":"BN","lat":4.6064,"lng":114.3248,"pop":30097,"capital":false},{"name":"Sebauh","country":"MY","lat":3.1167,"lng":113.2667,"pop":29606,"capital":false},{"name":"Tambunan","country":"MY","lat":5.7167,"lng":116.4,"pop":29294,"capital":false},{"name":"Mapun","country":"PH","lat":6.9747,"lng":118.5144,"pop":29218,"capital":false},{"name":"Beluru","country":"MY","lat":3.9833,"lng":114.1,"pop":28695,"capital":false},{"name":"Narra","country":"PH","lat":9.2688,"lng":118.4043,"pop":28342,"capital":false},{"name":"Siburan","country":"MY","lat":1.3667,"lng":110.4,"pop":27286,"capital":false},{"name":"Bongao","country":"PH","lat":5.0292,"lng":119.7731,"pop":26518,"capital":false},{"name":"Lawas","country":"MY","lat":4.8604,"lng":115.409,"pop":26002,"capital":false},{"name":"Malinau","country":"ID","lat":3.5886,"lng":116.6239,"pop":25596,"capital":false},{"name":"Tebedu","country":"MY","lat":1.0266,"lng":110.3633,"pop":25232,"capital":false},{"name":"Kanowit","country":"MY","lat":2.1,"lng":112.15,"pop":24700,"capital":false},{"name":"Kuala Penyu","country":"MY","lat":5.5714,"lng":115.5984,"pop":24200,"capital":false},{"name":"Simunjan","country":"MY","lat":1.3833,"lng":110.75,"pop":23011,"capital":false},{"name":"Belaga","country":"MY","lat":2.7,"lng":113.7833,"pop":22502,"capital":false},{"name":"Dalat","country":"MY","lat":2.6667,"lng":112.0833,"pop":21147,"capital":false},{"name":"Maradong","country":"MY","lat":2.0833,"lng":111.6167,"pop":20299,"capital":false},{"name":"Selangau","country":"MY","lat":2.5248,"lng":112.3254,"pop":19844,"capital":false},{"name":"Daro","country":"MY","lat":2.5169,"lng":111.43,"pop":19477,"capital":false},{"name":"Ranau","country":"MY","lat":5.9538,"lng":116.6641,"pop":19294,"capital":false},{"name":"Papar","country":"MY","lat":5.7333,"lng":115.9333,"pop":19278,"capital":false},{"name":"Tutong","country":"BN","lat":4.8028,"lng":114.6492,"pop":19151,"capital":false},{"name":"Saratok","country":"MY","lat":1.7333,"lng":111.3333,"pop":19009,"capital":false},{"name":"Serasa","country":"BN","lat":5.0176,"lng":115.058,"pop":18569,"capital":false},{"name":"Sitangkai","country":"PH","lat":4.6612,"lng":119.3965,"pop":17200,"capital":false},{"name":"Liang","country":"BN","lat":4.6775,"lng":114.4959,"pop":16813,"capital":false},{"name":"Beaufort","country":"MY","lat":5.3473,"lng":115.7455,"pop":15855,"capital":false},{"name":"Kinarut","country":"MY","lat":5.8231,"lng":116.0466,"pop":15716,"capital":false},{"name":"Pakan","country":"MY","lat":1.8833,"lng":111.6833,"pop":15462,"capital":false},{"name":"Julau","country":"MY","lat":2.0167,"lng":111.9167,"pop":15333,"capital":false},{"name":"Engkilili","country":"MY","lat":1.1386,"lng":111.6667,"pop":15031,"capital":false},{"name":"Pusa","country":"MY","lat":1.5833,"lng":111.25,"pop":14273,"capital":false},{"name":"Kampung Kunak","country":"MY","lat":4.6858,"lng":118.2491,"pop":13823,"capital":false},{"name":"Perumahan Negara Panchor","country":"BN","lat":4.9667,"lng":115.0167,"pop":13358,"capital":false},{"name":"Matu","country":"MY","lat":2.6833,"lng":111.5333,"pop":13327,"capital":false},{"name":"Telisai","country":"BN","lat":4.7356,"lng":114.5632,"pop":13253,"capital":false},{"name":"Telamba","country":"BN","lat":4.7296,"lng":114.5668,"pop":13253,"capital":false},{"name":"Sebuyau","country":"MY","lat":1.5167,"lng":110.9333,"pop":13200,"capital":false},{"name":"Kota Belud","country":"MY","lat":6.351,"lng":116.4305,"pop":12825,"capital":false},{"name":"Kota Samarahan","country":"MY","lat":1.4603,"lng":110.4882,"pop":12724,"capital":false},{"name":"Kota Batu","country":"BN","lat":4.8833,"lng":114.95,"pop":12676,"capital":false},{"name":"Magsaysay","country":"PH","lat":9.3859,"lng":118.5133,"pop":12603,"capital":false},{"name":"Kampung Tanah Jambu","country":"BN","lat":4.9922,"lng":114.998,"pop":11695,"capital":false},{"name":"Kobang","country":"MY","lat":4.4419,"lng":118.6929,"pop":11682,"capital":false},{"name":"Pengkalan Batu","country":"BN","lat":4.7833,"lng":114.8333,"pop":11560,"capital":false},{"name":"Kampung Kundassang","country":"MY","lat":5.9824,"lng":116.5712,"pop":11251,"capital":false},{"name":"Spaoh","country":"MY","lat":1.5,"lng":111.5,"pop":11063,"capital":false},{"name":"Panacan","country":"PH","lat":9.2463,"lng":118.4082,"pop":10526,"capital":false},{"name":"Kampung Panaga","country":"BN","lat":4.6082,"lng":114.2957,"pop":10301,"capital":false},{"name":"Kinabatangan","country":"MY","lat":5.586,"lng":117.8508,"pop":10256,"capital":false},{"name":"Kampong Ayer","country":"BN","lat":4.8827,"lng":114.9449,"pop":10250,"capital":false},{"name":"Taman Rajawali","country":"MY","lat":5.8948,"lng":118.0458,"pop":10000,"capital":false},{"name":"Song","country":"MY","lat":2.0167,"lng":112.55,"pop":9961,"capital":false},{"name":"Balabac","country":"PH","lat":7.9836,"lng":117.0487,"pop":9881,"capital":false},{"name":"Pantu","country":"MY","lat":1.1397,"lng":111.1177,"pop":9852,"capital":false},{"name":"Lubok Antu","country":"MY","lat":1.0419,"lng":111.834,"pop":9542,"capital":false},{"name":"Kampong Meragang","country":"BN","lat":4.9333,"lng":114.9167,"pop":9190,"capital":false},{"name":"Rio Tuba","country":"PH","lat":8.5061,"lng":117.4317,"pop":8944,"capital":false},{"name":"New Batu Batu","country":"PH","lat":5.0667,"lng":119.8833,"pop":8881,"capital":false},{"name":"Balingian","country":"MY","lat":2.9306,"lng":112.5414,"pop":8797,"capital":false},{"name":"Bandau","country":"MY","lat":6.5205,"lng":116.7534,"pop":8716,"capital":false},{"name":"Keriam","country":"BN","lat":4.816,"lng":114.6941,"pop":8589,"capital":false},{"name":"Tampakan","country":"PH","lat":4.9228,"lng":119.7939,"pop":8306,"capital":false},{"name":"Lumapas","country":"BN","lat":4.85,"lng":114.9167,"pop":8058,"capital":false},{"name":"Binatang","country":"MY","lat":2.1667,"lng":111.6333,"pop":7912,"capital":false},{"name":"Debak","country":"MY","lat":1.5667,"lng":111.4167,"pop":7907,"capital":false},{"name":"Quezon","country":"PH","lat":9.2411,"lng":118.0314,"pop":7860,"capital":false},{"name":"Kampong Lambak A","country":"BN","lat":4.9661,"lng":114.943,"pop":7293,"capital":false},{"name":"Panitian","country":"PH","lat":9.0965,"lng":118.0864,"pop":7258,"capital":false},{"name":"Pañgobilian","country":"PH","lat":8.8011,"lng":117.8594,"pop":7178,"capital":false},{"name":"Kampung Mata-Mata","country":"BN","lat":4.9034,"lng":114.8962,"pop":7159,"capital":false},{"name":"Balimbing","country":"PH","lat":5.0825,"lng":119.9658,"pop":7102,"capital":false},{"name":"Nanga Medamit","country":"MY","lat":4.4667,"lng":114.9167,"pop":6968,"capital":false},{"name":"Sundar","country":"MY","lat":4.8895,"lng":115.2075,"pop":6806,"capital":false},{"name":"Roban","country":"MY","lat":1.9167,"lng":111.3333,"pop":6722,"capital":false},{"name":"Kampung Beribi","country":"BN","lat":4.8835,"lng":114.8949,"pop":6490,"capital":false},{"name":"Batarasa","country":"PH","lat":8.6733,"lng":117.628,"pop":6169,"capital":false},{"name":"Sungai Hanching","country":"BN","lat":4.9681,"lng":114.9775,"pop":6129,"capital":false},{"name":"San Jose","country":"PH","lat":9.8006,"lng":118.7569,"pop":6079,"capital":false},{"name":"Oya","country":"MY","lat":2.8667,"lng":111.8833,"pop":6027,"capital":false},{"name":"Kampong Mulaut","country":"BN","lat":4.8667,"lng":114.8333,"pop":5981,"capital":false},{"name":"Long Lama","country":"MY","lat":3.7667,"lng":114.4,"pop":5870,"capital":false},{"name":"Kampung Lugu","country":"BN","lat":4.8749,"lng":114.8049,"pop":5795,"capital":false},{"name":"Bongawan","country":"MY","lat":5.5333,"lng":115.85,"pop":5594,"capital":false},{"name":"Sanga-Sanga","country":"PH","lat":5.0725,"lng":119.7853,"pop":5295,"capital":false},{"name":"Kampung Rimba","country":"BN","lat":4.9411,"lng":114.9061,"pop":5284,"capital":false},{"name":"Maludam","country":"MY","lat":1.65,"lng":111.0333,"pop":5284,"capital":false},{"name":"Eraan","country":"PH","lat":9.0629,"lng":117.7016,"pop":5262,"capital":false},{"name":"Conduaga","country":"PH","lat":8.862,"lng":117.4893,"pop":5164,"capital":false},{"name":"Tenom","country":"MY","lat":5.1192,"lng":115.9372,"pop":5148,"capital":false},{"name":"Ipilan","country":"PH","lat":8.8431,"lng":117.9033,"pop":5076,"capital":false},{"name":"Kiudang","country":"BN","lat":4.75,"lng":114.7333,"pop":5063,"capital":false},{"name":"Bangar","country":"BN","lat":4.7086,"lng":115.0717,"pop":3970,"capital":false}]