[{"name":"Markha","country":"RU","lat":62.1145,"lng":129.744,"pop":11648,"capital":false},{"name":"Vilyuysk","country":"RU","lat":63.7514,"lng":121.6329,"pop":9948,"capital":false},{"name":"Pokrovsk","country":"RU","lat":61.4792,"lng":129.1386,"pop":9763,"capital":false},{"name":"Olyokminsk","country":"RU","lat":60.3743,"lng":120.4203,"pop":8813,"capital":false},{"name":"Zhatay","country":"RU","lat":62.1626,"lng":129.8341,"pop":8131,"capital":false},{"name":"Namtsy","country":"RU","lat":62.7241,"lng":129.6661,"pop":7980,"capital":false},{"name":"Mokhsogollokh","country":"RU","lat":61.3962,"lng":128.9381,"pop":6947,"capital":false},{"name":"Verkhnevilyuysk","country":"RU","lat":63.4457,"lng":120.3081,"pop":6341,"capital":false},{"name":"Berdigestyakh","country":"RU","lat":62.098,"lng":126.7021,"pop":5948,"capital":false}]