[{"name":"Genhe","country":"CN","lat":50.7833,"lng":121.5167,"pop":73631,"capital":false},{"name":"Belogorsk","country":"RU","lat":50.9124,"lng":128.5124,"pop":67911,"capital":false},{"name":"Neryungri","country":"RU","lat":56.6584,"lng":124.725,"pop":66320,"capital":false},{"name":"Oroqen Zizhiqi","country":"CN","lat":50.5667,"lng":123.7167,"pop":61582,"capital":false},{"name":"Svobodnyy","country":"RU","lat":51.375,"lng":128.1401,"pop":61017,"capital":false},{"name":"Tahe","country":"CN","lat":52.3215,"lng":124.6976,"pop":60874,"capital":false},{"name":"E’erguna","country":"CN","lat":50.2236,"lng":120.1709,"pop":42435,"capital":false},{"name":"Xilinji","country":"CN","lat":52.9906,"lng":123.2352,"pop":39310,"capital":false},{"name":"Tynda","country":"RU","lat":55.1494,"lng":124.7368,"pop":37335,"capital":false},{"name":"Zeya","country":"RU","lat":53.7359,"lng":127.256,"pop":26999,"capital":false},{"name":"Aldan","country":"RU","lat":58.6123,"lng":125.4,"pop":24426,"capital":false},{"name":"Xinlin","country":"CN","lat":51.6667,"lng":124.4,"pop":23533,"capital":false},{"name":"Shimanovsk","country":"RU","lat":52.0032,"lng":127.6762,"pop":21466,"capital":false},{"name":"Tuqiang","country":"CN","lat":52.9,"lng":122.7667,"pop":20056,"capital":false},{"name":"Chigiri","country":"RU","lat":50.3357,"lng":127.5121,"pop":18538,"capital":false},{"name":"Zavitinsk","country":"RU","lat":50.1111,"lng":129.4404,"pop":13198,"capital":false},{"name":"Seryshevo","country":"RU","lat":51.094,"lng":128.3813,"pop":11794,"capital":false},{"name":"Magdagachi","country":"RU","lat":53.4524,"lng":125.8074,"pop":11739,"capital":false},{"name":"Amu’er Jingtao Shequ","country":"CN","lat":52.8612,"lng":123.149,"pop":10811,"capital":false},{"name":"Chul’man","country":"RU","lat":56.8474,"lng":124.9081,"pop":10220,"capital":false},{"name":"Yekaterinoslavka","country":"RU","lat":50.3737,"lng":129.1107,"pop":10178,"capital":false},{"name":"Skovorodino","country":"RU","lat":53.9837,"lng":123.9401,"pop":10007,"capital":false},{"name":"Tommot","country":"RU","lat":58.9572,"lng":126.2916,"pop":9034,"capital":false},{"name":"Tambovka","country":"RU","lat":50.0995,"lng":128.0583,"pop":7834,"capital":false},{"name":"Tsiolkovskiy","country":"RU","lat":51.7687,"lng":128.1202,"pop":7194,"capital":false},{"name":"Nizhniy Kuranakh","country":"RU","lat":58.8238,"lng":125.5228,"pop":6798,"capital":false},{"name":"Pangu","country":"CN","lat":52.7167,"lng":123.8167,"pop":6257,"capital":false},{"name":"Srednebelaya","country":"RU","lat":50.6589,"lng":128.0113,"pop":6148,"capital":false},{"name":"Yerofey Pavlovich","country":"RU","lat":53.9611,"lng":121.9576,"pop":5409,"capital":false},{"name":"Hanjiayuan","country":"CN","lat":52.0634,"lng":125.7312,"pop":5107,"capital":false}]