[{"name":"Bocaue","country":"PH","lat":14.7983,"lng":120.9261,"pop":98649,"capital":false},{"name":"Catarman","country":"PH","lat":12.4989,"lng":124.6377,"pop":97738,"capital":false},{"name":"Escalante","country":"PH","lat":10.8403,"lng":123.4992,"pop":97050,"capital":false},{"name":"General Trias","country":"PH","lat":14.3869,"lng":120.8817,"pop":96022,"capital":false},{"name":"Daanbantayan","country":"PH","lat":11.2468,"lng":124.0146,"pop":95080,"capital":false},{"name":"Kalibo","country":"PH","lat":11.7061,"lng":122.3644,"pop":93218,"capital":false},{"name":"Banco Filipino Homes","country":"PH","lat":14.4338,"lng":121.0223,"pop":92752,"capital":false},{"name":"Sablayan","country":"PH","lat":12.8346,"lng":120.769,"pop":91406,"capital":false},{"name":"Calauan","country":"PH","lat":14.1499,"lng":121.3152,"pop":89670,"capital":false},{"name":"Polangui","country":"PH","lat":13.2923,"lng":123.4855,"pop":89176,"capital":false},{"name":"Calabanga","country":"PH","lat":13.7068,"lng":123.2087,"pop":88918,"capital":false},{"name":"Mangaldan","country":"PH","lat":16.07,"lng":120.4025,"pop":88818,"capital":false},{"name":"Arayat","country":"PH","lat":15.1505,"lng":120.7697,"pop":87987,"capital":false},{"name":"Tagaytay","country":"PH","lat":14.0953,"lng":120.9336,"pop":87811,"capital":false},{"name":"Bantayan","country":"PH","lat":11.1683,"lng":123.7223,"pop":87394,"capital":false},{"name":"Victorias","country":"PH","lat":10.9015,"lng":123.0705,"pop":86510,"capital":false},{"name":"Muñoz","country":"PH","lat":15.7161,"lng":120.9031,"pop":85061,"capital":false},{"name":"Binonga","country":"PH","lat":10.7719,"lng":122.9817,"pop":83980,"capital":false},{"name":"Marilao","country":"PH","lat":14.7578,"lng":120.9483,"pop":83276,"capital":false},{"name":"Bulacan","country":"PH","lat":14.7928,"lng":120.8789,"pop":83101,"capital":false},{"name":"San Fernando","country":"PH","lat":16.6159,"lng":120.3166,"pop":83003,"capital":false},{"name":"Pagbilao","country":"PH","lat":13.9669,"lng":121.6984,"pop":82132,"capital":false},{"name":"Limay","country":"PH","lat":14.5619,"lng":120.5983,"pop":81960,"capital":false},{"name":"Bustos","country":"PH","lat":14.9581,"lng":120.9178,"pop":80565,"capital":false},{"name":"Paco","country":"PH","lat":14.588,"lng":120.993,"pop":79839,"capital":false},{"name":"Bamban","country":"PH","lat":15.2739,"lng":120.5668,"pop":78260,"capital":false},{"name":"Daet","country":"PH","lat":14.1122,"lng":122.9553,"pop":78142,"capital":false},{"name":"Bauang","country":"PH","lat":16.5308,"lng":120.3331,"pop":77670,"capital":false},{"name":"Bagong Barrio","country":"PH","lat":14.6664,"lng":120.9932,"pop":77490,"capital":false},{"name":"Virac","country":"PH","lat":13.5848,"lng":124.2374,"pop":75135,"capital":false},{"name":"Alicia","country":"PH","lat":16.7794,"lng":121.6973,"pop":74699,"capital":false},{"name":"Kawit","country":"PH","lat":14.4443,"lng":120.9016,"pop":73210,"capital":false},{"name":"Balanga","country":"PH","lat":14.6761,"lng":120.5361,"pop":72954,"capital":false},{"name":"Port Area","country":"PH","lat":14.5895,"lng":120.967,"pop":72605,"capital":false},{"name":"Sagay","country":"PH","lat":10.9447,"lng":123.4242,"pop":72153,"capital":false},{"name":"La Paz","country":"PH","lat":15.4413,"lng":120.7286,"pop":71978,"capital":false},{"name":"Solana","country":"PH","lat":17.6528,"lng":121.691,"pop":71475,"capital":false},{"name":"Borongan","country":"PH","lat":11.6081,"lng":125.4319,"pop":71431,"capital":false},{"name":"Danao","country":"PH","lat":10.5208,"lng":124.0272,"pop":70270,"capital":false},{"name":"Mauban","country":"PH","lat":14.191,"lng":121.7309,"pop":70135,"capital":false},{"name":"Indang","country":"PH","lat":14.1953,"lng":120.8769,"pop":70092,"capital":false},{"name":"Bongabon","country":"PH","lat":15.6321,"lng":121.1448,"pop":69376,"capital":false},{"name":"San Leonardo","country":"PH","lat":15.363,"lng":120.9639,"pop":69180,"capital":false},{"name":"Calauag","country":"PH","lat":13.9575,"lng":122.288,"pop":68999,"capital":false},{"name":"Magalang","country":"PH","lat":15.2151,"lng":120.6596,"pop":68988,"capital":false},{"name":"Libon","country":"PH","lat":13.2997,"lng":123.4386,"pop":68846,"capital":false},{"name":"Tanauan","country":"PH","lat":14.0863,"lng":121.1498,"pop":68456,"capital":false},{"name":"Aparri","country":"PH","lat":18.3566,"lng":121.6406,"pop":68368,"capital":false},{"name":"Calbayog City","country":"PH","lat":12.0668,"lng":124.5962,"pop":67921,"capital":false},{"name":"Angat","country":"PH","lat":14.9285,"lng":121.03,"pop":67862,"capital":false},{"name":"La Carlota","country":"PH","lat":10.4242,"lng":122.9212,"pop":67740,"capital":false},{"name":"Subic","country":"PH","lat":14.8787,"lng":120.2319,"pop":67664,"capital":false},{"name":"Rosales","country":"PH","lat":15.8944,"lng":120.6328,"pop":67510,"capital":false},{"name":"Dinalupihan","country":"PH","lat":14.8783,"lng":120.4522,"pop":66670,"capital":false},{"name":"Calapan","country":"PH","lat":13.4117,"lng":121.1803,"pop":66008,"capital":false},{"name":"San Ildefonso","country":"PH","lat":15.0809,"lng":120.941,"pop":65669,"capital":false},{"name":"San Miguel","country":"PH","lat":15.1423,"lng":120.9757,"pop":65661,"capital":false},{"name":"Villasis","country":"PH","lat":15.9017,"lng":120.5883,"pop":65086,"capital":false},{"name":"Oas","country":"PH","lat":13.2593,"lng":123.4963,"pop":64890,"capital":false},{"name":"Talavera","country":"PH","lat":15.5883,"lng":120.9192,"pop":64610,"capital":false},{"name":"Enrique B. Magalona","country":"PH","lat":10.8788,"lng":122.9771,"pop":64290,"capital":false},{"name":"Pateros","country":"PH","lat":14.5391,"lng":121.0726,"pop":63840,"capital":false},{"name":"Orion","country":"PH","lat":14.6206,"lng":120.5817,"pop":63044,"capital":false},{"name":"Nasugbu","country":"PH","lat":14.0669,"lng":120.6318,"pop":62857,"capital":false},{"name":"Tinongan","country":"PH","lat":10.215,"lng":123.0353,"pop":62146,"capital":false},{"name":"Minglanilla","country":"PH","lat":10.245,"lng":123.7964,"pop":62058,"capital":false},{"name":"Tunasan","country":"PH","lat":14.3792,"lng":121.0525,"pop":61374,"capital":false},{"name":"Gubat","country":"PH","lat":12.9206,"lng":124.1231,"pop":61095,"capital":false},{"name":"Ualog","country":"PH","lat":10.574,"lng":123.3933,"pop":60548,"capital":false},{"name":"Cogan","country":"PH","lat":10.5931,"lng":124.0178,"pop":60230,"capital":false},{"name":"Bambang","country":"PH","lat":16.3865,"lng":121.1066,"pop":60146,"capital":false},{"name":"Tanay","country":"PH","lat":14.4968,"lng":121.2846,"pop":59950,"capital":false},{"name":"Obando","country":"PH","lat":14.7098,"lng":120.9362,"pop":59929,"capital":false},{"name":"Balagtas","country":"PH","lat":14.8167,"lng":120.8667,"pop":59826,"capital":false},{"name":"Itogon","country":"PH","lat":16.3639,"lng":120.6769,"pop":59736,"capital":false},{"name":"Manaoag","country":"PH","lat":16.0438,"lng":120.4861,"pop":59115,"capital":false},{"name":"Paombong","country":"PH","lat":14.8311,"lng":120.7892,"pop":58453,"capital":false},{"name":"Tabaco","country":"PH","lat":13.3586,"lng":123.7336,"pop":57860,"capital":false},{"name":"Cupang","country":"PH","lat":14.4341,"lng":121.0362,"pop":57482,"capital":false},{"name":"Santo Tomas","country":"PH","lat":14.1079,"lng":121.1414,"pop":57438,"capital":false},{"name":"Batac City","country":"PH","lat":18.0554,"lng":120.5649,"pop":56781,"capital":false},{"name":"Lingayen","country":"PH","lat":16.0218,"lng":120.2319,"pop":56580,"capital":false},{"name":"Lubao","country":"PH","lat":14.9405,"lng":120.6011,"pop":55645,"capital":false},{"name":"Naic","country":"PH","lat":14.3181,"lng":120.7661,"pop":55195,"capital":false},{"name":"Estancia","country":"PH","lat":11.4551,"lng":123.152,"pop":54882,"capital":false},{"name":"Burauen","country":"PH","lat":10.9756,"lng":124.8928,"pop":54635,"capital":false},{"name":"Sibonga","country":"PH","lat":10.0168,"lng":123.6171,"pop":54610,"capital":false},{"name":"Mercedes","country":"PH","lat":14.1093,"lng":123.0109,"pop":53702,"capital":false},{"name":"Zaragoza","country":"PH","lat":15.449,"lng":120.7963,"pop":53090,"capital":false},{"name":"Patuto","country":"PH","lat":14.1167,"lng":120.9667,"pop":52883,"capital":false},{"name":"Victoria","country":"PH","lat":13.1772,"lng":121.2781,"pop":52215,"capital":false},{"name":"Cardona","country":"PH","lat":14.4865,"lng":121.2275,"pop":51493,"capital":false},{"name":"Balayan","country":"PH","lat":13.9371,"lng":120.7322,"pop":50115,"capital":false},{"name":"Cabiao","country":"PH","lat":15.2488,"lng":120.8548,"pop":49980,"capital":false},{"name":"Morong","country":"PH","lat":14.5185,"lng":121.2378,"pop":49589,"capital":false},{"name":"Liloan","country":"PH","lat":10.3991,"lng":123.9992,"pop":49198,"capital":false},{"name":"Consolacion","country":"PH","lat":10.3766,"lng":123.9573,"pop":48638,"capital":false},{"name":"Vigan","country":"PH","lat":17.5747,"lng":120.3869,"pop":48545,"capital":false},{"name":"Inabanga","country":"PH","lat":10.0307,"lng":124.0671,"pop":48534,"capital":false},{"name":"Bangued","country":"PH","lat":17.6083,"lng":120.6381,"pop":48331,"capital":false},{"name":"Bayombong","country":"PH","lat":16.4812,"lng":121.1497,"pop":48199,"capital":false},{"name":"Masbate","country":"PH","lat":12.3717,"lng":123.6249,"pop":47490,"capital":false},{"name":"Upper Bicutan","country":"PH","lat":14.4996,"lng":121.0507,"pop":47397,"capital":false},{"name":"Candaba","country":"PH","lat":15.0956,"lng":120.8267,"pop":47326,"capital":false},{"name":"Santa Ana","country":"PH","lat":15.0955,"lng":120.767,"pop":47158,"capital":false},{"name":"Noveleta","country":"PH","lat":14.4292,"lng":120.8799,"pop":46172,"capital":false},{"name":"Vinzons","country":"PH","lat":14.1737,"lng":122.9066,"pop":45173,"capital":false},{"name":"Sariaya","country":"PH","lat":13.9624,"lng":121.5265,"pop":44977,"capital":false},{"name":"Orani","country":"PH","lat":14.8006,"lng":120.5371,"pop":44877,"capital":false},{"name":"Canlaon","country":"PH","lat":10.387,"lng":123.2227,"pop":44851,"capital":false},{"name":"Amadeo","country":"PH","lat":14.1706,"lng":120.9236,"pop":44190,"capital":false},{"name":"Binmaley","country":"PH","lat":16.0323,"lng":120.269,"pop":44026,"capital":false},{"name":"Mexico","country":"PH","lat":15.0646,"lng":120.7198,"pop":43694,"capital":false},{"name":"Pinamalayan","country":"PH","lat":13.046,"lng":121.4621,"pop":43521,"capital":false},{"name":"Passi","country":"PH","lat":11.1078,"lng":122.6419,"pop":42794,"capital":false},{"name":"Maragondon","country":"PH","lat":14.2733,"lng":120.7377,"pop":41977,"capital":false},{"name":"Masantol","country":"PH","lat":14.896,"lng":120.7092,"pop":41278,"capital":false},{"name":"Malilipot","country":"PH","lat":13.3188,"lng":123.7385,"pop":41066,"capital":false},{"name":"Gerona","country":"PH","lat":15.6065,"lng":120.5978,"pop":40914,"capital":false},{"name":"Samal","country":"PH","lat":14.7678,"lng":120.5431,"pop":40843,"capital":false},{"name":"Carcar","country":"PH","lat":10.1061,"lng":123.6402,"pop":40739,"capital":false},{"name":"Mamatid","country":"PH","lat":14.2349,"lng":121.159,"pop":40271,"capital":false},{"name":"Taal","country":"PH","lat":13.8799,"lng":120.9231,"pop":39745,"capital":false},{"name":"Jaen","country":"PH","lat":15.3275,"lng":120.9192,"pop":39700,"capital":false},{"name":"Camiling","country":"PH","lat":15.6866,"lng":120.4128,"pop":39655,"capital":false},{"name":"Hinigaran","country":"PH","lat":10.2706,"lng":122.8507,"pop":39636,"capital":false},{"name":"San Pascual","country":"PH","lat":13.8105,"lng":121.022,"pop":39395,"capital":false},{"name":"Pantubig","country":"PH","lat":14.9681,"lng":120.9547,"pop":39285,"capital":false},{"name":"Talipapa","country":"PH","lat":14.6857,"lng":121.0269,"pop":39244,"capital":false},{"name":"Papaya","country":"PH","lat":15.3202,"lng":120.8357,"pop":38640,"capital":false},{"name":"San Antonio","country":"PH","lat":14.9466,"lng":120.0867,"pop":38617,"capital":false},{"name":"Binalbagan","country":"PH","lat":10.1948,"lng":122.8581,"pop":38587,"capital":false},{"name":"Bayanan","country":"PH","lat":14.4078,"lng":121.05,"pop":38358,"capital":false},{"name":"Calaca","country":"PH","lat":13.9324,"lng":120.8133,"pop":37443,"capital":false},{"name":"Del Pilar","country":"PH","lat":15.036,"lng":120.6994,"pop":37329,"capital":false},{"name":"Pandan","country":"PH","lat":11.7448,"lng":122.1003,"pop":37325,"capital":false},{"name":"Bantay","country":"PH","lat":17.5847,"lng":120.3892,"pop":37088,"capital":false},{"name":"Mendez-Nuñez","country":"PH","lat":14.1286,"lng":120.9058,"pop":36518,"capital":false},{"name":"Ramon","country":"PH","lat":16.7842,"lng":121.535,"pop":36307,"capital":false},{"name":"Solano","country":"PH","lat":16.5192,"lng":121.1812,"pop":36222,"capital":false},{"name":"Bel Air","country":"PH","lat":14.5594,"lng":121.0258,"pop":36007,"capital":false},{"name":"Tagudin","country":"PH","lat":16.9355,"lng":120.4442,"pop":35791,"capital":false},{"name":"San Jose","country":"PH","lat":13.35,"lng":123.55,"pop":35768,"capital":false},{"name":"Abucay","country":"PH","lat":14.7335,"lng":120.5336,"pop":35508,"capital":false},{"name":"Jalajala","country":"PH","lat":14.353,"lng":121.3225,"pop":34901,"capital":false},{"name":"Teresa","country":"PH","lat":14.5612,"lng":121.2195,"pop":34716,"capital":false},{"name":"Pila","country":"PH","lat":14.2325,"lng":121.3648,"pop":34383,"capital":false},{"name":"Manapla","country":"PH","lat":10.958,"lng":123.123,"pop":34312,"capital":false},{"name":"San Nicolas","country":"PH","lat":18.1725,"lng":120.5953,"pop":34237,"capital":false},{"name":"Aliaga","country":"PH","lat":15.5,"lng":120.843,"pop":34020,"capital":false},{"name":"Baclaran","country":"PH","lat":14.5319,"lng":120.9942,"pop":33850,"capital":false},{"name":"Hermosa","country":"PH","lat":14.8314,"lng":120.5081,"pop":33714,"capital":false},{"name":"Bauan","country":"PH","lat":13.7917,"lng":121.0085,"pop":33560,"capital":false},{"name":"Bay","country":"PH","lat":14.1837,"lng":121.2855,"pop":33547,"capital":false},{"name":"Jetafe","country":"PH","lat":10.1472,"lng":124.1539,"pop":33485,"capital":false},{"name":"San Luis","country":"PH","lat":15.0401,"lng":120.7883,"pop":33467,"capital":false},{"name":"Dupax Del Norte","country":"PH","lat":16.3079,"lng":121.1062,"pop":33295,"capital":false},{"name":"General Tinio","country":"PH","lat":15.3508,"lng":121.0477,"pop":32875,"capital":false},{"name":"Guimba","country":"PH","lat":15.6605,"lng":120.7683,"pop":32306,"capital":false},{"name":"Quiapo","country":"PH","lat":14.6,"lng":120.9833,"pop":32236,"capital":false},{"name":"San Narciso","country":"PH","lat":15.0143,"lng":120.0803,"pop":32180,"capital":false},{"name":"Alaminos","country":"PH","lat":14.0639,"lng":121.2465,"pop":31427,"capital":false},{"name":"Lucban","country":"PH","lat":14.1136,"lng":121.5557,"pop":30992,"capital":false},{"name":"Aglipay","country":"PH","lat":16.4889,"lng":121.645,"pop":30714,"capital":false},{"name":"Paraiso","country":"PH","lat":10.8849,"lng":123.3627,"pop":30494,"capital":false},{"name":"Pililla","country":"PH","lat":14.4854,"lng":121.3062,"pop":30408,"capital":false},{"name":"Lumbang","country":"PH","lat":14.2973,"lng":121.4598,"pop":30269,"capital":false},{"name":"Buhi","country":"PH","lat":13.4322,"lng":123.517,"pop":30126,"capital":false},{"name":"Malvar","country":"PH","lat":14.0447,"lng":121.1586,"pop":29880,"capital":false},{"name":"Aringay","country":"PH","lat":16.394,"lng":120.3545,"pop":29825,"capital":false},{"name":"Bagong Pagasa","country":"PH","lat":14.6627,"lng":121.0328,"pop":29389,"capital":false},{"name":"Atimonan","country":"PH","lat":14.0027,"lng":121.9208,"pop":29356,"capital":false},{"name":"Cordova","country":"PH","lat":10.2439,"lng":123.9422,"pop":29289,"capital":false},{"name":"San Simon","country":"PH","lat":14.9996,"lng":120.7808,"pop":29049,"capital":false},{"name":"Agoo","country":"PH","lat":16.0833,"lng":120.1,"pop":28972,"capital":false},{"name":"Pandacaqui","country":"PH","lat":15.1719,"lng":120.6546,"pop":28603,"capital":false},{"name":"Bulan","country":"PH","lat":12.6714,"lng":123.875,"pop":28529,"capital":false},{"name":"Majayjay","country":"PH","lat":14.1463,"lng":121.4729,"pop":28504,"capital":false},{"name":"Burgos","country":"PH","lat":15.7289,"lng":120.5722,"pop":28178,"capital":false},{"name":"Santa Maria","country":"PH","lat":16.9518,"lng":120.4445,"pop":28002,"capital":false},{"name":"Peñaranda","country":"PH","lat":15.3512,"lng":121.0039,"pop":27465,"capital":false},{"name":"Pulupandan","country":"PH","lat":10.5178,"lng":122.8026,"pop":27363,"capital":false},{"name":"Castillejos","country":"PH","lat":14.9336,"lng":120.1979,"pop":27301,"capital":false},{"name":"Paete","country":"PH","lat":14.3647,"lng":121.4829,"pop":26855,"capital":false},{"name":"Catanauan","country":"PH","lat":13.5926,"lng":122.3215,"pop":26804,"capital":false},{"name":"San Jose","country":"PH","lat":10.18,"lng":125.5683,"pop":26735,"capital":false},{"name":"Sanchez-Mira","country":"PH","lat":18.5616,"lng":121.2319,"pop":26292,"capital":false},{"name":"San Antonio","country":"PH","lat":15.3062,"lng":120.856,"pop":26247,"capital":false},{"name":"Rizal","country":"PH","lat":15.7118,"lng":121.1061,"pop":26201,"capital":false},{"name":"Telabastagan","country":"PH","lat":15.1185,"lng":120.6077,"pop":25935,"capital":false},{"name":"Maao","country":"PH","lat":10.4896,"lng":122.9907,"pop":25837,"capital":false},{"name":"Lopez","country":"PH","lat":13.884,"lng":122.2604,"pop":25752,"capital":false},{"name":"Nabua","country":"PH","lat":13.4075,"lng":123.3724,"pop":25687,"capital":false},{"name":"Concepcion Ibaba","country":"PH","lat":13.9231,"lng":121.461,"pop":25628,"capital":false},{"name":"Pangil","country":"PH","lat":14.4033,"lng":121.4651,"pop":25318,"capital":false},{"name":"Cabagan","country":"PH","lat":17.4278,"lng":121.7696,"pop":25304,"capital":false},{"name":"Ayala Alabang","country":"PH","lat":14.406,"lng":121.0222,"pop":25115,"capital":false},{"name":"Talisay","country":"PH","lat":14.0925,"lng":121.0219,"pop":24969,"capital":false},{"name":"Baggabag B","country":"PH","lat":16.5059,"lng":121.1901,"pop":24967,"capital":false},{"name":"Manibaug Pasig","country":"PH","lat":15.0962,"lng":120.5645,"pop":24618,"capital":false},{"name":"Nagcarlan","country":"PH","lat":14.1364,"lng":121.4165,"pop":24560,"capital":false},{"name":"Victoria","country":"PH","lat":14.2277,"lng":121.3292,"pop":24456,"capital":false},{"name":"La Castellana","country":"PH","lat":10.3239,"lng":123.0215,"pop":24407,"capital":false},{"name":"Pio","country":"PH","lat":15.0474,"lng":120.5189,"pop":24345,"capital":false},{"name":"General Emilio Aguinaldo","country":"PH","lat":14.1842,"lng":120.7958,"pop":24264,"capital":false},{"name":"Mamburao","country":"PH","lat":13.2233,"lng":120.596,"pop":23892,"capital":false},{"name":"Palayan City","country":"PH","lat":15.5415,"lng":121.0848,"pop":23742,"capital":false},{"name":"San Fernando","country":"PH","lat":10.1624,"lng":123.7076,"pop":23706,"capital":false},{"name":"Bogo","country":"PH","lat":11.0517,"lng":124.0055,"pop":23562,"capital":false},{"name":"Bontoc","country":"PH","lat":17.0873,"lng":120.9769,"pop":23466,"capital":false},{"name":"Culion","country":"PH","lat":11.8904,"lng":120.0222,"pop":23213,"capital":false},{"name":"Pinamungahan","country":"PH","lat":10.2708,"lng":123.5839,"pop":23068,"capital":false},{"name":"Mansalay","country":"PH","lat":12.5204,"lng":121.4385,"pop":23044,"capital":false},{"name":"Botolan","country":"PH","lat":15.2896,"lng":120.0245,"pop":22994,"capital":false},{"name":"Guihulñgan","country":"PH","lat":10.1195,"lng":123.2729,"pop":22931,"capital":false},{"name":"Apas","country":"PH","lat":10.3408,"lng":123.9026,"pop":22566,"capital":false},{"name":"Gumaca","country":"PH","lat":13.921,"lng":122.1002,"pop":22496,"capital":false},{"name":"Bignay Uno","country":"PH","lat":13.8645,"lng":121.4879,"pop":22401,"capital":false},{"name":"Balamban","country":"PH","lat":10.5039,"lng":123.7156,"pop":22283,"capital":false},{"name":"Guiset East","country":"PH","lat":16.0667,"lng":120.6833,"pop":21994,"capital":false},{"name":"Loma de Gato","country":"PH","lat":14.7887,"lng":120.9989,"pop":21990,"capital":false},{"name":"Malanday","country":"PH","lat":14.7069,"lng":121.1306,"pop":21901,"capital":false},{"name":"Porac","country":"PH","lat":15.0711,"lng":120.5423,"pop":21660,"capital":false},{"name":"Cuenca","country":"PH","lat":13.902,"lng":121.0521,"pop":21558,"capital":false},{"name":"Inopacan","country":"PH","lat":10.4997,"lng":124.7405,"pop":21389,"capital":false},{"name":"Jose Pañganiban","country":"PH","lat":14.2906,"lng":122.6917,"pop":21236,"capital":false},{"name":"Dupax del Sur","country":"PH","lat":16.2838,"lng":121.0896,"pop":21224,"capital":false},{"name":"Sasmuan","country":"PH","lat":14.9438,"lng":120.6229,"pop":21124,"capital":false},{"name":"Goa","country":"PH","lat":13.6978,"lng":123.4892,"pop":20936,"capital":false},{"name":"Irosin","country":"PH","lat":12.7001,"lng":124.0322,"pop":20716,"capital":false},{"name":"Binondo","country":"PH","lat":14.603,"lng":120.974,"pop":20491,"capital":false},{"name":"Taloc","country":"PH","lat":10.5746,"lng":122.8954,"pop":20409,"capital":false},{"name":"Baras","country":"PH","lat":14.5169,"lng":121.2658,"pop":20250,"capital":false},{"name":"Sampaloc","country":"PH","lat":14.5402,"lng":121.3602,"pop":20157,"capital":false},{"name":"Ternate","country":"PH","lat":14.2897,"lng":120.7168,"pop":20049,"capital":false},{"name":"Pacol","country":"PH","lat":10.45,"lng":122.8167,"pop":19839,"capital":false},{"name":"Suay","country":"PH","lat":10.0533,"lng":122.8423,"pop":19672,"capital":false},{"name":"Baao","country":"PH","lat":13.4549,"lng":123.3653,"pop":19612,"capital":false},{"name":"San Francisco","country":"PH","lat":15.3557,"lng":120.84,"pop":19570,"capital":false},{"name":"Malabanban Norte","country":"PH","lat":13.9452,"lng":121.4307,"pop":19471,"capital":false},{"name":"Laur","country":"PH","lat":15.5865,"lng":121.1834,"pop":19206,"capital":false},{"name":"Lagawe","country":"PH","lat":16.8,"lng":121.1192,"pop":19124,"capital":false},{"name":"Malanday","country":"PH","lat":14.7169,"lng":120.9581,"pop":19060,"capital":false},{"name":"Sumag","country":"PH","lat":10.6014,"lng":122.9192,"pop":18752,"capital":false},{"name":"Compostela","country":"PH","lat":10.455,"lng":124.0106,"pop":18727,"capital":false},{"name":"San Marcelino","country":"PH","lat":14.9742,"lng":120.1573,"pop":18721,"capital":false},{"name":"San Miguel","country":"PH","lat":15.444,"lng":120.5992,"pop":18582,"capital":false},{"name":"Quezon","country":"PH","lat":15.5512,"lng":120.8147,"pop":18451,"capital":false},{"name":"General Mamerto Natividad","country":"PH","lat":15.6025,"lng":121.0515,"pop":18393,"capital":false},{"name":"Maasin","country":"PH","lat":10.1327,"lng":124.8408,"pop":18313,"capital":false},{"name":"Labo","country":"PH","lat":14.1532,"lng":122.8303,"pop":18105,"capital":false},{"name":"Del Remedio","country":"PH","lat":14.0866,"lng":121.3118,"pop":17871,"capital":false},{"name":"Pilar","country":"PH","lat":14.66,"lng":120.5653,"pop":17831,"capital":false},{"name":"Baybay","country":"PH","lat":10.6785,"lng":124.8006,"pop":17668,"capital":false},{"name":"Palo","country":"PH","lat":11.1575,"lng":124.9908,"pop":17534,"capital":false},{"name":"Esperanza","country":"PH","lat":11.7365,"lng":124.042,"pop":17534,"capital":false},{"name":"Carigara","country":"PH","lat":11.2981,"lng":124.679,"pop":17495,"capital":false},{"name":"Murcia","country":"PH","lat":10.6052,"lng":123.0417,"pop":17448,"capital":false},{"name":"Bato","country":"PH","lat":13.3528,"lng":123.3677,"pop":16939,"capital":false},{"name":"Tiwi","country":"PH","lat":13.4585,"lng":123.6805,"pop":16826,"capital":false},{"name":"Laoang","country":"PH","lat":12.5698,"lng":125.0141,"pop":16725,"capital":false},{"name":"Roxas","country":"PH","lat":17.1189,"lng":121.6201,"pop":16618,"capital":false},{"name":"Tanauan","country":"PH","lat":11.1094,"lng":125.0156,"pop":16567,"capital":false},{"name":"Zumarraga","country":"PH","lat":11.6388,"lng":124.8417,"pop":16279,"capital":false},{"name":"San Mateo","country":"PH","lat":16.8821,"lng":121.5869,"pop":16233,"capital":false},{"name":"Aurora","country":"PH","lat":13.3476,"lng":122.5195,"pop":16178,"capital":false},{"name":"Morong","country":"PH","lat":14.6789,"lng":120.2661,"pop":16117,"capital":false},{"name":"San Vicente","country":"PH","lat":15.2921,"lng":120.655,"pop":16116,"capital":false},{"name":"Calatagan","country":"PH","lat":13.8322,"lng":120.6322,"pop":16110,"capital":false},{"name":"Novaliches Proper","country":"PH","lat":14.7226,"lng":121.0462,"pop":16096,"capital":false},{"name":"Isabela","country":"PH","lat":10.2048,"lng":122.9888,"pop":15897,"capital":false},{"name":"Mankayan","country":"PH","lat":16.8632,"lng":120.7829,"pop":15886,"capital":false},{"name":"Abuyog","country":"PH","lat":10.747,"lng":125.0107,"pop":15632,"capital":false},{"name":"Calumpang","country":"PH","lat":14.6228,"lng":121.0897,"pop":15602,"capital":false},{"name":"Diadi","country":"PH","lat":16.7262,"lng":121.3589,"pop":15567,"capital":false},{"name":"Santa Barbara","country":"PH","lat":16.0009,"lng":120.4023,"pop":15445,"capital":false},{"name":"Santa Cruz","country":"PH","lat":14.9127,"lng":120.5666,"pop":15408,"capital":false},{"name":"Romblon","country":"PH","lat":12.5751,"lng":122.2708,"pop":15316,"capital":false},{"name":"Tagas","country":"PH","lat":13.1667,"lng":123.7167,"pop":15292,"capital":false},{"name":"Lilio","country":"PH","lat":14.1313,"lng":121.4362,"pop":15246,"capital":false},{"name":"Magarao","country":"PH","lat":13.6604,"lng":123.1869,"pop":15205,"capital":false},{"name":"Domalanoan","country":"PH","lat":16.0029,"lng":120.2115,"pop":15108,"capital":false},{"name":"Ramos","country":"PH","lat":15.6653,"lng":120.6406,"pop":15066,"capital":false},{"name":"Babo-Pangulo","country":"PH","lat":15.0833,"lng":120.5167,"pop":15066,"capital":false},{"name":"Poblacion, San Felipe","country":"PH","lat":15.0622,"lng":120.07,"pop":14981,"capital":false},{"name":"Lusacan","country":"PH","lat":13.9552,"lng":121.3448,"pop":14870,"capital":false},{"name":"Lalig","country":"PH","lat":13.9826,"lng":121.3265,"pop":14729,"capital":false},{"name":"Santa Elena","country":"PH","lat":14.1702,"lng":122.3825,"pop":14641,"capital":false},{"name":"Bigaa","country":"PH","lat":13.1993,"lng":123.7566,"pop":14510,"capital":false},{"name":"Belison","country":"PH","lat":10.8384,"lng":121.9605,"pop":14433,"capital":false},{"name":"Eustaquio Lopez","country":"PH","lat":10.8195,"lng":123.0412,"pop":14408,"capital":false},{"name":"Oton","country":"PH","lat":10.6931,"lng":122.4736,"pop":14395,"capital":false},{"name":"Roxas","country":"PH","lat":12.5835,"lng":121.5176,"pop":14335,"capital":false},{"name":"Bacacay","country":"PH","lat":13.2934,"lng":123.7919,"pop":14109,"capital":false},{"name":"Bulihan","country":"PH","lat":14.2782,"lng":120.995,"pop":13979,"capital":false},{"name":"Ocaña","country":"PH","lat":10.0656,"lng":123.6244,"pop":13898,"capital":false},{"name":"Manggahan","country":"PH","lat":14.292,"lng":120.9015,"pop":13825,"capital":false},{"name":"Bansud","country":"PH","lat":12.865,"lng":121.4564,"pop":13758,"capital":false},{"name":"Bula","country":"PH","lat":13.4701,"lng":123.278,"pop":13694,"capital":false},{"name":"Magapit, Aguiguican","country":"PH","lat":18.1079,"lng":121.6771,"pop":13659,"capital":false},{"name":"Nibaliw Central","country":"PH","lat":16.1275,"lng":120.4027,"pop":13631,"capital":false},{"name":"Pagsañgahan","country":"PH","lat":13.2158,"lng":122.5431,"pop":13573,"capital":false},{"name":"Minalin","country":"PH","lat":14.9676,"lng":120.6828,"pop":13527,"capital":false},{"name":"Pio Duran","country":"PH","lat":13.0293,"lng":123.445,"pop":13249,"capital":false},{"name":"Buco","country":"PH","lat":14.0832,"lng":120.9902,"pop":13217,"capital":false},{"name":"Payocpoc Sur","country":"PH","lat":16.4944,"lng":120.3281,"pop":13107,"capital":false},{"name":"Codcod","country":"PH","lat":10.4634,"lng":123.2495,"pop":13026,"capital":false},{"name":"Toboso","country":"PH","lat":10.7144,"lng":123.5162,"pop":13006,"capital":false},{"name":"Sipocot","country":"PH","lat":13.768,"lng":122.9762,"pop":12916,"capital":false},{"name":"Janiuay","country":"PH","lat":10.9493,"lng":122.5061,"pop":12896,"capital":false},{"name":"Agutaya","country":"PH","lat":11.148,"lng":120.9417,"pop":12867,"capital":false},{"name":"Urbiztondo","country":"PH","lat":15.8227,"lng":120.3295,"pop":12734,"capital":false},{"name":"Tigbauan","country":"PH","lat":10.6747,"lng":122.3776,"pop":12659,"capital":false},{"name":"Project 6","country":"PH","lat":14.6591,"lng":121.0395,"pop":12595,"capital":false},{"name":"Tigaon","country":"PH","lat":13.6331,"lng":123.4968,"pop":12509,"capital":false},{"name":"San Mariano","country":"PH","lat":16.9827,"lng":122.014,"pop":12441,"capital":false},{"name":"Mabitac","country":"PH","lat":14.4259,"lng":121.429,"pop":12398,"capital":false},{"name":"Mangatarem","country":"PH","lat":15.7874,"lng":120.2921,"pop":12392,"capital":false},{"name":"Balabag","country":"PH","lat":11.97,"lng":121.9192,"pop":12296,"capital":false},{"name":"Buluangan","country":"PH","lat":10.3871,"lng":123.3381,"pop":12249,"capital":false},{"name":"Naval","country":"PH","lat":11.5606,"lng":124.3975,"pop":12217,"capital":false},{"name":"Palompon","country":"PH","lat":11.0508,"lng":124.3843,"pop":12087,"capital":false},{"name":"Bugallon","country":"PH","lat":15.9528,"lng":120.2155,"pop":12033,"capital":false},{"name":"Bulalacao","country":"PH","lat":12.3254,"lng":121.3435,"pop":12027,"capital":false},{"name":"Mariana","country":"PH","lat":14.6172,"lng":121.0361,"pop":11967,"capital":false},{"name":"Nattapian","country":"PH","lat":17.6754,"lng":121.703,"pop":11867,"capital":false},{"name":"Aguisan","country":"PH","lat":10.1603,"lng":122.8615,"pop":11798,"capital":false},{"name":"Baculongan","country":"PH","lat":16.8,"lng":120.8333,"pop":11742,"capital":false},{"name":"Medellin","country":"PH","lat":11.1286,"lng":123.9622,"pop":11741,"capital":false},{"name":"Libog","country":"PH","lat":13.2349,"lng":123.7778,"pop":11692,"capital":false},{"name":"Santa Rosa","country":"PH","lat":15.4238,"lng":120.9378,"pop":11683,"capital":false},{"name":"Quezon","country":"PH","lat":10.4362,"lng":123.2604,"pop":11681,"capital":false},{"name":"Barotac Nuevo","country":"PH","lat":10.8942,"lng":122.7044,"pop":11641,"capital":false},{"name":"Tayug","country":"PH","lat":16.0274,"lng":120.7434,"pop":11611,"capital":false},{"name":"Trapiche","country":"PH","lat":10.6842,"lng":122.4322,"pop":11539,"capital":false},{"name":"Santa Ignacia","country":"PH","lat":15.6169,"lng":120.4358,"pop":11477,"capital":false},{"name":"Calintaan","country":"PH","lat":12.5667,"lng":120.9333,"pop":11476,"capital":false},{"name":"Malaya","country":"PH","lat":14.3971,"lng":121.3385,"pop":11442,"capital":false},{"name":"Sapang","country":"PH","lat":15.7032,"lng":120.5245,"pop":11373,"capital":false},{"name":"Bilog-Bilog","country":"PH","lat":14.1136,"lng":121.0886,"pop":11342,"capital":false},{"name":"Luna","country":"PH","lat":10.969,"lng":123.2419,"pop":11312,"capital":false},{"name":"Candon","country":"PH","lat":17.1947,"lng":120.4517,"pop":11236,"capital":false},{"name":"Magapit","country":"PH","lat":18.1374,"lng":121.6694,"pop":11235,"capital":false},{"name":"Talibon","country":"PH","lat":10.1492,"lng":124.325,"pop":11209,"capital":false},{"name":"Mapandan","country":"PH","lat":16.0248,"lng":120.4547,"pop":11165,"capital":false},{"name":"Caminauit","country":"PH","lat":12.3314,"lng":121.0825,"pop":11161,"capital":false},{"name":"Lourdes","country":"PH","lat":14.9667,"lng":120.6833,"pop":11155,"capital":false},{"name":"Guadalupe","country":"PH","lat":10.1165,"lng":123.6072,"pop":11121,"capital":false},{"name":"San Narciso","country":"PH","lat":13.5677,"lng":122.5667,"pop":11118,"capital":false},{"name":"Bulog","country":"PH","lat":15.9602,"lng":120.4017,"pop":11103,"capital":false},{"name":"Bangar","country":"PH","lat":16.8936,"lng":120.4243,"pop":11068,"capital":false},{"name":"Guadalupe","country":"PH","lat":10.4545,"lng":123.3732,"pop":11053,"capital":false},{"name":"Guiuan","country":"PH","lat":11.0309,"lng":125.7234,"pop":11041,"capital":false},{"name":"Del Monte","country":"PH","lat":14.6418,"lng":121.0177,"pop":11035,"capital":false},{"name":"Carranglan","country":"PH","lat":15.9613,"lng":121.0641,"pop":11017,"capital":false},{"name":"Lupao","country":"PH","lat":15.8793,"lng":120.8983,"pop":11000,"capital":false},{"name":"Quisao","country":"PH","lat":14.4347,"lng":121.3344,"pop":10989,"capital":false},{"name":"Perrelos","country":"PH","lat":10.1169,"lng":123.6738,"pop":10971,"capital":false},{"name":"Buanoy","country":"PH","lat":10.4675,"lng":123.6999,"pop":10955,"capital":false},{"name":"Suyo","country":"PH","lat":16.9762,"lng":120.5254,"pop":10943,"capital":false},{"name":"Pambujan","country":"PH","lat":12.5642,"lng":124.9276,"pop":10812,"capital":false},{"name":"Pulo","country":"PH","lat":15.246,"lng":120.9285,"pop":10776,"capital":false},{"name":"Dao","country":"PH","lat":11.3937,"lng":122.6856,"pop":10743,"capital":false},{"name":"Pakil","country":"PH","lat":14.3835,"lng":121.4786,"pop":10693,"capital":false},{"name":"Masalukot Uno","country":"PH","lat":13.9553,"lng":121.4189,"pop":10667,"capital":false},{"name":"Halayhay","country":"PH","lat":14.3739,"lng":120.8133,"pop":10630,"capital":false},{"name":"Claveria","country":"PH","lat":18.6074,"lng":121.0832,"pop":10618,"capital":false},{"name":"Baloc","country":"PH","lat":15.6435,"lng":120.8852,"pop":10566,"capital":false},{"name":"Pasacao","country":"PH","lat":13.5118,"lng":123.0426,"pop":10531,"capital":false},{"name":"San Jacinto","country":"PH","lat":16.0726,"lng":120.4383,"pop":10529,"capital":false},{"name":"Tinambac","country":"PH","lat":13.8164,"lng":123.3261,"pop":10299,"capital":false},{"name":"Ligao","country":"PH","lat":13.217,"lng":123.5192,"pop":10295,"capital":false},{"name":"Rajal Norte","country":"PH","lat":15.4449,"lng":120.8626,"pop":10281,"capital":false},{"name":"Carmen","country":"PH","lat":15.8864,"lng":120.5998,"pop":10250,"capital":false},{"name":"Pototan","country":"PH","lat":10.9437,"lng":122.6352,"pop":10195,"capital":false},{"name":"Vallehermoso","country":"PH","lat":10.3349,"lng":123.3259,"pop":10179,"capital":false},{"name":"Cagsiay","country":"PH","lat":14.2167,"lng":121.75,"pop":10173,"capital":false},{"name":"Dulag","country":"PH","lat":10.9525,"lng":125.0317,"pop":10151,"capital":false},{"name":"Pasil","country":"PH","lat":17.3833,"lng":121.1333,"pop":10109,"capital":false},{"name":"Pilar","country":"PH","lat":11.487,"lng":122.9963,"pop":9957,"capital":false},{"name":"Bato","country":"PH","lat":10.3278,"lng":124.7911,"pop":9952,"capital":false},{"name":"San Manuel","country":"PH","lat":17.0238,"lng":121.6357,"pop":9865,"capital":false},{"name":"Santa Cruz","country":"PH","lat":13.4758,"lng":122.0275,"pop":9863,"capital":false},{"name":"Santa Cruz","country":"PH","lat":13.0736,"lng":120.7226,"pop":9826,"capital":false},{"name":"San Enrique","country":"PH","lat":10.4161,"lng":122.8504,"pop":9818,"capital":false},{"name":"Aguilar","country":"PH","lat":15.8884,"lng":120.2378,"pop":9801,"capital":false},{"name":"Cavinti","country":"PH","lat":14.2448,"lng":121.508,"pop":9758,"capital":false},{"name":"Maddela","country":"PH","lat":16.3414,"lng":121.6849,"pop":9751,"capital":false},{"name":"Santa Rita Aplaya","country":"PH","lat":13.7717,"lng":121.0349,"pop":9737,"capital":false},{"name":"Bahay Pare","country":"PH","lat":15.0324,"lng":120.8808,"pop":9726,"capital":false},{"name":"Laurel","country":"PH","lat":14.0554,"lng":120.9193,"pop":9720,"capital":false},{"name":"Jaclupan","country":"PH","lat":10.3014,"lng":123.8165,"pop":9652,"capital":false},{"name":"Enrile","country":"PH","lat":17.5596,"lng":121.6974,"pop":9650,"capital":false},{"name":"Bacarra","country":"PH","lat":18.2529,"lng":120.6125,"pop":9636,"capital":false},{"name":"San Roque Dau First","country":"PH","lat":14.9771,"lng":120.5769,"pop":9621,"capital":false},{"name":"Canubing No 2","country":"PH","lat":13.35,"lng":121.1333,"pop":9569,"capital":false},{"name":"Palangue","country":"PH","lat":14.2842,"lng":120.8114,"pop":9567,"capital":false},{"name":"San Nicolas","country":"PH","lat":15.5841,"lng":120.6765,"pop":9526,"capital":false},{"name":"Guagua","country":"PH","lat":14.9653,"lng":120.6325,"pop":9519,"capital":false},{"name":"Calatrava","country":"PH","lat":10.595,"lng":123.4838,"pop":9489,"capital":false},{"name":"Quezon","country":"PH","lat":17.313,"lng":121.6065,"pop":9485,"capital":false},{"name":"Alfonso","country":"PH","lat":14.1408,"lng":120.8539,"pop":9446,"capital":false},{"name":"Ibaan","country":"PH","lat":13.8176,"lng":121.133,"pop":9430,"capital":false},{"name":"Magsaysay","country":"PH","lat":12.3333,"lng":121.15,"pop":9407,"capital":false},{"name":"Cabaritan East","country":"PH","lat":18.4178,"lng":121.4887,"pop":9348,"capital":false},{"name":"Pulungmasle","country":"PH","lat":15.0004,"lng":120.5577,"pop":9277,"capital":false},{"name":"Dolores","country":"PH","lat":12.0371,"lng":125.4825,"pop":9274,"capital":false},{"name":"Dos Hermanas","country":"PH","lat":10.7421,"lng":123.0377,"pop":9270,"capital":false},{"name":"Sison","country":"PH","lat":16.1739,"lng":120.5153,"pop":9256,"capital":false},{"name":"Balucuc","country":"PH","lat":14.9528,"lng":120.8145,"pop":9214,"capital":false},{"name":"Lambakin","country":"PH","lat":14.75,"lng":120.8667,"pop":9193,"capital":false},{"name":"General Luna","country":"PH","lat":13.6866,"lng":122.1709,"pop":9177,"capital":false},{"name":"Real","country":"PH","lat":14.664,"lng":121.6041,"pop":9163,"capital":false},{"name":"Payao","country":"PH","lat":10.1785,"lng":122.9236,"pop":9137,"capital":false},{"name":"Gamay","country":"PH","lat":12.3854,"lng":125.2979,"pop":9125,"capital":false},{"name":"Ambulong","country":"PH","lat":14.088,"lng":121.0613,"pop":9074,"capital":false},{"name":"Castañas","country":"PH","lat":13.8744,"lng":121.5533,"pop":9040,"capital":false},{"name":"Bangkirohan","country":"PH","lat":13.0553,"lng":123.7468,"pop":9040,"capital":false},{"name":"Palampas","country":"PH","lat":10.5251,"lng":123.4208,"pop":9037,"capital":false},{"name":"Oras","country":"PH","lat":12.1406,"lng":125.4397,"pop":9022,"capital":false},{"name":"Ragay","country":"PH","lat":13.8183,"lng":122.7923,"pop":9000,"capital":false},{"name":"San Francisco","country":"PH","lat":10.6461,"lng":124.3816,"pop":8989,"capital":false},{"name":"Paradahan","country":"PH","lat":14.3212,"lng":120.8606,"pop":8977,"capital":false},{"name":"Dumangas","country":"PH","lat":10.825,"lng":122.713,"pop":8959,"capital":false},{"name":"Concepcion","country":"PH","lat":10.692,"lng":123.0608,"pop":8903,"capital":false},{"name":"Asingan","country":"PH","lat":16.0051,"lng":120.6695,"pop":8887,"capital":false},{"name":"Alcala","country":"PH","lat":15.8472,"lng":120.5242,"pop":8883,"capital":false},{"name":"Subic","country":"PH","lat":13.9486,"lng":120.9401,"pop":8881,"capital":false},{"name":"Miagao","country":"PH","lat":10.6442,"lng":122.2352,"pop":8881,"capital":false},{"name":"Lepa","country":"PH","lat":15.8844,"lng":120.4509,"pop":8877,"capital":false},{"name":"Hungduan","country":"PH","lat":16.8357,"lng":121.0052,"pop":8866,"capital":false},{"name":"Milaor","country":"PH","lat":13.5961,"lng":123.1772,"pop":8809,"capital":false},{"name":"Coron","country":"PH","lat":11.9986,"lng":120.2043,"pop":8723,"capital":false},{"name":"Ajuy","country":"PH","lat":11.1724,"lng":123.0197,"pop":8695,"capital":false},{"name":"Santo Cristo","country":"PH","lat":15.2968,"lng":120.8903,"pop":8664,"capital":false},{"name":"Balete","country":"PH","lat":14.0198,"lng":121.0951,"pop":8662,"capital":false},{"name":"Santa Lucia","country":"PH","lat":15.3681,"lng":120.4864,"pop":8642,"capital":false},{"name":"Santa Barbara","country":"PH","lat":10.8231,"lng":122.5344,"pop":8629,"capital":false},{"name":"Nieves","country":"PH","lat":15.3284,"lng":120.9489,"pop":8617,"capital":false},{"name":"Barotac Viejo","country":"PH","lat":11.0419,"lng":122.8522,"pop":8611,"capital":false},{"name":"Alicante","country":"PH","lat":10.897,"lng":123.0185,"pop":8607,"capital":false},{"name":"Casiguran","country":"PH","lat":12.8737,"lng":124.0076,"pop":8605,"capital":false},{"name":"Tuy","country":"PH","lat":14.0183,"lng":120.7296,"pop":8603,"capital":false},{"name":"Isabel","country":"PH","lat":10.9267,"lng":124.434,"pop":8597,"capital":false},{"name":"Cuyapo","country":"PH","lat":15.7819,"lng":120.6647,"pop":8595,"capital":false},{"name":"Pilar","country":"PH","lat":12.9231,"lng":123.6724,"pop":8591,"capital":false},{"name":"Balete","country":"PH","lat":13.0192,"lng":124.0319,"pop":8588,"capital":false},{"name":"Naguilian","country":"PH","lat":17.0232,"lng":121.837,"pop":8560,"capital":false},{"name":"Alfonso Castañeda","country":"PH","lat":15.8006,"lng":121.3054,"pop":8539,"capital":false},{"name":"Capoocan","country":"PH","lat":11.2933,"lng":124.6419,"pop":8473,"capital":false},{"name":"San Miguel","country":"PH","lat":10.78,"lng":122.4656,"pop":8438,"capital":false},{"name":"Ligaya","country":"PH","lat":12.6599,"lng":120.8923,"pop":8431,"capital":false},{"name":"Palapag","country":"PH","lat":12.5458,"lng":125.1147,"pop":8342,"capital":false},{"name":"Bolo","country":"PH","lat":13.7899,"lng":120.9817,"pop":8310,"capital":false},{"name":"Banaybanay","country":"PH","lat":13.9331,"lng":121.1151,"pop":8304,"capital":false},{"name":"Sogod","country":"PH","lat":10.3847,"lng":124.9814,"pop":8303,"capital":false},{"name":"Paracale","country":"PH","lat":14.2804,"lng":122.7881,"pop":8290,"capital":false},{"name":"Jordan","country":"PH","lat":10.6584,"lng":122.5963,"pop":8255,"capital":false},{"name":"Sibul","country":"PH","lat":15.169,"lng":121.0616,"pop":8225,"capital":false},{"name":"Bauan","country":"PH","lat":17.7226,"lng":121.6803,"pop":8165,"capital":false},{"name":"Binalonan","country":"PH","lat":16.0503,"lng":120.5926,"pop":8145,"capital":false},{"name":"Sagang","country":"PH","lat":10.3612,"lng":123.0722,"pop":8136,"capital":false},{"name":"Bolanon","country":"PH","lat":10.9171,"lng":123.4734,"pop":8127,"capital":false},{"name":"San Basilio","country":"PH","lat":15.0334,"lng":120.5843,"pop":8125,"capital":false},{"name":"Salinungan Proper","country":"PH","lat":16.8691,"lng":121.6145,"pop":8110,"capital":false},{"name":"Alangalang","country":"PH","lat":11.2061,"lng":124.8467,"pop":8096,"capital":false},{"name":"Echague","country":"PH","lat":16.7051,"lng":121.6763,"pop":8058,"capital":false},{"name":"San Pablo","country":"PH","lat":10.9123,"lng":123.1418,"pop":8046,"capital":false},{"name":"Miranda","country":"PH","lat":10.3047,"lng":122.8778,"pop":8040,"capital":false},{"name":"Pagsanghan","country":"PH","lat":11.9657,"lng":124.7212,"pop":8024,"capital":false},{"name":"Bulacnin","country":"PH","lat":13.9903,"lng":121.139,"pop":7985,"capital":false},{"name":"Aritao","country":"PH","lat":16.2979,"lng":121.0345,"pop":7971,"capital":false},{"name":"Jaro","country":"PH","lat":11.1838,"lng":124.7827,"pop":7935,"capital":false},{"name":"Kibungan","country":"PH","lat":16.695,"lng":120.6553,"pop":7912,"capital":false},{"name":"Alabat","country":"PH","lat":14.101,"lng":122.0125,"pop":7910,"capital":false},{"name":"Llorente","country":"PH","lat":11.4119,"lng":125.5458,"pop":7908,"capital":false},{"name":"Pontevedra","country":"PH","lat":10.3746,"lng":122.8682,"pop":7865,"capital":false},{"name":"Basey","country":"PH","lat":11.2821,"lng":125.0699,"pop":7844,"capital":false},{"name":"Pitogo","country":"PH","lat":13.7838,"lng":122.0902,"pop":7817,"capital":false},{"name":"Catmon","country":"PH","lat":10.7167,"lng":124,"pop":7812,"capital":false},{"name":"Mabini","country":"PH","lat":15.6,"lng":120.9833,"pop":7810,"capital":false},{"name":"Cataingan","country":"PH","lat":12.003,"lng":123.992,"pop":7809,"capital":false},{"name":"Tutay","country":"PH","lat":10.2463,"lng":123.5805,"pop":7808,"capital":false},{"name":"Tayud","country":"PH","lat":10.3799,"lng":124.0052,"pop":7788,"capital":false},{"name":"Tapilon","country":"PH","lat":11.2774,"lng":124.0306,"pop":7786,"capital":false},{"name":"Asturias","country":"PH","lat":10.5669,"lng":123.7161,"pop":7779,"capital":false},{"name":"Minuyan","country":"PH","lat":10.5137,"lng":123.1049,"pop":7771,"capital":false},{"name":"Tagkawayan Sabang","country":"PH","lat":13.9909,"lng":122.5298,"pop":7684,"capital":false},{"name":"Namayan","country":"PH","lat":14.5783,"lng":121.0226,"pop":7670,"capital":false},{"name":"Kananya","country":"PH","lat":11.1867,"lng":124.5601,"pop":7647,"capital":false},{"name":"Mulanay","country":"PH","lat":13.5222,"lng":122.4042,"pop":7643,"capital":false},{"name":"San Jacinto","country":"PH","lat":12.5677,"lng":123.7337,"pop":7637,"capital":false},{"name":"Dolores","country":"PH","lat":14.0227,"lng":121.4101,"pop":7633,"capital":false},{"name":"Nilombot","country":"PH","lat":16.0306,"lng":120.4369,"pop":7605,"capital":false},{"name":"Barili","country":"PH","lat":10.115,"lng":123.5103,"pop":7588,"capital":false},{"name":"Masaya","country":"PH","lat":14.1519,"lng":121.2819,"pop":7587,"capital":false},{"name":"Rizal","country":"PH","lat":12.9772,"lng":123.9142,"pop":7577,"capital":false},{"name":"Maya","country":"PH","lat":11.2744,"lng":124.0553,"pop":7572,"capital":false},{"name":"Culianin","country":"PH","lat":14.9151,"lng":120.8985,"pop":7565,"capital":false},{"name":"Carabalan","country":"PH","lat":10.0964,"lng":122.946,"pop":7557,"capital":false},{"name":"Cuyo","country":"PH","lat":10.8525,"lng":121.0086,"pop":7549,"capital":false},{"name":"Talisay","country":"PH","lat":14.1343,"lng":122.9226,"pop":7544,"capital":false},{"name":"Malinao Ilaya","country":"PH","lat":13.9961,"lng":121.8358,"pop":7528,"capital":false},{"name":"Laiya","country":"PH","lat":13.6803,"lng":121.4008,"pop":7504,"capital":false},{"name":"Allen","country":"PH","lat":12.5006,"lng":124.2849,"pop":7502,"capital":false},{"name":"Lian","country":"PH","lat":14.0336,"lng":120.6493,"pop":7496,"capital":false},{"name":"Balite Segundo","country":"PH","lat":14.1832,"lng":120.9743,"pop":7495,"capital":false},{"name":"Tuding","country":"PH","lat":16.4109,"lng":120.6422,"pop":7491,"capital":false},{"name":"Nagsaing","country":"PH","lat":15.9807,"lng":120.3379,"pop":7482,"capital":false},{"name":"Saguday","country":"PH","lat":16.5428,"lng":121.5638,"pop":7464,"capital":false},{"name":"San Jose","country":"PH","lat":15.0333,"lng":120.7833,"pop":7461,"capital":false},{"name":"Guinticgan","country":"PH","lat":11.5641,"lng":123.1236,"pop":7452,"capital":false},{"name":"Mamala","country":"PH","lat":14.0167,"lng":121.5167,"pop":7418,"capital":false},{"name":"Camias","country":"PH","lat":15.1668,"lng":120.9742,"pop":7412,"capital":false},{"name":"Dulao","country":"PH","lat":10.5418,"lng":122.9383,"pop":7403,"capital":false},{"name":"Antipolo","country":"PH","lat":10.3565,"lng":122.9646,"pop":7398,"capital":false},{"name":"Agupit","country":"PH","lat":13.4225,"lng":123.3247,"pop":7396,"capital":false},{"name":"Hilongos","country":"PH","lat":10.3744,"lng":124.7497,"pop":7329,"capital":false},{"name":"Lagonoy","country":"PH","lat":13.7342,"lng":123.5207,"pop":7324,"capital":false},{"name":"Dingalan","country":"PH","lat":15.3897,"lng":121.3929,"pop":7315,"capital":false},{"name":"Kalayaan","country":"PH","lat":14.35,"lng":121.5667,"pop":7306,"capital":false},{"name":"Alimodian","country":"PH","lat":10.8214,"lng":122.4311,"pop":7302,"capital":false},{"name":"Sibalom","country":"PH","lat":10.79,"lng":122.0178,"pop":7295,"capital":false},{"name":"Batal","country":"PH","lat":16.6875,"lng":121.6008,"pop":7274,"capital":false},{"name":"Mabini","country":"PH","lat":10.7959,"lng":123.4846,"pop":7270,"capital":false},{"name":"Caranan","country":"PH","lat":13.5167,"lng":123.0156,"pop":7265,"capital":false},{"name":"Gabaldon","country":"PH","lat":15.4522,"lng":121.3387,"pop":7259,"capital":false},{"name":"President Roxas","country":"PH","lat":11.431,"lng":122.9279,"pop":7240,"capital":false},{"name":"Guimbal","country":"PH","lat":10.6633,"lng":122.3228,"pop":7232,"capital":false},{"name":"Gonzaga","country":"PH","lat":18.2594,"lng":121.995,"pop":7228,"capital":false},{"name":"Leyte","country":"PH","lat":11.3669,"lng":124.4824,"pop":7223,"capital":false},{"name":"Cabacungan","country":"PH","lat":10.3237,"lng":123.1331,"pop":7200,"capital":false},{"name":"Pamayanang University of Philippines Employment Housing Cooperative Subdivision","country":"PH","lat":14.3461,"lng":120.9758,"pop":7200,"capital":false},{"name":"Cut-cut Primero","country":"PH","lat":15.4828,"lng":120.586,"pop":7143,"capital":false},{"name":"Calatagan","country":"PH","lat":13.5885,"lng":124.2065,"pop":7132,"capital":false},{"name":"Quilo-quilo","country":"PH","lat":13.8638,"lng":121.2209,"pop":7126,"capital":false},{"name":"Carusucan","country":"PH","lat":15.9659,"lng":120.636,"pop":7083,"capital":false},{"name":"Lumbangan","country":"PH","lat":14.0524,"lng":120.6667,"pop":7071,"capital":false},{"name":"Dinahican","country":"PH","lat":14.7167,"lng":121.7167,"pop":7062,"capital":false},{"name":"Tortosa","country":"PH","lat":10.9329,"lng":123.09,"pop":7048,"capital":false},{"name":"Bibiclat","country":"PH","lat":15.5219,"lng":120.8624,"pop":7039,"capital":false},{"name":"Pasong Kawayan Primero","country":"PH","lat":14.3432,"lng":120.8816,"pop":7031,"capital":false},{"name":"Malabag","country":"PH","lat":14.1552,"lng":120.9655,"pop":7021,"capital":false},{"name":"Bungad","country":"PH","lat":14.6481,"lng":121.024,"pop":7014,"capital":false},{"name":"Can-asujan","country":"PH","lat":10.1299,"lng":123.6574,"pop":6994,"capital":false},{"name":"Cabarroguis","country":"PH","lat":16.5111,"lng":121.5212,"pop":6974,"capital":false},{"name":"Pura","country":"PH","lat":15.6248,"lng":120.648,"pop":6928,"capital":false},{"name":"Lanot","country":"PH","lat":11.5192,"lng":122.7572,"pop":6928,"capital":false},{"name":"Gibong","country":"PH","lat":11.8634,"lng":122.0394,"pop":6919,"capital":false},{"name":"Patnanungan","country":"PH","lat":14.7833,"lng":122.1833,"pop":6901,"capital":false},{"name":"Malaiba","country":"PH","lat":10.3333,"lng":123.3167,"pop":6888,"capital":false},{"name":"Subusub","country":"PH","lat":16.2269,"lng":120.4951,"pop":6887,"capital":false},{"name":"Minapasoc","country":"PH","lat":10.6989,"lng":123.349,"pop":6885,"capital":false},{"name":"Cabugao","country":"PH","lat":17.7931,"lng":120.4578,"pop":6874,"capital":false},{"name":"Dingras","country":"PH","lat":18.1032,"lng":120.6967,"pop":6866,"capital":false},{"name":"Pantao","country":"PH","lat":13.1944,"lng":123.3271,"pop":6864,"capital":false},{"name":"Puelay","country":"PH","lat":15.8868,"lng":120.5736,"pop":6854,"capital":false},{"name":"Sagpon","country":"PH","lat":13.15,"lng":123.7333,"pop":6849,"capital":false},{"name":"Tiglauigan","country":"PH","lat":10.9527,"lng":123.3575,"pop":6848,"capital":false},{"name":"San Vicente","country":"PH","lat":15.2132,"lng":120.819,"pop":6835,"capital":false},{"name":"Maulawin","country":"PH","lat":14.2667,"lng":121.4333,"pop":6822,"capital":false},{"name":"Lipayran","country":"PH","lat":11.0593,"lng":123.6342,"pop":6813,"capital":false},{"name":"Maria Aurora","country":"PH","lat":15.7967,"lng":121.4737,"pop":6807,"capital":false},{"name":"Quezon","country":"PH","lat":14.0057,"lng":122.1838,"pop":6804,"capital":false},{"name":"Licab","country":"PH","lat":15.5439,"lng":120.7634,"pop":6783,"capital":false},{"name":"Concepcion","country":"PH","lat":11.2161,"lng":123.1073,"pop":6769,"capital":false},{"name":"Sampaloc","country":"PH","lat":14.1627,"lng":121.6396,"pop":6743,"capital":false},{"name":"Ilog","country":"PH","lat":10.0266,"lng":122.7684,"pop":6741,"capital":false},{"name":"Matnog","country":"PH","lat":12.5878,"lng":124.0875,"pop":6721,"capital":false},{"name":"Binubusan","country":"PH","lat":13.9695,"lng":120.6357,"pop":6714,"capital":false},{"name":"Balogo","country":"PH","lat":10.8868,"lng":124.7105,"pop":6704,"capital":false},{"name":"Minante Segundo","country":"PH","lat":16.9022,"lng":121.7619,"pop":6697,"capital":false},{"name":"Rimus","country":"PH","lat":16.8764,"lng":120.3966,"pop":6670,"capital":false},{"name":"Daraga","country":"PH","lat":13.1483,"lng":123.7124,"pop":6664,"capital":false},{"name":"Barugo","country":"PH","lat":11.3242,"lng":124.7383,"pop":6655,"capital":false},{"name":"Bulusan","country":"PH","lat":12.7494,"lng":124.1209,"pop":6648,"capital":false},{"name":"Inayagan","country":"PH","lat":10.2348,"lng":123.769,"pop":6610,"capital":false},{"name":"Santa Maria","country":"PH","lat":14.4719,"lng":121.4286,"pop":6603,"capital":false},{"name":"Burgos","country":"PH","lat":17.0891,"lng":121.7025,"pop":6581,"capital":false},{"name":"Nangka","country":"PH","lat":10.55,"lng":123.9667,"pop":6580,"capital":false},{"name":"Bone South","country":"PH","lat":16.2446,"lng":120.9958,"pop":6573,"capital":false},{"name":"Paringao","country":"PH","lat":16.5717,"lng":120.3242,"pop":6570,"capital":false},{"name":"Bonga","country":"PH","lat":13.2799,"lng":123.7587,"pop":6566,"capital":false},{"name":"Boac","country":"PH","lat":13.4463,"lng":121.84,"pop":6566,"capital":false},{"name":"Biao","country":"PH","lat":10.1088,"lng":122.9772,"pop":6559,"capital":false},{"name":"Santa Barbara","country":"PH","lat":15.3849,"lng":120.7961,"pop":6525,"capital":false},{"name":"Caramutan","country":"PH","lat":15.9207,"lng":120.6101,"pop":6524,"capital":false},{"name":"Balele","country":"PH","lat":14.0653,"lng":121.0936,"pop":6496,"capital":false},{"name":"Andres Bonifacio","country":"PH","lat":10.9167,"lng":123.25,"pop":6494,"capital":false},{"name":"Bagong Bayan II-A","country":"PH","lat":14.0682,"lng":121.3192,"pop":6471,"capital":false},{"name":"Caibiran","country":"PH","lat":11.5717,"lng":124.5822,"pop":6462,"capital":false},{"name":"San Vicente","country":"PH","lat":14.9459,"lng":120.7485,"pop":6449,"capital":false},{"name":"Cauayan","country":"PH","lat":15.1515,"lng":120.6717,"pop":6436,"capital":false},{"name":"Santol","country":"PH","lat":10.1725,"lng":122.9947,"pop":6435,"capital":false},{"name":"Cambuga","country":"PH","lat":13.6167,"lng":122.45,"pop":6432,"capital":false},{"name":"Barahan","country":"PH","lat":13.0121,"lng":120.762,"pop":6414,"capital":false},{"name":"Pansol","country":"PH","lat":13.8866,"lng":121.2432,"pop":6380,"capital":false},{"name":"Atulayan","country":"PH","lat":17.6648,"lng":121.6937,"pop":6374,"capital":false},{"name":"Loacan","country":"PH","lat":16.55,"lng":120.6667,"pop":6371,"capital":false},{"name":"Cayang","country":"PH","lat":11.0667,"lng":123.9833,"pop":6353,"capital":false},{"name":"Lasam","country":"PH","lat":18.0652,"lng":121.6007,"pop":6352,"capital":false},{"name":"San Fernando","country":"PH","lat":13.5656,"lng":123.1453,"pop":6345,"capital":false},{"name":"Mambulo","country":"PH","lat":13.7167,"lng":123.05,"pop":6319,"capital":false},{"name":"Santa Ana","country":"PH","lat":18.4699,"lng":122.1478,"pop":6315,"capital":false},{"name":"Talugtug","country":"PH","lat":15.7778,"lng":120.8111,"pop":6307,"capital":false},{"name":"Mayantoc","country":"PH","lat":15.6199,"lng":120.377,"pop":6250,"capital":false},{"name":"Babatngon","country":"PH","lat":11.4238,"lng":124.8449,"pop":6237,"capital":false},{"name":"Santo Rosario","country":"PH","lat":15.6447,"lng":120.8612,"pop":6234,"capital":false},{"name":"Culaba","country":"PH","lat":11.6578,"lng":124.5425,"pop":6231,"capital":false},{"name":"Reina Mercedes","country":"PH","lat":16.9855,"lng":121.8266,"pop":6227,"capital":false},{"name":"Malicboy","country":"PH","lat":13.9816,"lng":121.7889,"pop":6224,"capital":false},{"name":"San Fernando","country":"PH","lat":12.4833,"lng":123.7622,"pop":6211,"capital":false},{"name":"Donsol","country":"PH","lat":12.9055,"lng":123.5949,"pop":6198,"capital":false},{"name":"Santa Catalina Sur","country":"PH","lat":13.8738,"lng":121.431,"pop":6195,"capital":false},{"name":"Buguias","country":"PH","lat":16.7227,"lng":120.8283,"pop":6192,"capital":false},{"name":"Claveria","country":"PH","lat":12.9035,"lng":123.2457,"pop":6185,"capital":false},{"name":"Dingle","country":"PH","lat":10.9995,"lng":122.6711,"pop":6172,"capital":false},{"name":"Barlig","country":"PH","lat":17.0373,"lng":121.1038,"pop":6168,"capital":false},{"name":"Camp Flora","country":"PH","lat":13.3508,"lng":122.6641,"pop":6146,"capital":false},{"name":"Vito","country":"PH","lat":10.9031,"lng":123.5154,"pop":6141,"capital":false},{"name":"Loqueb Este","country":"PH","lat":15.9448,"lng":120.4461,"pop":6141,"capital":false},{"name":"Gloria","country":"PH","lat":12.9833,"lng":121.4667,"pop":6137,"capital":false},{"name":"Bonbon","country":"PH","lat":10.2245,"lng":123.5573,"pop":6122,"capital":false},{"name":"Minien East","country":"PH","lat":15.9772,"lng":120.4813,"pop":6111,"capital":false},{"name":"Cabatuan","country":"PH","lat":10.8794,"lng":122.486,"pop":6106,"capital":false},{"name":"San Isidro","country":"PH","lat":15.0212,"lng":120.8202,"pop":6093,"capital":false},{"name":"Odiongan","country":"PH","lat":12.4017,"lng":121.9919,"pop":6077,"capital":false},{"name":"Nampicuan","country":"PH","lat":15.7314,"lng":120.625,"pop":6058,"capital":false},{"name":"Macalelon","country":"PH","lat":13.7469,"lng":122.1386,"pop":6042,"capital":false},{"name":"Dassun","country":"PH","lat":17.7452,"lng":121.7114,"pop":6030,"capital":false},{"name":"Liboro","country":"PH","lat":13.8245,"lng":122.7295,"pop":6028,"capital":false},{"name":"Sinamar","country":"PH","lat":16.9,"lng":121.5667,"pop":6012,"capital":false},{"name":"Milagros","country":"PH","lat":12.2181,"lng":123.5095,"pop":6009,"capital":false},{"name":"Santo Rosario","country":"PH","lat":15.4343,"lng":120.8898,"pop":6005,"capital":false},{"name":"Talaban","country":"PH","lat":10.1254,"lng":122.8671,"pop":6003,"capital":false},{"name":"Bugang","country":"PH","lat":10.7419,"lng":123.3933,"pop":6000,"capital":false},{"name":"Punao","country":"PH","lat":10.5652,"lng":123.408,"pop":5997,"capital":false},{"name":"Patao","country":"PH","lat":11.2202,"lng":123.6925,"pop":5997,"capital":false},{"name":"San Manuel","country":"PH","lat":15.4905,"lng":120.6654,"pop":5995,"capital":false},{"name":"Manoc-Manoc","country":"PH","lat":11.9416,"lng":121.9428,"pop":5991,"capital":false},{"name":"Buga","country":"PH","lat":10.7167,"lng":122.2667,"pop":5975,"capital":false},{"name":"Santiago","country":"PH","lat":14.9037,"lng":120.5113,"pop":5971,"capital":false},{"name":"Placer","country":"PH","lat":11.8687,"lng":123.9184,"pop":5969,"capital":false},{"name":"Tinaan","country":"PH","lat":11.2667,"lng":123.75,"pop":5959,"capital":false},{"name":"Piat","country":"PH","lat":17.7905,"lng":121.478,"pop":5958,"capital":false},{"name":"Pantabangan","country":"PH","lat":15.8113,"lng":121.1443,"pop":5956,"capital":false},{"name":"Camaligan","country":"PH","lat":13.6224,"lng":123.1667,"pop":5950,"capital":false},{"name":"Cabcaben","country":"PH","lat":14.454,"lng":120.5914,"pop":5949,"capital":false},{"name":"Magtaking","country":"PH","lat":15.9854,"lng":120.1832,"pop":5946,"capital":false},{"name":"San Pascual","country":"PH","lat":13.1289,"lng":122.9771,"pop":5939,"capital":false},{"name":"Salapungan","country":"PH","lat":15.1339,"lng":120.9279,"pop":5928,"capital":false},{"name":"Pavia","country":"PH","lat":10.7761,"lng":122.5456,"pop":5928,"capital":false},{"name":"Can-Avid","country":"PH","lat":11.9953,"lng":125.4472,"pop":5928,"capital":false},{"name":"San Jose","country":"PH","lat":17.15,"lng":121.6,"pop":5905,"capital":false},{"name":"Mambusao","country":"PH","lat":11.4336,"lng":122.5982,"pop":5871,"capital":false},{"name":"Balingcanaway","country":"PH","lat":15.4822,"lng":120.6854,"pop":5870,"capital":false},{"name":"Matlang","country":"PH","lat":10.8902,"lng":124.4554,"pop":5840,"capital":false},{"name":"Natividad","country":"PH","lat":16.0443,"lng":120.7987,"pop":5828,"capital":false},{"name":"Sarrat","country":"PH","lat":18.1574,"lng":120.647,"pop":5822,"capital":false},{"name":"Santa Ines West","country":"PH","lat":15.5569,"lng":120.4645,"pop":5821,"capital":false},{"name":"Cabano","country":"PH","lat":10.5869,"lng":122.7002,"pop":5812,"capital":false},{"name":"Alegria","country":"PH","lat":12.3984,"lng":124.3261,"pop":5811,"capital":false},{"name":"Patnongon","country":"PH","lat":10.9132,"lng":121.9937,"pop":5810,"capital":false},{"name":"Tabango","country":"PH","lat":11.3077,"lng":124.373,"pop":5806,"capital":false},{"name":"Bilao","country":"PH","lat":11.488,"lng":122.5599,"pop":5805,"capital":false},{"name":"Macalong","country":"PH","lat":16.0137,"lng":120.6586,"pop":5802,"capital":false},{"name":"Lloren","country":"PH","lat":16.3331,"lng":120.4329,"pop":5800,"capital":false},{"name":"Pantay Na Matanda","country":"PH","lat":14.1175,"lng":121.1211,"pop":5791,"capital":false},{"name":"Lunas","country":"PH","lat":10.6402,"lng":123.7525,"pop":5789,"capital":false},{"name":"Baligang","country":"PH","lat":13.1537,"lng":123.6432,"pop":5781,"capital":false},{"name":"Kauit","country":"PH","lat":11.186,"lng":123.9459,"pop":5771,"capital":false},{"name":"Pasuquin","country":"PH","lat":18.3328,"lng":120.6177,"pop":5768,"capital":false},{"name":"Tamayo","country":"PH","lat":15.8775,"lng":120.2846,"pop":5767,"capital":false},{"name":"Gulod","country":"PH","lat":14.3449,"lng":121.2177,"pop":5764,"capital":false},{"name":"Buluang","country":"PH","lat":13.3068,"lng":123.3425,"pop":5758,"capital":false},{"name":"Bitin","country":"PH","lat":14.1165,"lng":121.2219,"pop":5758,"capital":false},{"name":"Lubang","country":"PH","lat":13.8584,"lng":120.124,"pop":5750,"capital":false},{"name":"Guisguis","country":"PH","lat":13.8738,"lng":121.5189,"pop":5741,"capital":false},{"name":"Suklayin","country":"PH","lat":15.7574,"lng":121.5503,"pop":5734,"capital":false},{"name":"New Washington","country":"PH","lat":11.6508,"lng":122.4322,"pop":5731,"capital":false},{"name":"Pansoy","country":"PH","lat":13.1818,"lng":122.5999,"pop":5728,"capital":false},{"name":"Yuni","country":"PH","lat":13.4124,"lng":122.4846,"pop":5714,"capital":false},{"name":"Santa Justina","country":"PH","lat":13.3967,"lng":123.4731,"pop":5712,"capital":false},{"name":"Sulucan","country":"PH","lat":14.7945,"lng":120.9259,"pop":5703,"capital":false},{"name":"Tulay na Lupa","country":"PH","lat":14.0934,"lng":122.7862,"pop":5693,"capital":false},{"name":"Kampokpok","country":"PH","lat":11.2962,"lng":124.405,"pop":5688,"capital":false},{"name":"San Mariano","country":"PH","lat":15.3208,"lng":120.8761,"pop":5686,"capital":false},{"name":"Nagtipunan","country":"PH","lat":16.2167,"lng":121.6,"pop":5682,"capital":false},{"name":"Pinugay","country":"PH","lat":14.5967,"lng":121.2623,"pop":5666,"capital":false},{"name":"Bato","country":"PH","lat":10.8085,"lng":123.3733,"pop":5665,"capital":false},{"name":"Balsic","country":"PH","lat":14.8591,"lng":120.4824,"pop":5661,"capital":false},{"name":"Anonang","country":"PH","lat":11,"lng":124.0333,"pop":5660,"capital":false},{"name":"Upi","country":"PH","lat":17.0826,"lng":121.8345,"pop":5647,"capital":false},{"name":"La Libertad","country":"PH","lat":10.0266,"lng":123.2335,"pop":5632,"capital":false},{"name":"San Policarpio","country":"PH","lat":12.0686,"lng":124.5695,"pop":5616,"capital":false},{"name":"Ungca","country":"PH","lat":10.75,"lng":122.55,"pop":5599,"capital":false},{"name":"Balangiga","country":"PH","lat":11.1097,"lng":125.3875,"pop":5592,"capital":false},{"name":"Pulung Santol","country":"PH","lat":15.0457,"lng":120.5619,"pop":5591,"capital":false},{"name":"Ballesteros","country":"PH","lat":18.4126,"lng":121.5152,"pop":5591,"capital":false},{"name":"Nato","country":"PH","lat":13.6105,"lng":123.5356,"pop":5583,"capital":false},{"name":"Lopez Jaena","country":"PH","lat":10.8478,"lng":123.4141,"pop":5573,"capital":false},{"name":"Salvacion","country":"PH","lat":10.6833,"lng":122.6167,"pop":5565,"capital":false},{"name":"Rosario","country":"PH","lat":13.8635,"lng":122.2731,"pop":5563,"capital":false},{"name":"Calinog","country":"PH","lat":11.1167,"lng":122.5667,"pop":5552,"capital":false},{"name":"Cawayan","country":"PH","lat":13.3672,"lng":122.5094,"pop":5549,"capital":false},{"name":"Gamu","country":"PH","lat":17.0498,"lng":121.836,"pop":5545,"capital":false},{"name":"Socorro","country":"PH","lat":13.0669,"lng":121.3986,"pop":5543,"capital":false},{"name":"Langtad","country":"PH","lat":10.1857,"lng":123.7344,"pop":5531,"capital":false},{"name":"San Andres","country":"PH","lat":14.05,"lng":121.2167,"pop":5527,"capital":false},{"name":"Masaya Sur","country":"PH","lat":16.5002,"lng":121.7474,"pop":5523,"capital":false},{"name":"Bacag","country":"PH","lat":15.93,"lng":120.5822,"pop":5509,"capital":false},{"name":"Busay","country":"PH","lat":10.5378,"lng":122.886,"pop":5503,"capital":false},{"name":"Polillo","country":"PH","lat":14.717,"lng":121.9489,"pop":5502,"capital":false},{"name":"Lambunao","country":"PH","lat":11.0556,"lng":122.4759,"pop":5500,"capital":false},{"name":"Maydolong","country":"PH","lat":11.5002,"lng":125.4981,"pop":5492,"capital":false},{"name":"Santa Monica","country":"PH","lat":15.3577,"lng":120.7201,"pop":5475,"capital":false},{"name":"Semirara","country":"PH","lat":12.0697,"lng":121.3986,"pop":5470,"capital":false},{"name":"Bagong Sikat","country":"PH","lat":12.3675,"lng":121.0617,"pop":5468,"capital":false},{"name":"Nagbukel","country":"PH","lat":17.4471,"lng":120.5247,"pop":5465,"capital":false},{"name":"Santa Catalina Norte","country":"PH","lat":13.8708,"lng":121.3575,"pop":5448,"capital":false},{"name":"Puro","country":"PH","lat":12.4841,"lng":123.3827,"pop":5442,"capital":false},{"name":"Napoles","country":"PH","lat":10.504,"lng":122.8979,"pop":5440,"capital":false},{"name":"Maguyam","country":"PH","lat":14.2628,"lng":121.005,"pop":5437,"capital":false},{"name":"Mapalacsiao","country":"PH","lat":15.4283,"lng":120.6525,"pop":5419,"capital":false},{"name":"Soyung","country":"PH","lat":16.7001,"lng":121.6655,"pop":5418,"capital":false},{"name":"Dumpay","country":"PH","lat":15.883,"lng":120.389,"pop":5414,"capital":false},{"name":"Bantilan","country":"PH","lat":14.7581,"lng":121.669,"pop":5406,"capital":false},{"name":"Loreto","country":"PH","lat":10.3636,"lng":125.5731,"pop":5397,"capital":false},{"name":"Tajao","country":"PH","lat":10.3148,"lng":123.5835,"pop":5394,"capital":false},{"name":"Putol","country":"PH","lat":13.9922,"lng":120.7275,"pop":5387,"capital":false},{"name":"Nailong","country":"PH","lat":11.0537,"lng":124.0385,"pop":5379,"capital":false},{"name":"Monamon","country":"PH","lat":16.8833,"lng":120.8833,"pop":5371,"capital":false},{"name":"Bulalacao","country":"PH","lat":11.7435,"lng":120.1715,"pop":5366,"capital":false},{"name":"Domampot","country":"PH","lat":16,"lng":120.65,"pop":5340,"capital":false},{"name":"Dulangan","country":"PH","lat":11.4561,"lng":122.9557,"pop":5339,"capital":false},{"name":"Dorongan Punta","country":"PH","lat":15.8148,"lng":120.3227,"pop":5336,"capital":false},{"name":"Infanta","country":"PH","lat":14.745,"lng":121.6495,"pop":5321,"capital":false},{"name":"Bien Unido","country":"PH","lat":10.1373,"lng":124.3776,"pop":5304,"capital":false},{"name":"Ligaya","country":"PH","lat":15.5091,"lng":121.2872,"pop":5299,"capital":false},{"name":"Janopol","country":"PH","lat":14.0859,"lng":121.0949,"pop":5297,"capital":false},{"name":"Taysan","country":"PH","lat":13.8697,"lng":121.0971,"pop":5296,"capital":false},{"name":"Sual","country":"PH","lat":16.0668,"lng":120.0941,"pop":5290,"capital":false},{"name":"Liwan","country":"PH","lat":17.5191,"lng":121.632,"pop":5286,"capital":false},{"name":"Calibutbut","country":"PH","lat":15.1149,"lng":120.5982,"pop":5282,"capital":false},{"name":"La Granja","country":"PH","lat":10.4082,"lng":122.9898,"pop":5277,"capital":false},{"name":"Tabuc Pontevedra","country":"PH","lat":11.4833,"lng":122.8167,"pop":5276,"capital":false},{"name":"Ibabang Tayuman","country":"PH","lat":13.4042,"lng":122.5165,"pop":5276,"capital":false},{"name":"Vintar","country":"PH","lat":18.2284,"lng":120.6475,"pop":5263,"capital":false},{"name":"Giporlos","country":"PH","lat":11.12,"lng":125.4494,"pop":5258,"capital":false},{"name":"Esperanza","country":"PH","lat":10.6995,"lng":124.3143,"pop":5257,"capital":false},{"name":"Tapon","country":"PH","lat":10.0631,"lng":123.4453,"pop":5245,"capital":false},{"name":"Basud","country":"PH","lat":14.065,"lng":122.9642,"pop":5232,"capital":false},{"name":"Tartaro","country":"PH","lat":15.1667,"lng":121.0167,"pop":5231,"capital":false},{"name":"Jones","country":"PH","lat":16.5571,"lng":121.7029,"pop":5227,"capital":false},{"name":"Aga","country":"PH","lat":14.0965,"lng":120.8022,"pop":5218,"capital":false},{"name":"Hibaiyo","country":"PH","lat":10.2726,"lng":123.321,"pop":5209,"capital":false},{"name":"Cumadcad","country":"PH","lat":12.9806,"lng":123.7892,"pop":5203,"capital":false},{"name":"Entablado","country":"PH","lat":15.2866,"lng":120.863,"pop":5202,"capital":false},{"name":"Muñoz East","country":"PH","lat":17.1575,"lng":121.6135,"pop":5198,"capital":false},{"name":"Mondragon","country":"PH","lat":12.5157,"lng":124.7523,"pop":5198,"capital":false},{"name":"San Andres","country":"PH","lat":13.3227,"lng":122.6779,"pop":5192,"capital":false},{"name":"Pantijan No 2","country":"PH","lat":14.2331,"lng":120.8006,"pop":5182,"capital":false},{"name":"Janagdong","country":"PH","lat":13.9034,"lng":121.5134,"pop":5174,"capital":false},{"name":"Leon","country":"PH","lat":10.7808,"lng":122.3894,"pop":5172,"capital":false},{"name":"Panitan","country":"PH","lat":11.466,"lng":122.7725,"pop":5156,"capital":false},{"name":"Baquero Norte","country":"PH","lat":15.7162,"lng":120.5543,"pop":5145,"capital":false},{"name":"Sabang","country":"PH","lat":14.6951,"lng":120.2507,"pop":5144,"capital":false},{"name":"Talisay","country":"PH","lat":13.1806,"lng":122.6236,"pop":5141,"capital":false},{"name":"Santo Tomas","country":"PH","lat":15.7498,"lng":120.9624,"pop":5138,"capital":false},{"name":"Murcia","country":"PH","lat":15.4043,"lng":120.609,"pop":5138,"capital":false},{"name":"Llanera","country":"PH","lat":15.6635,"lng":121.0182,"pop":5121,"capital":false},{"name":"Plaridel","country":"PH","lat":10.8974,"lng":123.4894,"pop":5110,"capital":false},{"name":"Umiray","country":"PH","lat":15.2206,"lng":121.4111,"pop":5096,"capital":false},{"name":"Pandan","country":"PH","lat":14.0453,"lng":124.1694,"pop":5093,"capital":false},{"name":"Dayap","country":"PH","lat":14.1801,"lng":121.3334,"pop":5092,"capital":false},{"name":"Catablan","country":"PH","lat":15.9757,"lng":120.4953,"pop":5091,"capital":false},{"name":"Quezon","country":"PH","lat":16.5,"lng":121.2667,"pop":5080,"capital":false},{"name":"Tumcon Ilawod","country":"PH","lat":10.9167,"lng":122.6667,"pop":5067,"capital":false},{"name":"San Gabriel","country":"PH","lat":13.5667,"lng":123.1,"pop":5065,"capital":false},{"name":"Balibago","country":"PH","lat":15.1624,"lng":120.5954,"pop":5057,"capital":false},{"name":"Tayaman","country":"PH","lat":13.2295,"lng":120.5726,"pop":5050,"capital":false},{"name":"San Francisco","country":"PH","lat":10.1602,"lng":124.311,"pop":5047,"capital":false},{"name":"Santo Domingo","country":"PH","lat":14.9912,"lng":120.7434,"pop":5045,"capital":false},{"name":"Tiaong","country":"PH","lat":13.9638,"lng":121.3212,"pop":5044,"capital":false},{"name":"Sinilian First","country":"PH","lat":15.6933,"lng":120.4594,"pop":5040,"capital":false},{"name":"Ivisan","country":"PH","lat":11.5217,"lng":122.6908,"pop":5036,"capital":false},{"name":"San Juan","country":"PH","lat":15.2897,"lng":120.0648,"pop":5034,"capital":false},{"name":"Santo Domingo","country":"PH","lat":13.42,"lng":123.4486,"pop":5031,"capital":false},{"name":"Valencia","country":"PH","lat":10.136,"lng":123.6126,"pop":5027,"capital":false},{"name":"San Pedro","country":"PH","lat":10.8018,"lng":121.9499,"pop":5026,"capital":false},{"name":"Batobalane","country":"PH","lat":14.2333,"lng":122.75,"pop":5025,"capital":false},{"name":"Arteche","country":"PH","lat":12.2645,"lng":125.4048,"pop":5025,"capital":false},{"name":"Calubcub Dos","country":"PH","lat":13.7393,"lng":121.4219,"pop":5019,"capital":false},{"name":"Antipolo","country":"PH","lat":13.5286,"lng":123.1622,"pop":5018,"capital":false},{"name":"Bacon","country":"PH","lat":13.0378,"lng":124.0411,"pop":5010,"capital":false},{"name":"Calolbon","country":"PH","lat":13.596,"lng":124.0991,"pop":5005,"capital":false}]