[{"name":"Saku","country":"JP","lat":36.2167,"lng":138.4833,"pop":99131,"capital":false},{"name":"Itoshima","country":"JP","lat":33.5423,"lng":130.1842,"pop":98877,"capital":false},{"name":"Kōnan","country":"JP","lat":35.3317,"lng":136.8704,"pop":98255,"capital":false},{"name":"Kameoka","country":"JP","lat":35,"lng":135.5833,"pop":97181,"capital":false},{"name":"Munakata","country":"JP","lat":33.7957,"lng":130.559,"pop":97095,"capital":false},{"name":"Shibata","country":"JP","lat":37.95,"lng":139.3333,"pop":96236,"capital":false},{"name":"Shimada","country":"JP","lat":34.8167,"lng":138.1833,"pop":95719,"capital":false},{"name":"Kanuma","country":"JP","lat":36.55,"lng":139.7333,"pop":94903,"capital":false},{"name":"Sanjō","country":"JP","lat":37.6167,"lng":138.95,"pop":94642,"capital":false},{"name":"Azumino","country":"JP","lat":36.2882,"lng":137.887,"pop":94222,"capital":false},{"name":"Ashiya","country":"JP","lat":34.7281,"lng":135.3026,"pop":93922,"capital":false},{"name":"Yashio","country":"JP","lat":35.8226,"lng":139.839,"pop":93363,"capital":false},{"name":"Inagi","country":"JP","lat":35.633,"lng":139.4997,"pop":93151,"capital":false},{"name":"Ōbu","country":"JP","lat":35.0176,"lng":136.9495,"pop":93123,"capital":false},{"name":"Kaizuka","country":"JP","lat":34.45,"lng":135.35,"pop":92632,"capital":false},{"name":"Maizuru","country":"JP","lat":35.45,"lng":135.3333,"pop":92465,"capital":false},{"name":"Sendai","country":"JP","lat":31.8167,"lng":130.3,"pop":92403,"capital":false},{"name":"Sakai","country":"JP","lat":36.1473,"lng":136.1941,"pop":92210,"capital":false},{"name":"Nisshin","country":"JP","lat":35.1368,"lng":137.0524,"pop":91795,"capital":false},{"name":"Higashi-Matsuyama","country":"JP","lat":36.0333,"lng":139.4167,"pop":91791,"capital":false},{"name":"Imizu","country":"JP","lat":36.7684,"lng":137.1257,"pop":90742,"capital":false},{"name":"Mihara","country":"JP","lat":34.4,"lng":133.0833,"pop":90573,"capital":false},{"name":"Kōka","country":"JP","lat":34.9802,"lng":136.1575,"pop":89619,"capital":false},{"name":"Iga","country":"JP","lat":34.758,"lng":136.1347,"pop":88895,"capital":false},{"name":"Takayama","country":"JP","lat":36.1333,"lng":137.25,"pop":88473,"capital":false},{"name":"Fukuroi","country":"JP","lat":34.75,"lng":137.9167,"pop":88395,"capital":false},{"name":"Takasago","country":"JP","lat":34.763,"lng":134.7923,"pop":87722,"capital":false},{"name":"Settsu","country":"JP","lat":34.7782,"lng":135.5951,"pop":87456,"capital":false},{"name":"Gotemba","country":"JP","lat":35.3186,"lng":138.9434,"pop":86614,"capital":false},{"name":"Hamakita","country":"JP","lat":34.8,"lng":137.7833,"pop":86502,"capital":false},{"name":"Kitanagoya","country":"JP","lat":35.247,"lng":136.8783,"pop":86385,"capital":false},{"name":"Gyōda","country":"JP","lat":36.1407,"lng":139.4601,"pop":86343,"capital":false},{"name":"Kashiwazaki","country":"JP","lat":37.3667,"lng":138.55,"pop":86183,"capital":false},{"name":"Ama","country":"JP","lat":35.1831,"lng":136.7997,"pop":86126,"capital":false},{"name":"Moriyama","country":"JP","lat":35.0667,"lng":135.9833,"pop":85485,"capital":false},{"name":"Sekimachi","country":"JP","lat":35.4833,"lng":136.9167,"pop":85283,"capital":false},{"name":"Komae","country":"JP","lat":35.6342,"lng":139.5755,"pop":84772,"capital":false},{"name":"Nakatsu","country":"JP","lat":33.5981,"lng":131.1883,"pop":84701,"capital":false},{"name":"Chita","country":"JP","lat":35.0027,"lng":136.8642,"pop":84364,"capital":false},{"name":"Wako","country":"JP","lat":35.7894,"lng":139.6233,"pop":83989,"capital":false},{"name":"Ayase","country":"JP","lat":35.4352,"lng":139.4256,"pop":83913,"capital":false},{"name":"Higashiyamato","country":"JP","lat":35.763,"lng":139.4458,"pop":83901,"capital":false},{"name":"Yamatokōriyama","country":"JP","lat":34.6066,"lng":135.7703,"pop":83285,"capital":false},{"name":"Owariasahi","country":"JP","lat":35.208,"lng":137.03,"pop":83144,"capital":false},{"name":"Amakusa","country":"JP","lat":32.4586,"lng":130.1931,"pop":83082,"capital":false},{"name":"Echizen","country":"JP","lat":35.8857,"lng":136.1707,"pop":83078,"capital":false},{"name":"Kimitsu","country":"JP","lat":35.3504,"lng":139.8703,"pop":83058,"capital":false},{"name":"Kamigyō-ku","country":"JP","lat":35.0295,"lng":135.7567,"pop":83000,"capital":false},{"name":"Shikokuchūō","country":"JP","lat":33.9754,"lng":133.549,"pop":82754,"capital":false},{"name":"Ōmihachiman","country":"JP","lat":35.1286,"lng":136.0976,"pop":82233,"capital":false},{"name":"Tanashichō","country":"JP","lat":35.7292,"lng":139.5381,"pop":82112,"capital":false},{"name":"Akiruno","country":"JP","lat":35.7285,"lng":139.2318,"pop":81912,"capital":false},{"name":"Tatebayashi","country":"JP","lat":36.25,"lng":139.5333,"pop":81274,"capital":false},{"name":"Kōtari","country":"JP","lat":34.921,"lng":135.7055,"pop":80608,"capital":false},{"name":"Hannō","country":"JP","lat":35.8519,"lng":139.3181,"pop":80361,"capital":false},{"name":"Gamagōri","country":"JP","lat":34.8333,"lng":137.2333,"pop":80063,"capital":false},{"name":"Kashihara","country":"JP","lat":34.5833,"lng":135.6167,"pop":79058,"capital":false},{"name":"Nakatsugawa","country":"JP","lat":35.4833,"lng":137.5,"pop":78930,"capital":false},{"name":"Honjō","country":"JP","lat":36.2378,"lng":139.1902,"pop":78569,"capital":false},{"name":"Toyooka","country":"JP","lat":35.5401,"lng":134.8204,"pop":78348,"capital":false},{"name":"Kashiba","country":"JP","lat":34.5347,"lng":135.7093,"pop":78113,"capital":false},{"name":"Kizugawa","country":"JP","lat":34.7367,"lng":135.8399,"pop":77907,"capital":false},{"name":"Nikkō","country":"JP","lat":36.75,"lng":139.6167,"pop":77661,"capital":false},{"name":"Tsubame","country":"JP","lat":37.6645,"lng":138.9252,"pop":77382,"capital":false},{"name":"Fukuchiyama","country":"JP","lat":35.3,"lng":135.1167,"pop":77306,"capital":false},{"name":"Akihabara","country":"JP","lat":35.6985,"lng":139.7725,"pop":77200,"capital":false},{"name":"Kunitachi","country":"JP","lat":35.6833,"lng":139.4385,"pop":77130,"capital":false},{"name":"Nabari","country":"JP","lat":34.6167,"lng":136.0833,"pop":77022,"capital":false},{"name":"Tsurusaki","country":"JP","lat":33.2453,"lng":131.6917,"pop":76968,"capital":false},{"name":"Shiki","country":"JP","lat":35.8333,"lng":139.5833,"pop":76445,"capital":false},{"name":"Aira","country":"JP","lat":31.7743,"lng":130.5921,"pop":76348,"capital":false},{"name":"Kiyose","country":"JP","lat":35.7795,"lng":139.5301,"pop":76208,"capital":false},{"name":"Shibukawa","country":"JP","lat":36.4833,"lng":139,"pop":76098,"capital":false},{"name":"Takefu","country":"JP","lat":35.9039,"lng":136.1669,"pop":75753,"capital":false},{"name":"Warabi","country":"JP","lat":35.8219,"lng":139.6855,"pop":75614,"capital":false},{"name":"Miki","country":"JP","lat":34.8,"lng":134.9833,"pop":75450,"capital":false},{"name":"Kai","country":"JP","lat":35.6846,"lng":138.5098,"pop":75313,"capital":false},{"name":"Okegawa","country":"JP","lat":36,"lng":139.5572,"pop":75062,"capital":false},{"name":"Katano","country":"JP","lat":34.7933,"lng":135.686,"pop":75033,"capital":false},{"name":"Yotsuya","country":"JP","lat":35.6897,"lng":139.7164,"pop":74800,"capital":false},{"name":"Jōyō","country":"JP","lat":34.844,"lng":135.8056,"pop":74607,"capital":false},{"name":"Izumiōtsu","country":"JP","lat":34.5,"lng":135.4,"pop":74412,"capital":false},{"name":"Tatsuno","country":"JP","lat":34.8318,"lng":134.5434,"pop":74316,"capital":false},{"name":"Tosu","country":"JP","lat":33.3667,"lng":130.5167,"pop":74196,"capital":false},{"name":"Inuyama","country":"JP","lat":35.38,"lng":136.943,"pop":73995,"capital":false},{"name":"Kyōtanabe","country":"JP","lat":34.8045,"lng":135.7668,"pop":73753,"capital":false},{"name":"Yoshikawa","country":"JP","lat":35.8923,"lng":139.8418,"pop":73262,"capital":false},{"name":"Dazaifu","country":"JP","lat":33.5128,"lng":130.5239,"pop":73164,"capital":false},{"name":"Hekinan","country":"JP","lat":34.8833,"lng":136.9833,"pop":72458,"capital":false},{"name":"Chiryū","country":"JP","lat":35,"lng":137.0333,"pop":72193,"capital":false},{"name":"Yawata","country":"JP","lat":34.8701,"lng":135.7027,"pop":71656,"capital":false},{"name":"Minami-Alps","country":"JP","lat":35.616,"lng":138.4634,"pop":71618,"capital":false},{"name":"Yukuhashi","country":"JP","lat":33.7287,"lng":130.983,"pop":71426,"capital":false},{"name":"Tenri","country":"JP","lat":34.5833,"lng":135.8333,"pop":71052,"capital":false},{"name":"Tanabe","country":"JP","lat":33.7333,"lng":135.3667,"pop":70972,"capital":false},{"name":"Musashimurayama","country":"JP","lat":35.7424,"lng":139.4264,"pop":70829,"capital":false},{"name":"Uwajima","country":"JP","lat":33.2238,"lng":132.56,"pop":70809,"capital":false},{"name":"Maebaru-chūō","country":"JP","lat":33.5592,"lng":130.2015,"pop":70339,"capital":false},{"name":"Rittō","country":"JP","lat":35.0275,"lng":135.9997,"pop":70312,"capital":false},{"name":"Anan","country":"JP","lat":33.9167,"lng":134.65,"pop":70285,"capital":false},{"name":"Tsurugashima","country":"JP","lat":35.96,"lng":139.4028,"pop":70117,"capital":false},{"name":"Yokota","country":"JP","lat":35.75,"lng":139.3833,"pop":69550,"capital":false},{"name":"Fuefuki","country":"JP","lat":35.6353,"lng":138.6385,"pop":69463,"capital":false},{"name":"Minamiarupusu","country":"JP","lat":35.6086,"lng":138.4647,"pop":69459,"capital":false},{"name":"Toyoake","country":"JP","lat":35.038,"lng":136.9993,"pop":69295,"capital":false},{"name":"Sōja","country":"JP","lat":34.6753,"lng":133.7509,"pop":69030,"capital":false},{"name":"Itō","country":"JP","lat":34.9667,"lng":139.0833,"pop":68773,"capital":false},{"name":"Gion","country":"JP","lat":34.4333,"lng":132.4667,"pop":68713,"capital":false},{"name":"Tsuruga","country":"JP","lat":35.653,"lng":136.0633,"pop":68482,"capital":false},{"name":"Sabae","country":"JP","lat":35.9465,"lng":136.185,"pop":68302,"capital":false},{"name":"Ina","country":"JP","lat":35.8276,"lng":137.9538,"pop":68177,"capital":false},{"name":"Hashima","country":"JP","lat":35.329,"lng":136.6805,"pop":67909,"capital":false},{"name":"Kaga","country":"JP","lat":36.3,"lng":136.3333,"pop":67793,"capital":false},{"name":"Tamano","country":"JP","lat":34.5174,"lng":133.9457,"pop":67786,"capital":false},{"name":"Tsushima","country":"JP","lat":35.1667,"lng":136.7167,"pop":67658,"capital":false},{"name":"Kiyosu","country":"JP","lat":35.2167,"lng":136.8333,"pop":67352,"capital":false},{"name":"Shiojiri","country":"JP","lat":36.1,"lng":137.9667,"pop":67241,"capital":false},{"name":"Fukutsu","country":"JP","lat":33.783,"lng":130.4911,"pop":67033,"capital":false},{"name":"Saiki","country":"JP","lat":32.95,"lng":131.9,"pop":66851,"capital":false},{"name":"Chiyoda","country":"JP","lat":35.6845,"lng":139.7506,"pop":66680,"capital":false},{"name":"Kitamoto","country":"JP","lat":36.0332,"lng":139.5378,"pop":66022,"capital":false},{"name":"Niitsu-honchō","country":"JP","lat":37.8002,"lng":139.1224,"pop":65910,"capital":false},{"name":"Tanabe","country":"JP","lat":34.8224,"lng":135.766,"pop":65903,"capital":false},{"name":"Mitoyo","country":"JP","lat":34.2105,"lng":133.6746,"pop":65713,"capital":false},{"name":"Hita","country":"JP","lat":33.3213,"lng":130.941,"pop":64874,"capital":false},{"name":"Fujioka","country":"JP","lat":36.2462,"lng":139.072,"pop":64539,"capital":false},{"name":"Yanagawa","country":"JP","lat":33.1667,"lng":130.4,"pop":64475,"capital":false},{"name":"Imaichi","country":"JP","lat":36.7167,"lng":139.6833,"pop":64323,"capital":false},{"name":"Tamana","country":"JP","lat":32.9472,"lng":130.5745,"pop":64292,"capital":false},{"name":"Narutochō-mitsuishi","country":"JP","lat":34.1993,"lng":134.6093,"pop":64082,"capital":false},{"name":"Fujiidera","country":"JP","lat":34.5676,"lng":135.5974,"pop":63688,"capital":false},{"name":"Shimodate","country":"JP","lat":36.3,"lng":139.9833,"pop":63666,"capital":false},{"name":"Ōjima","country":"JP","lat":35.6892,"lng":139.8328,"pop":63254,"capital":false},{"name":"Tanba","country":"JP","lat":35.1603,"lng":135.0391,"pop":62152,"capital":false},{"name":"Asakusa","country":"JP","lat":35.7169,"lng":139.7958,"pop":62092,"capital":false},{"name":"Miyoshi","country":"JP","lat":35.0897,"lng":137.09,"pop":61952,"capital":false},{"name":"Kōshi","country":"JP","lat":32.8927,"lng":130.7757,"pop":61772,"capital":false},{"name":"Yamato-Takada","country":"JP","lat":34.5167,"lng":135.75,"pop":61744,"capital":false},{"name":"Ueno-ebisumachi","country":"JP","lat":34.7586,"lng":136.1311,"pop":61598,"capital":false},{"name":"Hasuda","country":"JP","lat":35.9711,"lng":139.6491,"pop":61540,"capital":false},{"name":"Tamba","country":"JP","lat":35.1748,"lng":135.031,"pop":61471,"capital":false},{"name":"Chichibu","country":"JP","lat":35.9903,"lng":139.0764,"pop":61159,"capital":false},{"name":"Hashimoto","country":"JP","lat":34.3167,"lng":135.6167,"pop":61063,"capital":false},{"name":"Jōsō","country":"JP","lat":36.0355,"lng":139.9614,"pop":60834,"capital":false},{"name":"Aisai","country":"JP","lat":35.1635,"lng":136.7322,"pop":60829,"capital":false},{"name":"Yame","country":"JP","lat":33.2279,"lng":130.6487,"pop":60608,"capital":false},{"name":"Kinokawa","country":"JP","lat":34.2697,"lng":135.4105,"pop":60592,"capital":false},{"name":"Takaishi","country":"JP","lat":34.5167,"lng":135.4333,"pop":60511,"capital":false},{"name":"Sanyōonoda","country":"JP","lat":34.0325,"lng":131.1603,"pop":60326,"capital":false},{"name":"Shimotsuke","country":"JP","lat":36.4132,"lng":139.8662,"pop":60274,"capital":false},{"name":"Tahara","country":"JP","lat":34.668,"lng":137.2674,"pop":60206,"capital":false},{"name":"Nagakute","country":"JP","lat":35.1733,"lng":137.0567,"pop":60162,"capital":false},{"name":"Sennan","country":"JP","lat":34.3484,"lng":135.2684,"pop":60102,"capital":false},{"name":"Zushi","country":"JP","lat":35.2948,"lng":139.5781,"pop":60055,"capital":false},{"name":"Hyūga","country":"JP","lat":32.4227,"lng":131.6409,"pop":60037,"capital":false},{"name":"Uki","country":"JP","lat":32.6222,"lng":130.6618,"pop":59928,"capital":false},{"name":"Kosai","country":"JP","lat":34.7005,"lng":137.5225,"pop":59770,"capital":false},{"name":"Chikuma","country":"JP","lat":36.5272,"lng":138.0894,"pop":59381,"capital":false},{"name":"Ogōri","country":"JP","lat":33.3874,"lng":130.5487,"pop":59360,"capital":false},{"name":"Koga","country":"JP","lat":33.7333,"lng":130.4667,"pop":58786,"capital":false},{"name":"Tokoname","country":"JP","lat":34.8833,"lng":136.85,"pop":58710,"capital":false},{"name":"Hanyū","country":"JP","lat":36.1667,"lng":139.5333,"pop":58686,"capital":false},{"name":"Toki","country":"JP","lat":35.35,"lng":137.1833,"pop":58567,"capital":false},{"name":"Sayama","country":"JP","lat":34.5169,"lng":135.563,"pop":58435,"capital":false},{"name":"Sakurai","country":"JP","lat":34.5,"lng":135.85,"pop":58386,"capital":false},{"name":"Murakami","country":"JP","lat":38.2333,"lng":139.4833,"pop":58300,"capital":false},{"name":"Kokubu-matsuki","country":"JP","lat":31.7333,"lng":130.7667,"pop":57896,"capital":false},{"name":"Kan’onjichō","country":"JP","lat":34.1276,"lng":133.646,"pop":57438,"capital":false},{"name":"Nonoichi","country":"JP","lat":36.5333,"lng":136.6167,"pop":57238,"capital":false},{"name":"Hamada","country":"JP","lat":34.8833,"lng":132.0833,"pop":57142,"capital":false},{"name":"Bandō","country":"JP","lat":36.07,"lng":139.8671,"pop":57128,"capital":false},{"name":"Sakaidechō","country":"JP","lat":34.3228,"lng":133.8356,"pop":57090,"capital":false},{"name":"Annaka","country":"JP","lat":36.3301,"lng":138.8959,"pop":57013,"capital":false},{"name":"Minokamo","country":"JP","lat":35.482,"lng":137.0217,"pop":56972,"capital":false},{"name":"Mukō","country":"JP","lat":34.9654,"lng":135.7042,"pop":56859,"capital":false},{"name":"Nōgata","country":"JP","lat":33.7405,"lng":130.7226,"pop":56821,"capital":false},{"name":"Fussa","country":"JP","lat":35.7367,"lng":139.3236,"pop":56786,"capital":false},{"name":"Chino","country":"JP","lat":35.9944,"lng":138.1543,"pop":56400,"capital":false},{"name":"Mizuho","country":"JP","lat":35.3943,"lng":136.669,"pop":56388,"capital":false},{"name":"Kudamatsu","country":"JP","lat":34.0096,"lng":131.8664,"pop":55887,"capital":false},{"name":"Minamiuonuma","country":"JP","lat":37.0826,"lng":138.8741,"pop":55354,"capital":false},{"name":"Hidaka","country":"JP","lat":35.9166,"lng":139.3623,"pop":55294,"capital":false},{"name":"Satte","country":"JP","lat":36.0725,"lng":139.7262,"pop":55286,"capital":false},{"name":"Shijōnawate","country":"JP","lat":34.7333,"lng":135.6833,"pop":55177,"capital":false},{"name":"Hamura","country":"JP","lat":35.7623,"lng":139.3195,"pop":54622,"capital":false},{"name":"Konan","country":"JP","lat":34.9992,"lng":136.0967,"pop":54607,"capital":false},{"name":"Himimachi","country":"JP","lat":36.8561,"lng":136.9885,"pop":54510,"capital":false},{"name":"Okaya","country":"JP","lat":36.0566,"lng":138.0451,"pop":54286,"capital":false},{"name":"Suzaka","country":"JP","lat":36.65,"lng":138.3167,"pop":54022,"capital":false},{"name":"Iwade","country":"JP","lat":34.25,"lng":135.3167,"pop":53967,"capital":false},{"name":"Kurihama","country":"JP","lat":35.228,"lng":139.7021,"pop":53782,"capital":false},{"name":"Arao","country":"JP","lat":32.9789,"lng":130.4457,"pop":53675,"capital":false},{"name":"Miyoshi","country":"JP","lat":34.8,"lng":132.85,"pop":53616,"capital":false},{"name":"Tōkamachi","country":"JP","lat":37.1333,"lng":138.7667,"pop":53333,"capital":false},{"name":"Hatogaya-honchō","country":"JP","lat":35.8331,"lng":139.7425,"pop":53062,"capital":false},{"name":"Yokkaichi","country":"JP","lat":33.5354,"lng":131.3281,"pop":52771,"capital":false},{"name":"Hannan","country":"JP","lat":34.3333,"lng":135.25,"pop":52350,"capital":false},{"name":"Kamifukuoka","country":"JP","lat":35.8727,"lng":139.5137,"pop":52323,"capital":false},{"name":"Shiraoka","country":"JP","lat":36.0184,"lng":139.6603,"pop":52214,"capital":false},{"name":"Kariya","country":"JP","lat":34.7514,"lng":134.3873,"pop":52015,"capital":false},{"name":"Izumi","country":"JP","lat":32.0833,"lng":130.3667,"pop":51994,"capital":false},{"name":"Futtsu","country":"JP","lat":35.3108,"lng":139.8188,"pop":51650,"capital":false},{"name":"Tagawa","country":"JP","lat":33.6333,"lng":130.8,"pop":51608,"capital":false},{"name":"Sado","country":"JP","lat":38.025,"lng":138.3593,"pop":51492,"capital":false},{"name":"Miura","country":"JP","lat":35.14,"lng":139.6192,"pop":51483,"capital":false},{"name":"Nichinan","country":"JP","lat":31.6,"lng":131.3667,"pop":51241,"capital":false},{"name":"Susono","country":"JP","lat":35.1739,"lng":138.9069,"pop":51216,"capital":false},{"name":"Fuchū","country":"JP","lat":34.3879,"lng":132.51,"pop":51155,"capital":false},{"name":"Hikari","country":"JP","lat":33.955,"lng":131.95,"pop":51040,"capital":false},{"name":"Kyōtango","country":"JP","lat":35.6062,"lng":135.0443,"pop":50860,"capital":false},{"name":"Fuchūchō","country":"JP","lat":34.5735,"lng":133.2351,"pop":50746,"capital":false},{"name":"Yasu","country":"JP","lat":35.1005,"lng":136.0178,"pop":50695,"capital":false},{"name":"Yūki","country":"JP","lat":36.3,"lng":139.8833,"pop":50645,"capital":false},{"name":"Ōi","country":"JP","lat":35.8509,"lng":139.52,"pop":50593,"capital":false},{"name":"Nanao","country":"JP","lat":37.0482,"lng":136.968,"pop":50300,"capital":false},{"name":"Asakura","country":"JP","lat":33.4144,"lng":130.7188,"pop":50273,"capital":false},{"name":"Midori","country":"JP","lat":36.4449,"lng":139.2845,"pop":50266,"capital":false},{"name":"Kasaoka","country":"JP","lat":34.506,"lng":133.5039,"pop":50160,"capital":false},{"name":"Katanawa","country":"JP","lat":33.5211,"lng":130.4244,"pop":50112,"capital":false},{"name":"Tateyama","country":"JP","lat":34.9833,"lng":139.8667,"pop":50064,"capital":false},{"name":"Arashiyama","country":"JP","lat":35.0148,"lng":135.6776,"pop":50000,"capital":false},{"name":"Kameyama","country":"JP","lat":34.85,"lng":136.45,"pop":49835,"capital":false},{"name":"Takashimadaira","country":"JP","lat":35.7861,"lng":139.6612,"pop":49646,"capital":false},{"name":"Ogawa","country":"JP","lat":34.9667,"lng":136.9667,"pop":49596,"capital":false},{"name":"Kikuchi","country":"JP","lat":32.9833,"lng":130.8167,"pop":49455,"capital":false},{"name":"Yamaga","country":"JP","lat":33.0167,"lng":130.6891,"pop":49082,"capital":false},{"name":"Suwa","country":"JP","lat":36.038,"lng":138.1131,"pop":48972,"capital":false},{"name":"Chikugo","country":"JP","lat":33.2054,"lng":130.4918,"pop":48827,"capital":false},{"name":"Fujiyoshida","country":"JP","lat":35.4403,"lng":138.7959,"pop":48782,"capital":false},{"name":"Ena","country":"JP","lat":35.4472,"lng":137.3833,"pop":48777,"capital":false},{"name":"Takahama","country":"JP","lat":34.9167,"lng":136.9833,"pop":48736,"capital":false},{"name":"Tonami","country":"JP","lat":36.6205,"lng":136.9432,"pop":48659,"capital":false},{"name":"Izunokuni","country":"JP","lat":35.0391,"lng":138.9514,"pop":48579,"capital":false},{"name":"Kurayoshi","country":"JP","lat":35.4333,"lng":133.8167,"pop":48558,"capital":false},{"name":"Nomimachi","country":"JP","lat":36.4097,"lng":136.4847,"pop":48523,"capital":false},{"name":"Kikugawa","country":"JP","lat":34.7029,"lng":138.1198,"pop":48484,"capital":false},{"name":"Gosen","country":"JP","lat":37.7333,"lng":139.1667,"pop":48458,"capital":false},{"name":"Kainan","country":"JP","lat":34.1517,"lng":135.214,"pop":48369,"capital":false},{"name":"Nihammatsu","country":"JP","lat":35.3728,"lng":139.3917,"pop":48348,"capital":false},{"name":"Wakasugi","country":"JP","lat":33.6094,"lng":130.5263,"pop":48190,"capital":false},{"name":"Iwakura","country":"JP","lat":35.2833,"lng":136.8667,"pop":48007,"capital":false},{"name":"Nanto-shi","country":"JP","lat":36.5692,"lng":136.9116,"pop":47976,"capital":false},{"name":"Nanto","country":"JP","lat":36.5127,"lng":136.8935,"pop":47976,"capital":false},{"name":"Takeo","country":"JP","lat":33.1901,"lng":130.0208,"pop":47914,"capital":false},{"name":"Tomioka","country":"JP","lat":36.2541,"lng":138.8981,"pop":47911,"capital":false},{"name":"Shima","country":"JP","lat":34.3333,"lng":136.8333,"pop":47774,"capital":false},{"name":"Ono","country":"JP","lat":34.85,"lng":134.9333,"pop":47609,"capital":false},{"name":"Umeki","country":"JP","lat":31.6667,"lng":130.3833,"pop":47153,"capital":false},{"name":"Shido","country":"JP","lat":34.3233,"lng":134.1733,"pop":47003,"capital":false},{"name":"Takashima","country":"JP","lat":35.4135,"lng":136.0161,"pop":46976,"capital":false},{"name":"Numata","country":"JP","lat":36.6333,"lng":139.05,"pop":46908,"capital":false},{"name":"Hokuto","country":"JP","lat":35.8346,"lng":138.3961,"pop":46888,"capital":false},{"name":"Nakama","country":"JP","lat":33.8169,"lng":130.7096,"pop":46745,"capital":false},{"name":"Nankoku","country":"JP","lat":33.5694,"lng":133.6494,"pop":46664,"capital":false},{"name":"Shime","country":"JP","lat":33.587,"lng":130.4868,"pop":46377,"capital":false},{"name":"Komoro","country":"JP","lat":36.3167,"lng":138.4333,"pop":46272,"capital":false},{"name":"Kitakata","country":"JP","lat":37.65,"lng":139.8667,"pop":46269,"capital":false},{"name":"Uozu","country":"JP","lat":36.8,"lng":137.4,"pop":45848,"capital":false},{"name":"Minamiawaji","country":"JP","lat":34.274,"lng":134.7751,"pop":45489,"capital":false},{"name":"Masuda","country":"JP","lat":34.6667,"lng":131.85,"pop":45003,"capital":false},{"name":"Inabe","country":"JP","lat":35.1134,"lng":136.5721,"pop":44973,"capital":false},{"name":"Shinden","country":"JP","lat":35.9997,"lng":139.6249,"pop":44841,"capital":false},{"name":"Sakura","country":"JP","lat":36.7207,"lng":139.9878,"pop":44712,"capital":false},{"name":"Hagi","country":"JP","lat":34.4,"lng":131.4167,"pop":44626,"capital":false},{"name":"Sugito","country":"JP","lat":36.0311,"lng":139.7264,"pop":44402,"capital":false},{"name":"Shinshiro","country":"JP","lat":34.9,"lng":137.5,"pop":44355,"capital":false},{"name":"Onoda","country":"JP","lat":34.0014,"lng":131.1836,"pop":44295,"capital":false},{"name":"Kobayashi","country":"JP","lat":31.9833,"lng":130.9833,"pop":44154,"capital":false},{"name":"Himi","country":"JP","lat":36.8467,"lng":136.9836,"pop":43995,"capital":false},{"name":"Ogi","country":"JP","lat":33.2803,"lng":130.195,"pop":43952,"capital":false},{"name":"Morowa","country":"JP","lat":35.1,"lng":137.0667,"pop":43903,"capital":false},{"name":"Ōkubo-naka","country":"JP","lat":34.4045,"lng":135.3409,"pop":43763,"capital":false},{"name":"Akaiwa","country":"JP","lat":34.8099,"lng":134.0215,"pop":43742,"capital":false},{"name":"Taketoyo","country":"JP","lat":34.85,"lng":136.9167,"pop":43535,"capital":false},{"name":"Maruobara","country":"JP","lat":34.7393,"lng":138.143,"pop":43502,"capital":false},{"name":"Shimabara","country":"JP","lat":32.7833,"lng":130.3667,"pop":43338,"capital":false},{"name":"Okino","country":"JP","lat":32.8701,"lng":130.7917,"pop":43337,"capital":false},{"name":"Nakatogari","country":"JP","lat":35.1353,"lng":138.9028,"pop":43336,"capital":false},{"name":"Unnan","country":"JP","lat":35.2431,"lng":132.8999,"pop":43269,"capital":false},{"name":"Ryūō","country":"JP","lat":35.65,"lng":138.5,"pop":43180,"capital":false},{"name":"Mitsuke","country":"JP","lat":37.5333,"lng":138.9333,"pop":43180,"capital":false},{"name":"Nishifukuma","country":"JP","lat":33.7663,"lng":130.4746,"pop":43154,"capital":false},{"name":"Yatomi","country":"JP","lat":35.1053,"lng":136.7338,"pop":43025,"capital":false},{"name":"Maniwa","country":"JP","lat":35.1064,"lng":133.7201,"pop":42725,"capital":false},{"name":"Kasai","country":"JP","lat":34.9263,"lng":134.8453,"pop":42700,"capital":false},{"name":"Nakano","country":"JP","lat":36.75,"lng":138.3667,"pop":42664,"capital":false},{"name":"Awaji","country":"JP","lat":34.4777,"lng":134.9307,"pop":42597,"capital":false},{"name":"Shimo-tsuma","country":"JP","lat":36.1833,"lng":139.9667,"pop":42521,"capital":false},{"name":"Iwai","country":"JP","lat":36.05,"lng":139.9,"pop":42497,"capital":false},{"name":"Kōta","country":"JP","lat":34.8748,"lng":137.1709,"pop":42449,"capital":false},{"name":"Minamishimabara","country":"JP","lat":32.6733,"lng":130.2675,"pop":42330,"capital":false},{"name":"Amagi","country":"JP","lat":33.418,"lng":130.6541,"pop":42312,"capital":false},{"name":"Sumoto","country":"JP","lat":34.3432,"lng":134.8891,"pop":42094,"capital":false},{"name":"Kamikoizumi","country":"JP","lat":36.2643,"lng":139.4291,"pop":42089,"capital":false},{"name":"Gujō","country":"JP","lat":35.7369,"lng":136.9585,"pop":41858,"capital":false},{"name":"Hisai-motomachi","country":"JP","lat":34.6667,"lng":136.4667,"pop":41642,"capital":false},{"name":"Kurobe-shi","country":"JP","lat":36.9012,"lng":137.4495,"pop":41564,"capital":false},{"name":"Komono","country":"JP","lat":35,"lng":136.5167,"pop":41542,"capital":false},{"name":"Ibara","country":"JP","lat":34.6,"lng":133.4667,"pop":41460,"capital":false},{"name":"Shirone","country":"JP","lat":37.7635,"lng":139.022,"pop":41406,"capital":false},{"name":"Mitsukaidō","country":"JP","lat":36.0167,"lng":139.9833,"pop":41147,"capital":false},{"name":"Unzen","country":"JP","lat":32.7711,"lng":130.2484,"pop":41096,"capital":false},{"name":"Minamiashigara","country":"JP","lat":35.3195,"lng":139.1096,"pop":40841,"capital":false},{"name":"Hondomachi-hondo","country":"JP","lat":32.4599,"lng":130.1671,"pop":40787,"capital":false},{"name":"Kannabechō-yahiro","country":"JP","lat":34.5581,"lng":133.418,"pop":40766,"capital":false},{"name":"Itoigawa","country":"JP","lat":37.0333,"lng":137.85,"pop":40765,"capital":false},{"name":"Agano","country":"JP","lat":37.8361,"lng":139.2233,"pop":40696,"capital":false},{"name":"Katō","country":"JP","lat":34.9242,"lng":135.0261,"pop":40645,"capital":false},{"name":"Ōzu","country":"JP","lat":33.5,"lng":132.55,"pop":40575,"capital":false},{"name":"Toyosu","country":"JP","lat":35.6509,"lng":139.7916,"pop":40424,"capital":false},{"name":"Hirai","country":"JP","lat":35.7077,"lng":139.8425,"pop":40373,"capital":false},{"name":"Sasayama","country":"JP","lat":35.0667,"lng":135.2167,"pop":40050,"capital":false},{"name":"Tatsunochō-tominaga","country":"JP","lat":34.8644,"lng":134.552,"pop":40011,"capital":false},{"name":"Minawa","country":"JP","lat":35.5228,"lng":139.3194,"pop":39869,"capital":false},{"name":"Umi","country":"JP","lat":33.5683,"lng":130.5101,"pop":39772,"capital":false},{"name":"Morohongō","country":"JP","lat":35.9356,"lng":139.3044,"pop":39693,"capital":false},{"name":"Tamba-Sasayama","country":"JP","lat":35.0732,"lng":135.2178,"pop":39611,"capital":false},{"name":"Aobadai","country":"JP","lat":35.5465,"lng":139.5172,"pop":39500,"capital":false},{"name":"Hamanoichi","country":"JP","lat":31.7167,"lng":130.7333,"pop":39475,"capital":false},{"name":"Mibu","country":"JP","lat":36.4167,"lng":139.8,"pop":39474,"capital":false},{"name":"Ōkawa","country":"JP","lat":33.2057,"lng":130.3753,"pop":39223,"capital":false},{"name":"Bizen","country":"JP","lat":34.7867,"lng":134.2354,"pop":39117,"capital":false},{"name":"Kaseda-shirakame","country":"JP","lat":31.4167,"lng":130.3167,"pop":39012,"capital":false},{"name":"Ibusuki","country":"JP","lat":31.2333,"lng":130.65,"pop":39011,"capital":false},{"name":"Minakuchichō-matoba","country":"JP","lat":34.9667,"lng":136.1667,"pop":38986,"capital":false},{"name":"Yasugichō","country":"JP","lat":35.4215,"lng":133.2422,"pop":38875,"capital":false},{"name":"Yoshinogawa","country":"JP","lat":34.0386,"lng":134.2921,"pop":38772,"capital":false},{"name":"Nishiwaki","country":"JP","lat":34.9842,"lng":134.9741,"pop":38673,"capital":false},{"name":"Miyoshidai","country":"JP","lat":35.8332,"lng":139.5444,"pop":38434,"capital":false},{"name":"Maibara","country":"JP","lat":35.3167,"lng":136.2833,"pop":38259,"capital":false},{"name":"Hitoyoshi","country":"JP","lat":32.2167,"lng":130.75,"pop":38006,"capital":false},{"name":"Mizunami","country":"JP","lat":35.3667,"lng":137.25,"pop":37705,"capital":false},{"name":"Tsubata","country":"JP","lat":36.6701,"lng":136.7403,"pop":37694,"capital":false},{"name":"Kanda","country":"JP","lat":33.7833,"lng":130.9833,"pop":37684,"capital":false},{"name":"Kawanoechō","country":"JP","lat":34.0165,"lng":133.5784,"pop":37641,"capital":false},{"name":"Uto","country":"JP","lat":32.6833,"lng":130.6667,"pop":37442,"capital":false},{"name":"Katsuragi","country":"JP","lat":34.4856,"lng":135.697,"pop":37352,"capital":false},{"name":"Kanekomachi","country":"JP","lat":36.411,"lng":138.9962,"pop":37107,"capital":false},{"name":"Kamizawa","country":"JP","lat":35.1015,"lng":138.954,"pop":36794,"capital":false},{"name":"Washinomiya","country":"JP","lat":36.0992,"lng":139.6604,"pop":36544,"capital":false},{"name":"Kanie","country":"JP","lat":35.1333,"lng":136.8,"pop":36489,"capital":false},{"name":"Tamamura","country":"JP","lat":36.3,"lng":139.1167,"pop":36367,"capital":false},{"name":"Sakaiminato","country":"JP","lat":35.5377,"lng":133.2309,"pop":36324,"capital":false},{"name":"Yaita","country":"JP","lat":36.8,"lng":139.9333,"pop":36275,"capital":false},{"name":"Sugai","country":"JP","lat":34.7548,"lng":135.7968,"pop":36198,"capital":false},{"name":"Usuki","country":"JP","lat":33.1234,"lng":131.804,"pop":36158,"capital":false},{"name":"Komatsushimachō","country":"JP","lat":34,"lng":134.5833,"pop":36149,"capital":false},{"name":"Setouchi","country":"JP","lat":34.6592,"lng":134.1424,"pop":36048,"capital":false},{"name":"Nishishinminato","country":"JP","lat":36.7796,"lng":137.0758,"pop":35994,"capital":false},{"name":"Miyama","country":"JP","lat":33.121,"lng":130.5001,"pop":35861,"capital":false},{"name":"Minamibōsō","country":"JP","lat":35.0313,"lng":139.9265,"pop":35831,"capital":false},{"name":"Shisō","country":"JP","lat":34.9811,"lng":134.564,"pop":35639,"capital":false},{"name":"Kami","country":"JP","lat":33.5294,"lng":130.7648,"pop":35473,"capital":false},{"name":"Uwa","country":"JP","lat":33.3645,"lng":132.5127,"pop":35388,"capital":false},{"name":"Yakami","country":"JP","lat":34.1385,"lng":134.5019,"pop":35246,"capital":false},{"name":"Ōzu","country":"JP","lat":32.8804,"lng":130.8716,"pop":35187,"capital":false},{"name":"Iyo","country":"JP","lat":33.7514,"lng":132.7014,"pop":35133,"capital":false},{"name":"Gero","country":"JP","lat":35.8,"lng":137.2333,"pop":35000,"capital":false},{"name":"Kaizu","country":"JP","lat":35.2017,"lng":136.6351,"pop":34960,"capital":false},{"name":"Kahoku","country":"JP","lat":36.7576,"lng":136.7116,"pop":34889,"capital":false},{"name":"Awa","country":"JP","lat":34.0921,"lng":134.2845,"pop":34713,"capital":false},{"name":"Ojiya","country":"JP","lat":37.3,"lng":138.8,"pop":34704,"capital":false},{"name":"Namerikawa","country":"JP","lat":36.7597,"lng":137.3622,"pop":34638,"capital":false},{"name":"Nakamura","country":"JP","lat":32.9833,"lng":132.9333,"pop":34559,"capital":false},{"name":"Ōizumi-gakuenchō","country":"JP","lat":35.7653,"lng":139.5888,"pop":34557,"capital":false},{"name":"Uonuma","country":"JP","lat":37.2449,"lng":138.9623,"pop":34483,"capital":false},{"name":"Ōdachō-ōda","country":"JP","lat":35.1903,"lng":132.5085,"pop":34354,"capital":false},{"name":"Gojō","country":"JP","lat":34.35,"lng":135.7,"pop":34342,"capital":false},{"name":"Tsuma","country":"JP","lat":32.1,"lng":131.4,"pop":34318,"capital":false},{"name":"Atami","country":"JP","lat":35.0883,"lng":139.0533,"pop":34233,"capital":false},{"name":"Miyashiro","country":"JP","lat":36.0223,"lng":139.7295,"pop":34147,"capital":false},{"name":"Fusō","country":"JP","lat":35.3578,"lng":136.9098,"pop":34133,"capital":false},{"name":"Tōon","country":"JP","lat":33.7943,"lng":132.8901,"pop":33903,"capital":false},{"name":"Hikiso","country":"JP","lat":34.5442,"lng":135.7382,"pop":33810,"capital":false},{"name":"Mie","country":"JP","lat":32.9667,"lng":131.5833,"pop":33695,"capital":false},{"name":"Ono","country":"JP","lat":35.9811,"lng":136.4873,"pop":33640,"capital":false},{"name":"Shōbara","country":"JP","lat":34.85,"lng":133.0167,"pop":33633,"capital":false},{"name":"Higashinozoe","country":"JP","lat":34.7175,"lng":134.8816,"pop":33604,"capital":false},{"name":"Maruoka","country":"JP","lat":36.1534,"lng":136.2703,"pop":33563,"capital":false},{"name":"Ikaruga","country":"JP","lat":34.8348,"lng":134.578,"pop":33477,"capital":false},{"name":"Yamanashi","country":"JP","lat":35.6715,"lng":138.6983,"pop":33435,"capital":false},{"name":"Soo","country":"JP","lat":31.6464,"lng":130.9907,"pop":33310,"capital":false},{"name":"Hotaka","country":"JP","lat":36.3396,"lng":137.8825,"pop":33195,"capital":false},{"name":"Minamikyushu","country":"JP","lat":31.3469,"lng":130.4561,"pop":33080,"capital":false},{"name":"Motosu","country":"JP","lat":35.4838,"lng":136.6744,"pop":32928,"capital":false},{"name":"Shingū","country":"JP","lat":33.714,"lng":130.4313,"pop":32927,"capital":false},{"name":"Minamisatsuma","country":"JP","lat":31.39,"lng":130.2834,"pop":32887,"capital":false},{"name":"Yorii","country":"JP","lat":36.1157,"lng":139.1943,"pop":32851,"capital":false},{"name":"Yufu","country":"JP","lat":33.1956,"lng":131.3783,"pop":32772,"capital":false},{"name":"Asakuchi","country":"JP","lat":34.5348,"lng":133.603,"pop":32772,"capital":false},{"name":"Kameda-honchō","country":"JP","lat":37.8721,"lng":139.1099,"pop":32765,"capital":false},{"name":"Shimoda","country":"JP","lat":32.9458,"lng":132.9863,"pop":32694,"capital":false},{"name":"Ōiso","country":"JP","lat":35.3156,"lng":139.3163,"pop":32595,"capital":false},{"name":"Kuroda","country":"JP","lat":35.35,"lng":136.7833,"pop":32586,"capital":false},{"name":"Nagato","country":"JP","lat":34.3833,"lng":131.2,"pop":32519,"capital":false},{"name":"Shimada","country":"JP","lat":32.7568,"lng":130.7904,"pop":32510,"capital":false},{"name":"Yanai","country":"JP","lat":33.9667,"lng":132.1167,"pop":32490,"capital":false},{"name":"Haruta","country":"JP","lat":35.1422,"lng":136.8121,"pop":32399,"capital":false},{"name":"Ōharu","country":"JP","lat":35.1746,"lng":136.8201,"pop":32399,"capital":false},{"name":"Aki-takata","country":"JP","lat":34.6742,"lng":132.6819,"pop":32323,"capital":false},{"name":"Akatsuka","country":"JP","lat":35.7774,"lng":139.6438,"pop":32253,"capital":false},{"name":"Tawaramoto","country":"JP","lat":34.5542,"lng":135.793,"pop":32241,"capital":false},{"name":"Yamashita","country":"JP","lat":33.5655,"lng":133.7028,"pop":32207,"capital":false},{"name":"Komagane","country":"JP","lat":35.7166,"lng":137.9375,"pop":32202,"capital":false},{"name":"Yawatahama","country":"JP","lat":33.4574,"lng":132.4328,"pop":31987,"capital":false},{"name":"Ayabe","country":"JP","lat":35.3,"lng":135.25,"pop":31846,"capital":false},{"name":"Hakonegasaki","country":"JP","lat":35.7694,"lng":139.3511,"pop":31765,"capital":false},{"name":"Katagami","country":"JP","lat":39.8787,"lng":139.9977,"pop":31720,"capital":false},{"name":"Fushimi","country":"JP","lat":35.1143,"lng":138.8974,"pop":31710,"capital":false},{"name":"Uekimachi-mōno","country":"JP","lat":32.8996,"lng":130.689,"pop":31688,"capital":false},{"name":"Hayama","country":"JP","lat":35.2765,"lng":139.5773,"pop":31665,"capital":false},{"name":"Zentsujichó","country":"JP","lat":34.227,"lng":133.7779,"pop":31631,"capital":false},{"name":"Nantan","country":"JP","lat":35.1098,"lng":135.4916,"pop":31629,"capital":false},{"name":"Takahashi","country":"JP","lat":34.7833,"lng":133.6167,"pop":31556,"capital":false},{"name":"Kōshū","country":"JP","lat":35.7242,"lng":138.7711,"pop":31526,"capital":false},{"name":"Sakai-nakajima","country":"JP","lat":36.2667,"lng":139.25,"pop":31268,"capital":false},{"name":"Kaminokawa","country":"JP","lat":36.4333,"lng":139.9167,"pop":31243,"capital":false},{"name":"Chūō","country":"JP","lat":35.5947,"lng":138.5028,"pop":31216,"capital":false},{"name":"Sasaguri","country":"JP","lat":33.6156,"lng":130.5511,"pop":31213,"capital":false},{"name":"Omaezaki","country":"JP","lat":34.5988,"lng":138.2193,"pop":31103,"capital":false},{"name":"Kanzakimachi-kanzaki","country":"JP","lat":33.309,"lng":130.3738,"pop":31022,"capital":false},{"name":"Tsuru","country":"JP","lat":35.5473,"lng":138.9096,"pop":31016,"capital":false},{"name":"Yurigaoka","country":"JP","lat":33.8466,"lng":130.6296,"pop":31007,"capital":false},{"name":"Ikegami","country":"JP","lat":35.5767,"lng":139.7052,"pop":30959,"capital":false},{"name":"Minase","country":"JP","lat":34.8772,"lng":135.6651,"pop":30927,"capital":false},{"name":"Izu","country":"JP","lat":34.9716,"lng":138.9464,"pop":30678,"capital":false},{"name":"Niimi","country":"JP","lat":34.9833,"lng":133.4667,"pop":30583,"capital":false},{"name":"Ichikikushikino","country":"JP","lat":31.7293,"lng":130.2931,"pop":30551,"capital":false},{"name":"Masaki-chō","country":"JP","lat":33.7876,"lng":132.7112,"pop":30548,"capital":false},{"name":"Takehara","country":"JP","lat":34.3383,"lng":132.9167,"pop":30506,"capital":false},{"name":"Myoko","country":"JP","lat":37.0253,"lng":138.2556,"pop":30383,"capital":false},{"name":"Ujiie","country":"JP","lat":36.6833,"lng":139.9667,"pop":30366,"capital":false},{"name":"Ishigami","country":"JP","lat":36.25,"lng":139.15,"pop":30343,"capital":false},{"name":"Inami","country":"JP","lat":34.7481,"lng":134.9128,"pop":30268,"capital":false},{"name":"Shibushi","country":"JP","lat":31.476,"lng":131.1011,"pop":30231,"capital":false},{"name":"Narimasu","country":"JP","lat":35.7836,"lng":139.6323,"pop":30203,"capital":false},{"name":"Kashima","country":"JP","lat":33.1061,"lng":130.0906,"pop":30159,"capital":false},{"name":"Ōtake","country":"JP","lat":34.2075,"lng":132.2206,"pop":30151,"capital":false},{"name":"Tōmi","country":"JP","lat":36.3558,"lng":138.3609,"pop":30122,"capital":false},{"name":"Kimokawa","country":"JP","lat":34.8797,"lng":135.367,"pop":29680,"capital":false},{"name":"Kaitaichi","country":"JP","lat":34.3667,"lng":132.5333,"pop":29636,"capital":false},{"name":"Isawa","country":"JP","lat":35.65,"lng":138.6333,"pop":29616,"capital":false},{"name":"Yamaguma","country":"JP","lat":33.4212,"lng":130.6136,"pop":29591,"capital":false},{"name":"Nirasaki","country":"JP","lat":35.7,"lng":138.45,"pop":29483,"capital":false},{"name":"Obama","country":"JP","lat":35.4958,"lng":135.746,"pop":29435,"capital":false},{"name":"Minamata","country":"JP","lat":32.2167,"lng":130.4,"pop":29428,"capital":false},{"name":"Machiya","country":"JP","lat":35.748,"lng":139.7813,"pop":29272,"capital":false},{"name":"Saito","country":"JP","lat":32.082,"lng":131.3996,"pop":29262,"capital":false},{"name":"Hōshakuji","country":"JP","lat":36.6333,"lng":139.9833,"pop":29229,"capital":false},{"name":"Muikamachi","country":"JP","lat":37.0667,"lng":138.8833,"pop":29123,"capital":false},{"name":"Maki","country":"JP","lat":37.75,"lng":138.8833,"pop":29041,"capital":false},{"name":"Wadayama","country":"JP","lat":35.3167,"lng":134.8667,"pop":28989,"capital":false},{"name":"Oyabe","country":"JP","lat":36.6667,"lng":136.85,"pop":28983,"capital":false},{"name":"Ogawamachi","country":"JP","lat":36.0534,"lng":139.2661,"pop":28971,"capital":false},{"name":"Sumiyoshi","country":"JP","lat":34.75,"lng":138.25,"pop":28919,"capital":false},{"name":"Matsubushi","country":"JP","lat":35.919,"lng":139.8113,"pop":28787,"capital":false},{"name":"Tanuma","country":"JP","lat":36.3667,"lng":139.5833,"pop":28723,"capital":false},{"name":"Sue","country":"JP","lat":33.5915,"lng":130.5042,"pop":28628,"capital":false},{"name":"Hiji","country":"JP","lat":33.3708,"lng":131.5303,"pop":28524,"capital":false},{"name":"Tainai","country":"JP","lat":38.0646,"lng":139.4056,"pop":28509,"capital":false},{"name":"Horikiri","country":"JP","lat":35.7458,"lng":139.8274,"pop":28463,"capital":false},{"name":"Agui","country":"JP","lat":34.935,"lng":136.913,"pop":28383,"capital":false},{"name":"Aioi","country":"JP","lat":34.8036,"lng":134.4681,"pop":28355,"capital":false},{"name":"Fukiage-fujimi","country":"JP","lat":36.1,"lng":139.45,"pop":28334,"capital":false},{"name":"Higashikagawa","country":"JP","lat":34.2102,"lng":134.3365,"pop":28305,"capital":false},{"name":"Hiratachō","country":"JP","lat":35.4333,"lng":132.8167,"pop":28154,"capital":false},{"name":"Ōuda-yamaguchi","country":"JP","lat":34.4592,"lng":135.9536,"pop":28121,"capital":false},{"name":"Miyaodai","country":"JP","lat":33.8466,"lng":130.7128,"pop":28114,"capital":false},{"name":"Mima","country":"JP","lat":34.0549,"lng":134.1396,"pop":28055,"capital":false},{"name":"Kitsuki","country":"JP","lat":33.42,"lng":131.6184,"pop":27999,"capital":false},{"name":"Hōjō","country":"JP","lat":33.9766,"lng":132.7777,"pop":27992,"capital":false},{"name":"Ukiha","country":"JP","lat":33.3563,"lng":130.7497,"pop":27981,"capital":false},{"name":"Aoto","country":"JP","lat":35.7497,"lng":139.8541,"pop":27980,"capital":false},{"name":"Toyoshina","country":"JP","lat":36.2999,"lng":137.9011,"pop":27834,"capital":false},{"name":"Kurihashi","country":"JP","lat":36.1333,"lng":139.7,"pop":27813,"capital":false},{"name":"Menuma","country":"JP","lat":36.2225,"lng":139.3821,"pop":27684,"capital":false},{"name":"Hōryūji","country":"JP","lat":34.6123,"lng":135.7375,"pop":27587,"capital":false},{"name":"Ninomiya","country":"JP","lat":35.3015,"lng":139.2558,"pop":27564,"capital":false},{"name":"Ōmachi","country":"JP","lat":36.5,"lng":137.8667,"pop":27559,"capital":false},{"name":"Awara","country":"JP","lat":36.2231,"lng":136.1924,"pop":27524,"capital":false},{"name":"Shingū","country":"JP","lat":33.7333,"lng":135.9833,"pop":27491,"capital":false},{"name":"Arai","country":"JP","lat":37.0006,"lng":138.2259,"pop":27481,"capital":false},{"name":"Tarui","country":"JP","lat":35.3667,"lng":136.5333,"pop":27439,"capital":false},{"name":"Yamagata","country":"JP","lat":35.4762,"lng":136.7721,"pop":27356,"capital":false},{"name":"Minami-ōi","country":"JP","lat":35.5928,"lng":139.7337,"pop":27201,"capital":false},{"name":"Kachidoki","country":"JP","lat":35.6578,"lng":139.7749,"pop":27113,"capital":false},{"name":"Katsuyama","country":"JP","lat":36.0617,"lng":136.501,"pop":27088,"capital":false},{"name":"Aso","country":"JP","lat":32.9373,"lng":131.0801,"pop":27039,"capital":false},{"name":"Buzen","country":"JP","lat":33.6115,"lng":131.13,"pop":26886,"capital":false},{"name":"Takada","country":"JP","lat":35.3,"lng":136.5667,"pop":26882,"capital":false},{"name":"Hiragi","country":"JP","lat":34.2706,"lng":134.1307,"pop":26878,"capital":false},{"name":"Funabori","country":"JP","lat":35.6821,"lng":139.8664,"pop":26811,"capital":false},{"name":"Arida","country":"JP","lat":34.0809,"lng":135.119,"pop":26755,"capital":false},{"name":"Mukai-awagasaki","country":"JP","lat":36.6325,"lng":136.6373,"pop":26574,"capital":false},{"name":"Fujikawaguchiko","country":"JP","lat":35.4893,"lng":138.6883,"pop":26540,"capital":false},{"name":"Gose","country":"JP","lat":34.45,"lng":135.7333,"pop":26522,"capital":false},{"name":"Tosayamadachō-nakano","country":"JP","lat":33.6,"lng":133.6833,"pop":26513,"capital":false},{"name":"Miyawaka","country":"JP","lat":33.7171,"lng":130.6412,"pop":26298,"capital":false},{"name":"Kunisaki","country":"JP","lat":33.5547,"lng":131.728,"pop":26232,"capital":false},{"name":"Susaki","country":"JP","lat":33.3947,"lng":133.2913,"pop":26195,"capital":false},{"name":"Ōno-hara","country":"JP","lat":34.2833,"lng":132.2667,"pop":26190,"capital":false},{"name":"Matsubase","country":"JP","lat":32.65,"lng":130.6667,"pop":26163,"capital":false},{"name":"Innoshima","country":"JP","lat":34.2833,"lng":133.1833,"pop":26141,"capital":false},{"name":"Hikarigaoka","country":"JP","lat":35.7574,"lng":139.6273,"pop":26127,"capital":false},{"name":"Kamo","country":"JP","lat":37.6644,"lng":139.035,"pop":25971,"capital":false},{"name":"Hayashino","country":"JP","lat":35,"lng":134.15,"pop":25939,"capital":false},{"name":"Sagara","country":"JP","lat":34.685,"lng":138.2046,"pop":25922,"capital":false},{"name":"Ginan","country":"JP","lat":35.3883,"lng":136.7848,"pop":25881,"capital":false},{"name":"Tōyō","country":"JP","lat":35.6698,"lng":139.8146,"pop":25870,"capital":false},{"name":"Ureshinomachi-shimojuku","country":"JP","lat":33.1136,"lng":130.0029,"pop":25848,"capital":false},{"name":"Tōin","country":"JP","lat":35.0947,"lng":136.6006,"pop":25784,"capital":false},{"name":"Kushikino","country":"JP","lat":31.7167,"lng":130.2667,"pop":25744,"capital":false},{"name":"Tosa","country":"JP","lat":33.5048,"lng":133.4448,"pop":25732,"capital":false},{"name":"Noborito","country":"JP","lat":35.622,"lng":139.5605,"pop":25662,"capital":false},{"name":"Yoshii","country":"JP","lat":36.25,"lng":138.9833,"pop":25655,"capital":false},{"name":"Ogikubo","country":"JP","lat":35.6982,"lng":139.6237,"pop":25609,"capital":false},{"name":"Mochibaru","country":"JP","lat":31.7551,"lng":131.1298,"pop":25591,"capital":false},{"name":"Sakuradai","country":"JP","lat":35.7441,"lng":139.6607,"pop":25537,"capital":false},{"name":"Ōwa","country":"JP","lat":36.1994,"lng":139.4947,"pop":25522,"capital":false},{"name":"Nakatsukuma","country":"JP","lat":33.3235,"lng":130.4422,"pop":25511,"capital":false},{"name":"Yoshida-kasugachō","country":"JP","lat":37.6833,"lng":138.8833,"pop":25500,"capital":false},{"name":"Kamimaruko","country":"JP","lat":36.3187,"lng":138.2733,"pop":25403,"capital":false},{"name":"Itogawa","country":"JP","lat":34.0262,"lng":135.2528,"pop":25258,"capital":false},{"name":"Ijūin","country":"JP","lat":31.6167,"lng":130.4,"pop":25217,"capital":false},{"name":"Oga","country":"JP","lat":39.871,"lng":139.8493,"pop":25154,"capital":false},{"name":"Enzan","country":"JP","lat":35.7,"lng":138.7333,"pop":25142,"capital":false},{"name":"Yamazakichō-nakabirose","country":"JP","lat":35,"lng":134.55,"pop":25115,"capital":false},{"name":"Akune","country":"JP","lat":32.0167,"lng":130.2,"pop":25089,"capital":false},{"name":"Ishii","country":"JP","lat":34.0675,"lng":134.4421,"pop":25062,"capital":false},{"name":"Nyūzen","country":"JP","lat":36.9374,"lng":137.5006,"pop":25007,"capital":false},{"name":"Kinoshita","country":"JP","lat":35.9006,"lng":137.9878,"pop":24989,"capital":false},{"name":"Itsukaichi","country":"JP","lat":35.7253,"lng":139.2178,"pop":24954,"capital":false},{"name":"Ishige","country":"JP","lat":36.1167,"lng":139.9667,"pop":24948,"capital":false},{"name":"Nogi","country":"JP","lat":36.2279,"lng":139.7345,"pop":24913,"capital":false},{"name":"Gohyakkoku","country":"JP","lat":36.6641,"lng":137.3167,"pop":24792,"capital":false},{"name":"Wajima","country":"JP","lat":37.4046,"lng":136.8991,"pop":24608,"capital":false},{"name":"Etajima","country":"JP","lat":34.2386,"lng":132.4797,"pop":24596,"capital":false},{"name":"Ōyanomachi-noboritate","country":"JP","lat":32.5965,"lng":130.4341,"pop":24563,"capital":false},{"name":"Hakui","country":"JP","lat":36.8833,"lng":136.7833,"pop":24529,"capital":false},{"name":"Isa","country":"JP","lat":32.0672,"lng":130.6118,"pop":24453,"capital":false},{"name":"Kamojimachō-jōgejima","country":"JP","lat":34.068,"lng":134.3503,"pop":24374,"capital":false},{"name":"Asagayakita","country":"JP","lat":35.7109,"lng":139.6372,"pop":24345,"capital":false},{"name":"Nishinippori","country":"JP","lat":35.7326,"lng":139.7696,"pop":24319,"capital":false},{"name":"Ōguchi","country":"JP","lat":35.3415,"lng":136.9111,"pop":24305,"capital":false},{"name":"Sakai","country":"JP","lat":36.1,"lng":139.8,"pop":24201,"capital":false},{"name":"Yoyogi","country":"JP","lat":35.6786,"lng":139.6915,"pop":24125,"capital":false},{"name":"Oji","country":"JP","lat":34.5986,"lng":135.7021,"pop":24043,"capital":false},{"name":"Ukima","country":"JP","lat":35.791,"lng":139.6978,"pop":24024,"capital":false},{"name":"Gōtsuchō","country":"JP","lat":35.0086,"lng":132.2257,"pop":24009,"capital":false},{"name":"Setakamachi-takayanagi","country":"JP","lat":33.1486,"lng":130.4655,"pop":23985,"capital":false},{"name":"Ōtsuki","country":"JP","lat":35.6185,"lng":138.974,"pop":23976,"capital":false},{"name":"Ishiki","country":"JP","lat":34.8,"lng":137.0167,"pop":23966,"capital":false},{"name":"Kitahama","country":"JP","lat":35.1667,"lng":135.9167,"pop":23836,"capital":false},{"name":"Ōji","country":"JP","lat":35.7574,"lng":139.7372,"pop":23651,"capital":false},{"name":"Tadotsu","country":"JP","lat":34.275,"lng":133.75,"pop":23618,"capital":false},{"name":"Ikedachō","country":"JP","lat":34.0285,"lng":133.8062,"pop":23605,"capital":false},{"name":"Ogōri-shimogō","country":"JP","lat":34.1,"lng":131.4,"pop":23516,"capital":false},{"name":"Gobō","country":"JP","lat":33.8815,"lng":135.1696,"pop":23481,"capital":false},{"name":"Mikuni","country":"JP","lat":36.2149,"lng":136.1483,"pop":23480,"capital":false},{"name":"Nikaho","country":"JP","lat":39.2708,"lng":139.9395,"pop":23435,"capital":false},{"name":"Yugawara","country":"JP","lat":35.15,"lng":139.0667,"pop":23426,"capital":false},{"name":"Sobue","country":"JP","lat":35.25,"lng":136.7167,"pop":23372,"capital":false},{"name":"Ikeno","country":"JP","lat":35.4333,"lng":136.5833,"pop":23360,"capital":false},{"name":"Shirahama","country":"JP","lat":33.6833,"lng":135.35,"pop":23325,"capital":false},{"name":"Mine","country":"JP","lat":34.1868,"lng":131.2162,"pop":23247,"capital":false},{"name":"Tatsuno-kita","country":"JP","lat":34.5968,"lng":135.6929,"pop":23219,"capital":false},{"name":"Shirahamachō-usazakiminami","country":"JP","lat":34.7833,"lng":134.7167,"pop":23180,"capital":false},{"name":"Uenohara","country":"JP","lat":35.6167,"lng":139.1167,"pop":23158,"capital":false},{"name":"Bungo-Takada-shi","country":"JP","lat":33.5567,"lng":131.4451,"pop":23059,"capital":false},{"name":"Tochio-honchō","country":"JP","lat":37.4764,"lng":138.9951,"pop":23045,"capital":false},{"name":"Kajiki","country":"JP","lat":31.7333,"lng":130.6667,"pop":22997,"capital":false},{"name":"Kamata","country":"JP","lat":35.5635,"lng":139.721,"pop":22939,"capital":false},{"name":"Kumano","country":"JP","lat":34.3328,"lng":132.5697,"pop":22834,"capital":false},{"name":"Kanmaki","country":"JP","lat":34.5642,"lng":135.7063,"pop":22807,"capital":false},{"name":"Takabō","country":"JP","lat":34.1283,"lng":134.534,"pop":22745,"capital":false},{"name":"Tennō","country":"JP","lat":39.9,"lng":139.9667,"pop":22740,"capital":false},{"name":"Takanawa","country":"JP","lat":35.6321,"lng":139.7342,"pop":22731,"capital":false},{"name":"Takinomiya","country":"JP","lat":34.2464,"lng":133.923,"pop":22693,"capital":false},{"name":"Furukawa","country":"JP","lat":36.2333,"lng":137.1833,"pop":22538,"capital":false},{"name":"Hida","country":"JP","lat":36.2448,"lng":137.1732,"pop":22538,"capital":false},{"name":"Kaminoma","country":"JP","lat":34.808,"lng":136.8644,"pop":22496,"capital":false},{"name":"Saikū","country":"JP","lat":34.5333,"lng":136.6333,"pop":22445,"capital":false},{"name":"Ōkuchi-shinohara","country":"JP","lat":32.0678,"lng":130.6244,"pop":22425,"capital":false},{"name":"Kasamatsuchō","country":"JP","lat":35.3667,"lng":136.7667,"pop":22273,"capital":false},{"name":"Yatsuomachi-higashikumisaka","country":"JP","lat":36.5667,"lng":137.1333,"pop":22205,"capital":false},{"name":"Yabu","country":"JP","lat":35.403,"lng":134.7712,"pop":22177,"capital":false},{"name":"Shōbu","country":"JP","lat":36.0667,"lng":139.6,"pop":22156,"capital":false},{"name":"Ino","country":"JP","lat":33.55,"lng":133.4333,"pop":22155,"capital":false},{"name":"Kushima","country":"JP","lat":31.4862,"lng":131.2421,"pop":22102,"capital":false},{"name":"Kozakai-chō","country":"JP","lat":34.8,"lng":137.3589,"pop":22064,"capital":false},{"name":"Higashigō","country":"JP","lat":33.1908,"lng":130.138,"pop":22051,"capital":false},{"name":"Tsurugi-asahimachi","country":"JP","lat":36.45,"lng":136.6333,"pop":22042,"capital":false},{"name":"Kurono","country":"JP","lat":35.4667,"lng":136.6333,"pop":22041,"capital":false},{"name":"Makurazaki","country":"JP","lat":31.2667,"lng":130.3167,"pop":21960,"capital":false},{"name":"Toyohama","country":"JP","lat":34.7093,"lng":136.9343,"pop":21917,"capital":false},{"name":"Ōizumimachi","country":"JP","lat":35.7648,"lng":139.6022,"pop":21916,"capital":false},{"name":"Nishiarai","country":"JP","lat":35.7847,"lng":139.7788,"pop":21910,"capital":false},{"name":"Ogura","country":"JP","lat":36.4569,"lng":138.9951,"pop":21792,"capital":false},{"name":"Ōyama","country":"JP","lat":34.6036,"lng":138.2172,"pop":21744,"capital":false},{"name":"Tsukumiura","country":"JP","lat":33.0754,"lng":131.8691,"pop":21658,"capital":false},{"name":"Yashiro","country":"JP","lat":34.9167,"lng":134.9667,"pop":21554,"capital":false},{"name":"Kodamachō-kodamaminami","country":"JP","lat":36.185,"lng":139.1319,"pop":21544,"capital":false},{"name":"Shimoda","country":"JP","lat":34.6765,"lng":138.9446,"pop":21402,"capital":false},{"name":"Akaike","country":"JP","lat":33.6919,"lng":130.7653,"pop":21398,"capital":false},{"name":"Sugita","country":"JP","lat":35.3761,"lng":139.6171,"pop":21318,"capital":false},{"name":"Ōmamachō-ōmama","country":"JP","lat":36.4318,"lng":139.2753,"pop":21286,"capital":false},{"name":"Ebara","country":"JP","lat":35.613,"lng":139.7032,"pop":21232,"capital":false},{"name":"Tanushimarumachi-toyoki","country":"JP","lat":33.35,"lng":130.6833,"pop":21156,"capital":false},{"name":"Hino","country":"JP","lat":35,"lng":136.25,"pop":21149,"capital":false},{"name":"Shin’ichi","country":"JP","lat":34.5554,"lng":133.273,"pop":21030,"capital":false},{"name":"Yachiyo","country":"JP","lat":36.1823,"lng":139.891,"pop":21026,"capital":false},{"name":"Shonai","country":"JP","lat":38.8485,"lng":139.9031,"pop":20940,"capital":false},{"name":"Ichinoe","country":"JP","lat":35.6914,"lng":139.8825,"pop":20927,"capital":false},{"name":"Shōwa","country":"JP","lat":35.6279,"lng":138.5351,"pop":20909,"capital":false},{"name":"Sendagi","country":"JP","lat":35.7281,"lng":139.7602,"pop":20906,"capital":false},{"name":"Echigawa","country":"JP","lat":35.1667,"lng":136.2,"pop":20893,"capital":false},{"name":"Kisai","country":"JP","lat":36.1,"lng":139.5833,"pop":20850,"capital":false},{"name":"Kamiichi","country":"JP","lat":36.7,"lng":137.3667,"pop":20827,"capital":false},{"name":"Mino","country":"JP","lat":35.5333,"lng":136.9167,"pop":20749,"capital":false},{"name":"Haramachi","country":"JP","lat":33.7704,"lng":132.7898,"pop":20480,"capital":false},{"name":"Miyata","country":"JP","lat":33.7081,"lng":130.653,"pop":20421,"capital":false},{"name":"Suibara","country":"JP","lat":37.8461,"lng":139.2304,"pop":20392,"capital":false},{"name":"Takedamachi","country":"JP","lat":32.9667,"lng":131.4,"pop":20332,"capital":false},{"name":"Kanaya","country":"JP","lat":34.8202,"lng":138.1278,"pop":20286,"capital":false},{"name":"Tsuruda","country":"JP","lat":31.95,"lng":130.4833,"pop":20243,"capital":false},{"name":"Takanabe","country":"JP","lat":32.1333,"lng":131.5,"pop":20185,"capital":false},{"name":"Shiozawa","country":"JP","lat":37.0376,"lng":138.8487,"pop":20178,"capital":false},{"name":"Iiyama","country":"JP","lat":36.85,"lng":138.3667,"pop":20118,"capital":false},{"name":"Yotsutsuji","country":"JP","lat":35.5333,"lng":135.1,"pop":20092,"capital":false},{"name":"Shimosuwa","country":"JP","lat":36.0713,"lng":138.082,"pop":20055,"capital":false},{"name":"Karuizawa","country":"JP","lat":36.35,"lng":138.6333,"pop":20023,"capital":false},{"name":"Sueyoshichō-ninokata","country":"JP","lat":31.65,"lng":131.0167,"pop":19986,"capital":false},{"name":"Hirokawa","country":"JP","lat":33.2429,"lng":130.5521,"pop":19969,"capital":false},{"name":"Ikebukuro","country":"JP","lat":35.7368,"lng":139.7071,"pop":19930,"capital":false},{"name":"Nukui","country":"JP","lat":35.7405,"lng":139.6314,"pop":19760,"capital":false},{"name":"Yamata","country":"JP","lat":36.0817,"lng":139.3716,"pop":19732,"capital":false},{"name":"Muramatsu","country":"JP","lat":37.6926,"lng":139.1713,"pop":19712,"capital":false},{"name":"Wakabayashi","country":"JP","lat":35.6464,"lng":139.6595,"pop":19686,"capital":false},{"name":"Mishōhirajō","country":"JP","lat":32.9637,"lng":132.5661,"pop":19601,"capital":false},{"name":"Fukumitsu","country":"JP","lat":36.5575,"lng":136.8695,"pop":19535,"capital":false},{"name":"Ibi","country":"JP","lat":35.4833,"lng":136.5667,"pop":19529,"capital":false},{"name":"Igusa","country":"JP","lat":35.9667,"lng":139.4667,"pop":19378,"capital":false},{"name":"Nishitawara","country":"JP","lat":34.9556,"lng":134.7684,"pop":19377,"capital":false},{"name":"Gōdo","country":"JP","lat":35.4167,"lng":136.6,"pop":19361,"capital":false},{"name":"Sukumo","country":"JP","lat":32.9333,"lng":132.7333,"pop":19292,"capital":false},{"name":"Kajiya","country":"JP","lat":35.0667,"lng":134.9167,"pop":19261,"capital":false},{"name":"Asagaya-minami","country":"JP","lat":35.7021,"lng":139.6375,"pop":19185,"capital":false},{"name":"Tarumizu","country":"JP","lat":31.4833,"lng":130.7,"pop":19146,"capital":false},{"name":"Ōtsuka","country":"JP","lat":35.724,"lng":139.7287,"pop":19081,"capital":false},{"name":"Aizu-misato Machi","country":"JP","lat":37.4086,"lng":139.8132,"pop":19014,"capital":false},{"name":"Iijima","country":"JP","lat":36.0901,"lng":136.3599,"pop":18965,"capital":false},{"name":"Den’enchōfu","country":"JP","lat":35.5955,"lng":139.6654,"pop":18952,"capital":false},{"name":"Tatsuno","country":"JP","lat":35.9843,"lng":137.9972,"pop":18951,"capital":false},{"name":"Miyako","country":"JP","lat":33.6992,"lng":130.9201,"pop":18825,"capital":false},{"name":"Takenotsuka","country":"JP","lat":35.7936,"lng":139.7956,"pop":18766,"capital":false},{"name":"Koga","country":"JP","lat":33.8643,"lng":130.6871,"pop":18723,"capital":false},{"name":"Fukura","country":"JP","lat":34.2577,"lng":134.7154,"pop":18721,"capital":false},{"name":"Utazu","country":"JP","lat":34.3,"lng":133.8167,"pop":18699,"capital":false},{"name":"Sugamo","country":"JP","lat":35.7348,"lng":139.7333,"pop":18637,"capital":false},{"name":"Oshima","country":"JP","lat":36.9871,"lng":136.7725,"pop":18630,"capital":false},{"name":"Oyama","country":"JP","lat":35.3569,"lng":138.9976,"pop":18568,"capital":false},{"name":"Haibara-akanedai","country":"JP","lat":34.5333,"lng":135.95,"pop":18472,"capital":false},{"name":"Kamogatachō-kamogata","country":"JP","lat":34.5375,"lng":133.5897,"pop":18412,"capital":false},{"name":"Kitagata","country":"JP","lat":35.4333,"lng":136.6833,"pop":18410,"capital":false},{"name":"Honjō","country":"JP","lat":31.9833,"lng":131.3333,"pop":18398,"capital":false},{"name":"Hasune","country":"JP","lat":35.783,"lng":139.6756,"pop":18388,"capital":false},{"name":"Minakami","country":"JP","lat":36.6882,"lng":138.9863,"pop":18383,"capital":false},{"name":"Tsukawaki","country":"JP","lat":33.2767,"lng":131.1563,"pop":18371,"capital":false},{"name":"Mitake","country":"JP","lat":35.4167,"lng":137.1333,"pop":18363,"capital":false},{"name":"Fujioka","country":"JP","lat":36.25,"lng":139.65,"pop":18335,"capital":false},{"name":"Kanaishima","country":"JP","lat":35.3441,"lng":139.1175,"pop":18329,"capital":false},{"name":"Mori","country":"JP","lat":34.8333,"lng":137.9333,"pop":18306,"capital":false},{"name":"Taku","country":"JP","lat":33.2771,"lng":130.1093,"pop":18295,"capital":false},{"name":"Yono","country":"JP","lat":34.9219,"lng":135.4952,"pop":18279,"capital":false},{"name":"Shimoigusa","country":"JP","lat":35.7215,"lng":139.622,"pop":18269,"capital":false},{"name":"Nagasaki","country":"JP","lat":35.7298,"lng":139.6886,"pop":18260,"capital":false},{"name":"Ōgushi","country":"JP","lat":36.0223,"lng":139.4664,"pop":18192,"capital":false},{"name":"Fuki","country":"JP","lat":34.63,"lng":135.6964,"pop":18009,"capital":false},{"name":"Kanamachi","country":"JP","lat":35.7651,"lng":139.8668,"pop":18003,"capital":false},{"name":"Kawage","country":"JP","lat":34.8045,"lng":136.5465,"pop":17948,"capital":false},{"name":"Ranzan","country":"JP","lat":36.0553,"lng":139.315,"pop":17889,"capital":false},{"name":"Anamizu","country":"JP","lat":37.2333,"lng":136.9,"pop":17840,"capital":false},{"name":"Nishinoomote","country":"JP","lat":30.7333,"lng":131,"pop":17832,"capital":false},{"name":"Yae","country":"JP","lat":34.6833,"lng":132.5333,"pop":17763,"capital":false},{"name":"Toba","country":"JP","lat":34.4833,"lng":136.8419,"pop":17741,"capital":false},{"name":"Akitsu","country":"JP","lat":35.7742,"lng":139.4905,"pop":17695,"capital":false},{"name":"Azamino","country":"JP","lat":35.5699,"lng":139.5448,"pop":17682,"capital":false},{"name":"Wakimachi","country":"JP","lat":34.0667,"lng":134.15,"pop":17659,"capital":false},{"name":"Ebino","country":"JP","lat":32.0477,"lng":130.8444,"pop":17638,"capital":false},{"name":"Akasaka","country":"JP","lat":35.6713,"lng":139.7344,"pop":17603,"capital":false},{"name":"Muroto-misakicho","country":"JP","lat":33.2866,"lng":134.1683,"pop":17601,"capital":false},{"name":"Komagome","country":"JP","lat":35.7387,"lng":139.7406,"pop":17537,"capital":false},{"name":"Kadogawa","country":"JP","lat":32.4713,"lng":131.6545,"pop":17526,"capital":false},{"name":"Aoi","country":"JP","lat":35.7743,"lng":139.8165,"pop":17422,"capital":false},{"name":"Shioiri","country":"JP","lat":34.1561,"lng":133.8515,"pop":17401,"capital":false},{"name":"Kawasaki","country":"JP","lat":33.5999,"lng":130.815,"pop":17324,"capital":false},{"name":"Igusa","country":"JP","lat":35.7272,"lng":139.6176,"pop":17284,"capital":false},{"name":"Sonobe","country":"JP","lat":33.4238,"lng":130.4993,"pop":17250,"capital":false},{"name":"Tsuiki","country":"JP","lat":33.6731,"lng":131.0378,"pop":17189,"capital":false},{"name":"Kamiōi","country":"JP","lat":35.32,"lng":139.1582,"pop":17129,"capital":false},{"name":"Sashiōgi","country":"JP","lat":35.9141,"lng":139.5805,"pop":17101,"capital":false},{"name":"Minaminagareyama","country":"JP","lat":35.8401,"lng":139.8986,"pop":17064,"capital":false},{"name":"Takatsukadai","country":"JP","lat":34.5827,"lng":135.726,"pop":17018,"capital":false},{"name":"Miyazu","country":"JP","lat":35.5364,"lng":135.1993,"pop":16988,"capital":false},{"name":"Arai","country":"JP","lat":34.6833,"lng":137.5667,"pop":16975,"capital":false},{"name":"Iwai","country":"JP","lat":35.75,"lng":139.2333,"pop":16958,"capital":false},{"name":"Owase","country":"JP","lat":34.0667,"lng":136.2,"pop":16910,"capital":false},{"name":"Mifune","country":"JP","lat":32.7167,"lng":130.8222,"pop":16901,"capital":false},{"name":"Sasazuka","country":"JP","lat":35.6755,"lng":139.6666,"pop":16792,"capital":false},{"name":"Togoshi","country":"JP","lat":35.6114,"lng":139.7174,"pop":16740,"capital":false},{"name":"Shimobuchi","country":"JP","lat":34.3862,"lng":135.7871,"pop":16728,"capital":false},{"name":"Isogo","country":"JP","lat":35.4082,"lng":139.6191,"pop":16706,"capital":false},{"name":"Ushibukamachi","country":"JP","lat":32.2014,"lng":130.0217,"pop":16667,"capital":false},{"name":"Minamichita","country":"JP","lat":34.6764,"lng":137.0052,"pop":16617,"capital":false},{"name":"Saginomiya","country":"JP","lat":35.7245,"lng":139.6372,"pop":16593,"capital":false},{"name":"Tadaoka-higashi","country":"JP","lat":34.4874,"lng":135.399,"pop":16567,"capital":false},{"name":"Shintomi","country":"JP","lat":32.0632,"lng":131.4869,"pop":16564,"capital":false},{"name":"Hitoto","country":"JP","lat":36.9858,"lng":136.9033,"pop":16540,"capital":false},{"name":"Sekimachi-minami","country":"JP","lat":35.7214,"lng":139.5808,"pop":16504,"capital":false},{"name":"Aki","country":"JP","lat":33.5,"lng":133.9,"pop":16370,"capital":false},{"name":"Yabase","country":"JP","lat":35.5,"lng":133.6833,"pop":16365,"capital":false},{"name":"Ryōtsu-minato","country":"JP","lat":38.0782,"lng":138.4394,"pop":16359,"capital":false},{"name":"Shuzenji","country":"JP","lat":34.9701,"lng":138.9219,"pop":16328,"capital":false},{"name":"Ishinari","country":"JP","lat":33.3615,"lng":130.4048,"pop":16323,"capital":false},{"name":"Ōkubo","country":"JP","lat":35.7031,"lng":139.7044,"pop":16302,"capital":false},{"name":"Kushimoto","country":"JP","lat":33.4684,"lng":135.7791,"pop":16243,"capital":false},{"name":"Kumano","country":"JP","lat":33.9039,"lng":136.1221,"pop":16232,"capital":false},{"name":"Nagasu","country":"JP","lat":32.9326,"lng":130.4428,"pop":16125,"capital":false},{"name":"Kamiya","country":"JP","lat":35.7703,"lng":139.7308,"pop":16109,"capital":false},{"name":"Kasumi","country":"JP","lat":35.6333,"lng":134.6333,"pop":16064,"capital":false},{"name":"Matsuzaki","country":"JP","lat":35.4667,"lng":133.9,"pop":16055,"capital":false},{"name":"Nakaiburi","country":"JP","lat":34.3034,"lng":135.5332,"pop":15967,"capital":false},{"name":"Oyamazaki","country":"JP","lat":34.894,"lng":135.6846,"pop":15953,"capital":false},{"name":"Kōge","country":"JP","lat":35.41,"lng":134.2549,"pop":15937,"capital":false},{"name":"Nakanobu","country":"JP","lat":35.605,"lng":139.7101,"pop":15909,"capital":false},{"name":"Sayō","country":"JP","lat":35.0027,"lng":134.359,"pop":15863,"capital":false},{"name":"Inokashira","country":"JP","lat":35.6931,"lng":139.5834,"pop":15853,"capital":false},{"name":"Yōga","country":"JP","lat":35.6253,"lng":139.6389,"pop":15817,"capital":false},{"name":"Minamiminowa","country":"JP","lat":35.8729,"lng":137.975,"pop":15797,"capital":false},{"name":"Kamiigusa","country":"JP","lat":35.7226,"lng":139.6064,"pop":15773,"capital":false},{"name":"Ōgi","country":"JP","lat":35.7667,"lng":139.7714,"pop":15733,"capital":false},{"name":"Eifuku","country":"JP","lat":35.6755,"lng":139.6399,"pop":15709,"capital":false},{"name":"Kanō","country":"JP","lat":34.4932,"lng":135.6389,"pop":15697,"capital":false},{"name":"Ushitsu","country":"JP","lat":37.3079,"lng":137.1522,"pop":15687,"capital":false},{"name":"Sashiki","country":"JP","lat":32.3017,"lng":130.5038,"pop":15681,"capital":false},{"name":"Toyoyama","country":"JP","lat":35.2505,"lng":136.912,"pop":15613,"capital":false},{"name":"Sakai","country":"JP","lat":35.7057,"lng":139.5438,"pop":15594,"capital":false},{"name":"Shimo’ochiai","country":"JP","lat":35.7202,"lng":139.702,"pop":15583,"capital":false},{"name":"Nakanojō","country":"JP","lat":36.5872,"lng":138.8408,"pop":15571,"capital":false},{"name":"Tachiarai","country":"JP","lat":33.4,"lng":130.6167,"pop":15567,"capital":false},{"name":"Miyota","country":"JP","lat":36.3366,"lng":138.5129,"pop":15562,"capital":false},{"name":"Higashigotanda","country":"JP","lat":35.6251,"lng":139.7284,"pop":15550,"capital":false},{"name":"Toneri","country":"JP","lat":35.8109,"lng":139.7712,"pop":15547,"capital":false},{"name":"Kamigōri","country":"JP","lat":34.8748,"lng":134.3619,"pop":15448,"capital":false},{"name":"Kawaminami","country":"JP","lat":32.1833,"lng":131.5167,"pop":15372,"capital":false},{"name":"Mikuriya","country":"JP","lat":35.5124,"lng":133.4974,"pop":15370,"capital":false},{"name":"Uchiko","country":"JP","lat":33.5499,"lng":132.6471,"pop":15322,"capital":false},{"name":"Sayama","country":"JP","lat":34.8753,"lng":135.7502,"pop":15250,"capital":false},{"name":"Asso","country":"JP","lat":33.7,"lng":135.4167,"pop":15236,"capital":false},{"name":"Minami-aoyama","country":"JP","lat":35.6646,"lng":139.7155,"pop":15177,"capital":false},{"name":"Kōzan","country":"JP","lat":34.5833,"lng":133.05,"pop":15125,"capital":false},{"name":"Toyoda","country":"JP","lat":35.0167,"lng":136.6667,"pop":15123,"capital":false},{"name":"Ebisu","country":"JP","lat":35.646,"lng":139.7155,"pop":15112,"capital":false},{"name":"Inokura","country":"JP","lat":33.801,"lng":130.6842,"pop":15080,"capital":false},{"name":"Bange","country":"JP","lat":37.5644,"lng":139.8218,"pop":15068,"capital":false},{"name":"Tamaru","country":"JP","lat":34.4833,"lng":136.6333,"pop":15041,"capital":false},{"name":"Sakaki","country":"JP","lat":36.4667,"lng":138.1833,"pop":15025,"capital":false},{"name":"Takasaka","country":"JP","lat":36,"lng":139.4,"pop":15000,"capital":false},{"name":"Nakameguro","country":"JP","lat":35.6389,"lng":139.7007,"pop":14934,"capital":false},{"name":"Haneda","country":"JP","lat":35.5491,"lng":139.7456,"pop":14885,"capital":false},{"name":"Ōshima","country":"JP","lat":33.9397,"lng":132.1909,"pop":14798,"capital":false},{"name":"Fuke","country":"JP","lat":34.3158,"lng":135.1471,"pop":14741,"capital":false},{"name":"Ichikawadaimon","country":"JP","lat":35.5667,"lng":138.5,"pop":14700,"capital":false},{"name":"Takanodai","country":"JP","lat":35.7465,"lng":139.6141,"pop":14697,"capital":false},{"name":"Buzō","country":"JP","lat":35.8408,"lng":139.6711,"pop":14678,"capital":false},{"name":"Mendahigashi","country":"JP","lat":32.2417,"lng":130.8967,"pop":14676,"capital":false},{"name":"Myōden","country":"JP","lat":35.6936,"lng":139.929,"pop":14646,"capital":false},{"name":"Kihoku","country":"JP","lat":34.2105,"lng":136.3348,"pop":14604,"capital":false},{"name":"Matsushige","country":"JP","lat":34.1338,"lng":134.5806,"pop":14583,"capital":false},{"name":"Fujimi","country":"JP","lat":35.9009,"lng":138.2504,"pop":14485,"capital":false},{"name":"Tabuse","country":"JP","lat":33.95,"lng":132.0667,"pop":14483,"capital":false},{"name":"Tabata","country":"JP","lat":35.7357,"lng":139.7576,"pop":14469,"capital":false},{"name":"Mizunashi","country":"JP","lat":37.1824,"lng":139.8006,"pop":14451,"capital":false},{"name":"Kikuna","country":"JP","lat":35.5035,"lng":139.635,"pop":14387,"capital":false},{"name":"Anpachi","country":"JP","lat":35.3354,"lng":136.6654,"pop":14355,"capital":false},{"name":"Seirō","country":"JP","lat":37.9833,"lng":139.255,"pop":14259,"capital":false},{"name":"Hara-machida","country":"JP","lat":35.5333,"lng":139.45,"pop":14257,"capital":false},{"name":"Yura","country":"JP","lat":35.4833,"lng":133.75,"pop":14228,"capital":false},{"name":"Maeda","country":"JP","lat":31.3319,"lng":130.9372,"pop":14227,"capital":false},{"name":"Kajikazawa","country":"JP","lat":35.55,"lng":138.45,"pop":14219,"capital":false},{"name":"Hirobaba","country":"JP","lat":36.4231,"lng":138.9697,"pop":14216,"capital":false},{"name":"Wake","country":"JP","lat":34.8116,"lng":134.1426,"pop":14191,"capital":false},{"name":"Ashiya","country":"JP","lat":33.8735,"lng":130.6539,"pop":14182,"capital":false},{"name":"Mejiro","country":"JP","lat":35.7242,"lng":139.7036,"pop":14182,"capital":false},{"name":"Katsuura","country":"JP","lat":33.6308,"lng":135.9404,"pop":14137,"capital":false},{"name":"Itakura","country":"JP","lat":36.223,"lng":139.6103,"pop":14083,"capital":false},{"name":"Yakage","country":"JP","lat":34.6285,"lng":133.5924,"pop":14041,"capital":false},{"name":"Ōka","country":"JP","lat":34.5,"lng":136.55,"pop":14021,"capital":false},{"name":"Kumagawa","country":"JP","lat":35.4436,"lng":135.9014,"pop":14003,"capital":false},{"name":"Horikoshi","country":"JP","lat":34.4575,"lng":134.3013,"pop":13870,"capital":false},{"name":"Numabukuro","country":"JP","lat":35.7217,"lng":139.6663,"pop":13829,"capital":false},{"name":"Hatchō-muta","country":"JP","lat":33.2107,"lng":130.4339,"pop":13820,"capital":false},{"name":"Heiwadai","country":"JP","lat":35.7576,"lng":139.6598,"pop":13768,"capital":false},{"name":"Taishi","country":"JP","lat":34.5202,"lng":135.6356,"pop":13634,"capital":false},{"name":"Hara","country":"JP","lat":34.043,"lng":133.9268,"pop":13622,"capital":false},{"name":"Yuza","country":"JP","lat":39.0157,"lng":139.9291,"pop":13615,"capital":false},{"name":"Hatoyama","country":"JP","lat":35.9815,"lng":139.3341,"pop":13560,"capital":false},{"name":"Yamada","country":"JP","lat":32.6968,"lng":130.9647,"pop":13503,"capital":false},{"name":"Ōsaki","country":"JP","lat":31.425,"lng":131.0217,"pop":13488,"capital":false},{"name":"Nishida","country":"JP","lat":36.2,"lng":133.3051,"pop":13433,"capital":false},{"name":"Roppongi","country":"JP","lat":35.6632,"lng":139.7322,"pop":13417,"capital":false},{"name":"Hikawadai","country":"JP","lat":35.7551,"lng":139.6676,"pop":13410,"capital":false},{"name":"Uetake","country":"JP","lat":36.2144,"lng":139.0988,"pop":13359,"capital":false},{"name":"Higashiagatsuma","country":"JP","lat":36.5727,"lng":138.8264,"pop":13349,"capital":false},{"name":"Hamasaka","country":"JP","lat":35.6167,"lng":134.45,"pop":13318,"capital":false},{"name":"Saka","country":"JP","lat":34.3333,"lng":132.5167,"pop":13265,"capital":false},{"name":"Sakawa","country":"JP","lat":33.5074,"lng":133.2848,"pop":13223,"capital":false},{"name":"Sakai","country":"JP","lat":34.9554,"lng":133.9117,"pop":13053,"capital":false},{"name":"Okuno","country":"JP","lat":34.1225,"lng":134.4927,"pop":13042,"capital":false},{"name":"Suzu","country":"JP","lat":37.4346,"lng":137.2601,"pop":12929,"capital":false},{"name":"Tonoshō","country":"JP","lat":34.4805,"lng":134.1702,"pop":12915,"capital":false},{"name":"Kyōtamba","country":"JP","lat":35.1644,"lng":135.4231,"pop":12907,"capital":false},{"name":"Toi","country":"JP","lat":33.5848,"lng":130.6758,"pop":12878,"capital":false},{"name":"Shimura","country":"JP","lat":35.776,"lng":139.6904,"pop":12853,"capital":false},{"name":"Yamabuki","country":"JP","lat":35.5765,"lng":137.9003,"pop":12811,"capital":false},{"name":"Kanbara","country":"JP","lat":35.1174,"lng":138.6069,"pop":12777,"capital":false},{"name":"Hayashima","country":"JP","lat":34.6039,"lng":133.8295,"pop":12671,"capital":false},{"name":"Minabe","country":"JP","lat":33.7686,"lng":135.3185,"pop":12561,"capital":false},{"name":"Kamikatagiri","country":"JP","lat":35.6156,"lng":137.9024,"pop":12530,"capital":false},{"name":"Obata","country":"JP","lat":36.2333,"lng":138.9167,"pop":12491,"capital":false},{"name":"Kosuge","country":"JP","lat":35.7535,"lng":139.8216,"pop":12395,"capital":false},{"name":"Umejima","country":"JP","lat":35.7756,"lng":139.7979,"pop":12389,"capital":false},{"name":"Tosashimizu","country":"JP","lat":32.784,"lng":132.9632,"pop":12388,"capital":false},{"name":"Tokiwadai","country":"JP","lat":35.7622,"lng":139.6869,"pop":12384,"capital":false},{"name":"Tamagawa","country":"JP","lat":35.6155,"lng":139.6243,"pop":12170,"capital":false},{"name":"Hōdatsushimizu","country":"JP","lat":36.8628,"lng":136.7975,"pop":12121,"capital":false},{"name":"Nishiya","country":"JP","lat":35.1667,"lng":133.8833,"pop":12062,"capital":false},{"name":"Yuasa","country":"JP","lat":34.0369,"lng":135.1804,"pop":11960,"capital":false},{"name":"Hirao","country":"JP","lat":33.9383,"lng":132.0717,"pop":11914,"capital":false},{"name":"Koseda","country":"JP","lat":30.388,"lng":130.6492,"pop":11858,"capital":false},{"name":"Minari","country":"JP","lat":35.2,"lng":133,"pop":11849,"capital":false},{"name":"Ryūō","country":"JP","lat":35.0608,"lng":136.1245,"pop":11789,"capital":false},{"name":"Futaba","country":"JP","lat":35.6046,"lng":139.7223,"pop":11771,"capital":false},{"name":"Shiida","country":"JP","lat":33.6534,"lng":131.058,"pop":11737,"capital":false},{"name":"Kamikawa","country":"JP","lat":35.0755,"lng":134.7403,"pop":11735,"capital":false},{"name":"Ebie","country":"JP","lat":34.6972,"lng":135.4711,"pop":11675,"capital":false},{"name":"Mitai","country":"JP","lat":32.7,"lng":131.3,"pop":11642,"capital":false},{"name":"Aoyama-hane","country":"JP","lat":34.6616,"lng":136.1704,"pop":11590,"capital":false},{"name":"Yabe","country":"JP","lat":35.572,"lng":139.3864,"pop":11590,"capital":false},{"name":"Kichijōji-honchō","country":"JP","lat":35.7056,"lng":139.5769,"pop":11551,"capital":false},{"name":"Egota","country":"JP","lat":35.7255,"lng":139.6652,"pop":11547,"capital":false},{"name":"Inatori","country":"JP","lat":34.7757,"lng":139.0409,"pop":11488,"capital":false},{"name":"Tagami","country":"JP","lat":37.7113,"lng":139.0722,"pop":11481,"capital":false},{"name":"Shichijō","country":"JP","lat":34.1195,"lng":134.4056,"pop":11384,"capital":false},{"name":"Ogose","country":"JP","lat":35.9589,"lng":139.29,"pop":11352,"capital":false},{"name":"Hirao","country":"JP","lat":36.7466,"lng":138.4186,"pop":11352,"capital":false},{"name":"Hakone","country":"JP","lat":35.1895,"lng":139.0265,"pop":11293,"capital":false},{"name":"Amaji","country":"JP","lat":34.9915,"lng":134.7585,"pop":11231,"capital":false},{"name":"Senzoku","country":"JP","lat":35.7221,"lng":139.7921,"pop":11193,"capital":false},{"name":"Ogano","country":"JP","lat":36.0219,"lng":139.003,"pop":11192,"capital":false},{"name":"Wakasu","country":"JP","lat":32.6035,"lng":130.6434,"pop":11094,"capital":false},{"name":"Koshi","country":"JP","lat":36.9059,"lng":137.5713,"pop":11081,"capital":false},{"name":"Kiba","country":"JP","lat":35.6706,"lng":139.807,"pop":11058,"capital":false},{"name":"Yaotsu","country":"JP","lat":35.4667,"lng":137.15,"pop":11036,"capital":false},{"name":"Asahi","country":"JP","lat":35.0342,"lng":136.6644,"pop":11021,"capital":false},{"name":"Akabane","country":"JP","lat":35.7819,"lng":139.7209,"pop":11000,"capital":false},{"name":"Minamiise","country":"JP","lat":34.3497,"lng":136.6995,"pop":10989,"capital":false},{"name":"Shin’imazato","country":"JP","lat":34.6616,"lng":135.5479,"pop":10986,"capital":false},{"name":"Satoshō","country":"JP","lat":34.5138,"lng":133.5569,"pop":10950,"capital":false},{"name":"Katsumada","country":"JP","lat":35.0333,"lng":134.1167,"pop":10888,"capital":false},{"name":"Shimogamo","country":"JP","lat":34.8622,"lng":133.8118,"pop":10886,"capital":false},{"name":"Ō-zanuki","country":"JP","lat":36.2,"lng":139.5167,"pop":10882,"capital":false},{"name":"Akaiwa","country":"JP","lat":36.2074,"lng":139.4395,"pop":10861,"capital":false},{"name":"Matsuda-sōryō","country":"JP","lat":35.3506,"lng":139.1386,"pop":10836,"capital":false},{"name":"Mizue","country":"JP","lat":35.6944,"lng":139.8948,"pop":10827,"capital":false},{"name":"Iwai","country":"JP","lat":35.5552,"lng":134.3631,"pop":10799,"capital":false},{"name":"Kihoku-chō","country":"JP","lat":33.2559,"lng":132.6834,"pop":10772,"capital":false},{"name":"Kishimoto","country":"JP","lat":35.3833,"lng":133.4167,"pop":10696,"capital":false},{"name":"Iitomi","country":"JP","lat":35.4333,"lng":138.4333,"pop":10663,"capital":false},{"name":"Obuse","country":"JP","lat":36.696,"lng":138.314,"pop":10660,"capital":false},{"name":"Kawara","country":"JP","lat":33.6694,"lng":130.8426,"pop":10657,"capital":false},{"name":"Ōmorinaka","country":"JP","lat":35.5667,"lng":139.7333,"pop":10629,"capital":false},{"name":"Sakae","country":"JP","lat":35.1705,"lng":136.9075,"pop":10629,"capital":false},{"name":"Kiso","country":"JP","lat":35.8404,"lng":137.6903,"pop":10584,"capital":false},{"name":"Sendagaya","country":"JP","lat":35.6778,"lng":139.7082,"pop":10546,"capital":false},{"name":"Banshō","country":"JP","lat":36,"lng":139.3,"pop":10540,"capital":false},{"name":"Oshiage","country":"JP","lat":35.7112,"lng":139.8172,"pop":10513,"capital":false},{"name":"Takahama","country":"JP","lat":35.49,"lng":135.5498,"pop":10490,"capital":false},{"name":"Ōmiya","country":"JP","lat":36.7333,"lng":139.8667,"pop":10354,"capital":false},{"name":"Tenman","country":"JP","lat":35.376,"lng":133.3649,"pop":10323,"capital":false},{"name":"Udono","country":"JP","lat":33.737,"lng":136.0111,"pop":10321,"capital":false},{"name":"Mure","country":"JP","lat":36.7512,"lng":138.2402,"pop":10296,"capital":false},{"name":"Kinoenishi","country":"JP","lat":32.2233,"lng":130.8216,"pop":10288,"capital":false},{"name":"Irino","country":"JP","lat":33.0167,"lng":133,"pop":10262,"capital":false},{"name":"Takanomachi","country":"JP","lat":36.1652,"lng":138.483,"pop":10218,"capital":false},{"name":"Tatsumi","country":"JP","lat":35.6473,"lng":139.813,"pop":10190,"capital":false},{"name":"Kyōmendao","country":"JP","lat":34.8833,"lng":132.4333,"pop":10163,"capital":false},{"name":"Iwashita","country":"JP","lat":32.6527,"lng":130.8116,"pop":10132,"capital":false},{"name":"Tsunō","country":"JP","lat":32.25,"lng":131.5667,"pop":10028,"capital":false},{"name":"Yunoo","country":"JP","lat":35.7932,"lng":136.1961,"pop":10002,"capital":false},{"name":"Baraki","country":"JP","lat":35.698,"lng":139.9512,"pop":9991,"capital":false},{"name":"Tsugawa","country":"JP","lat":37.6811,"lng":139.4583,"pop":9965,"capital":false},{"name":"Naka-kawabe","country":"JP","lat":35.4833,"lng":137.0667,"pop":9860,"capital":false},{"name":"Nakamatsu","country":"JP","lat":32.8352,"lng":131.0453,"pop":9836,"capital":false},{"name":"Yurigaoka","country":"JP","lat":35.6047,"lng":139.5171,"pop":9832,"capital":false},{"name":"Yushima","country":"JP","lat":35.706,"lng":139.767,"pop":9810,"capital":false},{"name":"Soeda","country":"JP","lat":33.5718,"lng":130.854,"pop":9802,"capital":false},{"name":"Asahi","country":"JP","lat":35.9726,"lng":136.1246,"pop":9800,"capital":false},{"name":"Ikeda","country":"JP","lat":36.4167,"lng":137.8833,"pop":9793,"capital":false},{"name":"Yamakita","country":"JP","lat":35.3634,"lng":139.0798,"pop":9761,"capital":false},{"name":"Senju","country":"JP","lat":35.7489,"lng":139.8026,"pop":9721,"capital":false},{"name":"Oshino","country":"JP","lat":35.4594,"lng":138.8585,"pop":9710,"capital":false},{"name":"Takanosu","country":"JP","lat":32.2,"lng":130.1833,"pop":9705,"capital":false},{"name":"Wanouchi","country":"JP","lat":35.2851,"lng":136.6374,"pop":9654,"capital":false},{"name":"Funado","country":"JP","lat":35.7941,"lng":139.6811,"pop":9612,"capital":false},{"name":"Sarushi","country":"JP","lat":33.2167,"lng":130.1667,"pop":9566,"capital":false},{"name":"Uejima","country":"JP","lat":32.7407,"lng":130.7472,"pop":9547,"capital":false},{"name":"Minamino","country":"JP","lat":35.6259,"lng":139.3196,"pop":9513,"capital":false},{"name":"Minano","country":"JP","lat":36.0736,"lng":139.0999,"pop":9497,"capital":false},{"name":"Iijima","country":"JP","lat":35.6667,"lng":137.9333,"pop":9446,"capital":false},{"name":"Samata","country":"JP","lat":32.6211,"lng":130.8213,"pop":9392,"capital":false},{"name":"Asahi","country":"JP","lat":36.9461,"lng":137.56,"pop":9380,"capital":false},{"name":"Nagaoda","country":"JP","lat":33.0005,"lng":130.6031,"pop":9342,"capital":false},{"name":"Sakai","country":"JP","lat":35.3532,"lng":139.2101,"pop":9300,"capital":false},{"name":"Bōjo","country":"JP","lat":33.3201,"lng":130.4222,"pop":9286,"capital":false},{"name":"Gamō","country":"JP","lat":35.8651,"lng":139.8019,"pop":9258,"capital":false},{"name":"Hakuba","country":"JP","lat":36.6982,"lng":137.8619,"pop":9246,"capital":false},{"name":"Wasa","country":"JP","lat":33.8963,"lng":135.2076,"pop":9219,"capital":false},{"name":"Sugahama","country":"JP","lat":35.656,"lng":135.973,"pop":9179,"capital":false},{"name":"Dodong-ri","country":"KR","lat":37.4951,"lng":130.9043,"pop":9169,"capital":false},{"name":"Tara","country":"JP","lat":33.0244,"lng":130.1784,"pop":9125,"capital":false},{"name":"Kurino","country":"JP","lat":31.95,"lng":130.7167,"pop":9119,"capital":false},{"name":"Ōzato","country":"JP","lat":34.969,"lng":135.4106,"pop":9079,"capital":false},{"name":"Taragi","country":"JP","lat":32.2667,"lng":130.9333,"pop":9076,"capital":false},{"name":"Yamada","country":"JP","lat":33.6632,"lng":130.488,"pop":9068,"capital":false},{"name":"Zōshigaya","country":"JP","lat":35.7193,"lng":139.7184,"pop":9053,"capital":false},{"name":"Miyada","country":"JP","lat":35.7667,"lng":137.95,"pop":9051,"capital":false},{"name":"Ōwarino","country":"JP","lat":37.0117,"lng":138.6547,"pop":8989,"capital":false},{"name":"Sekimachi","country":"JP","lat":33.0634,"lng":130.5426,"pop":8979,"capital":false},{"name":"Minatomirai","country":"JP","lat":35.4596,"lng":139.6303,"pop":8975,"capital":false},{"name":"Umegaoka","country":"JP","lat":35.6551,"lng":139.6538,"pop":8968,"capital":false},{"name":"Hibarigaoka","country":"JP","lat":35.7452,"lng":139.5361,"pop":8956,"capital":false},{"name":"Tajiri","country":"JP","lat":34.427,"lng":135.2455,"pop":8943,"capital":false},{"name":"Tachikawa","country":"JP","lat":34.8512,"lng":135.8779,"pop":8911,"capital":false},{"name":"Saikubo","country":"JP","lat":36.5224,"lng":138.5404,"pop":8850,"capital":false},{"name":"Ōdai","country":"JP","lat":34.3958,"lng":136.4072,"pop":8847,"capital":false},{"name":"Yoshino-chō","country":"JP","lat":34.3961,"lng":135.8577,"pop":8829,"capital":false},{"name":"Ryūmaichō","country":"JP","lat":36.2833,"lng":139.4167,"pop":8741,"capital":false},{"name":"Yokokawa","country":"JP","lat":35.7048,"lng":139.8156,"pop":8697,"capital":false},{"name":"Takaharu","country":"JP","lat":31.9167,"lng":131.0167,"pop":8639,"capital":false},{"name":"Hatsudai","country":"JP","lat":35.6773,"lng":139.6859,"pop":8629,"capital":false},{"name":"Hikiji","country":"JP","lat":33.2291,"lng":131.1797,"pop":8541,"capital":false},{"name":"Shojihigashi","country":"JP","lat":34.6588,"lng":135.5577,"pop":8472,"capital":false},{"name":"Kotohira","country":"JP","lat":34.1833,"lng":133.8167,"pop":8468,"capital":false},{"name":"Kamiitoda","country":"JP","lat":33.6562,"lng":130.7822,"pop":8407,"capital":false},{"name":"Kamitakeda","country":"JP","lat":36.176,"lng":137.8748,"pop":8400,"capital":false},{"name":"Ikatagoshi","country":"JP","lat":33.5018,"lng":132.3422,"pop":8397,"capital":false},{"name":"Tomoura","country":"JP","lat":33.5904,"lng":134.3596,"pop":8358,"capital":false},{"name":"Aobadai","country":"JP","lat":35.6515,"lng":139.693,"pop":8357,"capital":false},{"name":"Tsukiji","country":"JP","lat":35.6649,"lng":139.77,"pop":8268,"capital":false},{"name":"Nishino","country":"JP","lat":34.1689,"lng":135.353,"pop":8256,"capital":false},{"name":"Kobatake","country":"JP","lat":34.7058,"lng":133.2504,"pop":8250,"capital":false},{"name":"Noshio","country":"JP","lat":35.7773,"lng":139.5033,"pop":8236,"capital":false},{"name":"Shinkoyasu","country":"JP","lat":35.4904,"lng":139.655,"pop":8227,"capital":false},{"name":"Yūzaki","country":"JP","lat":34.5867,"lng":135.7785,"pop":8167,"capital":false},{"name":"Fuyugi","country":"JP","lat":36.0964,"lng":139.7453,"pop":8093,"capital":false},{"name":"Shimo-ichigi","country":"JP","lat":33.8305,"lng":136.0515,"pop":8079,"capital":false},{"name":"Sakahogi","country":"JP","lat":35.4267,"lng":136.9855,"pop":8071,"capital":false},{"name":"Yokoze","country":"JP","lat":35.9845,"lng":139.0946,"pop":7979,"capital":false},{"name":"Inami","country":"JP","lat":33.8091,"lng":135.2205,"pop":7949,"capital":false},{"name":"Yuzawa","country":"JP","lat":36.938,"lng":138.8133,"pop":7926,"capital":false},{"name":"Hongō","country":"JP","lat":35.4821,"lng":135.6194,"pop":7910,"capital":false},{"name":"Kōzu","country":"JP","lat":35.2817,"lng":139.2089,"pop":7909,"capital":false},{"name":"Minato","country":"JP","lat":34.6377,"lng":138.8916,"pop":7877,"capital":false},{"name":"Saki","country":"JP","lat":34.2978,"lng":136.3931,"pop":7815,"capital":false},{"name":"Kashiwabara","country":"JP","lat":36.8024,"lng":138.1923,"pop":7739,"capital":false},{"name":"Sadamitsu","country":"JP","lat":34.0317,"lng":134.0706,"pop":7715,"capital":false},{"name":"Yahiko","country":"JP","lat":37.7,"lng":138.8333,"pop":7705,"capital":false},{"name":"Nakazawa","country":"JP","lat":35.9833,"lng":138.2167,"pop":7680,"capital":false},{"name":"Tōkōji","country":"JP","lat":33.9333,"lng":135.1333,"pop":7673,"capital":false},{"name":"Asakusabashi","country":"JP","lat":35.6998,"lng":139.7841,"pop":7672,"capital":false},{"name":"Ide","country":"JP","lat":34.7997,"lng":135.8125,"pop":7661,"capital":false},{"name":"Sukekawa","country":"JP","lat":38.7522,"lng":139.8596,"pop":7601,"capital":false},{"name":"Nōkan","country":"JP","lat":30.5733,"lng":130.9564,"pop":7539,"capital":false},{"name":"Jiyūgaoka","country":"JP","lat":35.611,"lng":139.6678,"pop":7503,"capital":false},{"name":"Masuda","country":"JP","lat":35.55,"lng":137.25,"pop":7412,"capital":false},{"name":"Kuma","country":"JP","lat":33.6566,"lng":132.9023,"pop":7404,"capital":false},{"name":"Kuramae","country":"JP","lat":35.7033,"lng":139.7906,"pop":7399,"capital":false},{"name":"Ogunimachi","country":"JP","lat":38.0615,"lng":139.7481,"pop":7376,"capital":false},{"name":"Kawaguchi","country":"JP","lat":33.8021,"lng":134.4676,"pop":7367,"capital":false},{"name":"Sekichō-furumaya","country":"JP","lat":34.85,"lng":136.4,"pop":7277,"capital":false},{"name":"Taga","country":"JP","lat":35.2263,"lng":136.2863,"pop":7274,"capital":false},{"name":"Asahigaoka","country":"JP","lat":35.7346,"lng":139.6774,"pop":7259,"capital":false},{"name":"Harai","country":"JP","lat":33.5239,"lng":131.1651,"pop":7251,"capital":false},{"name":"Higashiando","country":"JP","lat":34.6095,"lng":135.7571,"pop":7225,"capital":false},{"name":"Nambu","country":"JP","lat":35.2833,"lng":138.45,"pop":7222,"capital":false},{"name":"Hachijō","country":"JP","lat":33.1028,"lng":139.7788,"pop":7211,"capital":false},{"name":"Kōchi","country":"JP","lat":34.7001,"lng":138.9374,"pop":7203,"capital":false},{"name":"Sakaridani","country":"JP","lat":34.27,"lng":132.9167,"pop":7158,"capital":false},{"name":"Kotake","country":"JP","lat":33.6911,"lng":130.7119,"pop":7151,"capital":false},{"name":"Toyosato","country":"JP","lat":35.2003,"lng":136.2299,"pop":7132,"capital":false},{"name":"Tomioka","country":"JP","lat":32.5186,"lng":130.0359,"pop":7114,"capital":false},{"name":"Sekigahara","country":"JP","lat":35.3667,"lng":136.4667,"pop":7109,"capital":false},{"name":"Nakazato","country":"JP","lat":35.7422,"lng":139.7519,"pop":7109,"capital":false},{"name":"Ōshima","country":"JP","lat":34.7482,"lng":139.3624,"pop":7102,"capital":false},{"name":"Nishina","country":"JP","lat":34.7753,"lng":138.7752,"pop":7090,"capital":false},{"name":"Manazuru","country":"JP","lat":35.1531,"lng":139.1391,"pop":7061,"capital":false},{"name":"Shimonita","country":"JP","lat":36.2167,"lng":138.7833,"pop":7058,"capital":false},{"name":"Chizu","country":"JP","lat":35.2667,"lng":134.2333,"pop":7031,"capital":false},{"name":"Etchūjima","country":"JP","lat":35.6668,"lng":139.7945,"pop":7025,"capital":false},{"name":"Aya","country":"JP","lat":31.9833,"lng":131.2667,"pop":7023,"capital":false},{"name":"Motona","country":"JP","lat":35.1483,"lng":139.8358,"pop":6993,"capital":false},{"name":"Morishita","country":"JP","lat":36.6132,"lng":139.0496,"pop":6953,"capital":false},{"name":"Shiromoto","country":"JP","lat":31.2408,"lng":130.7885,"pop":6944,"capital":false},{"name":"Mabashi","country":"JP","lat":35.8118,"lng":139.9207,"pop":6894,"capital":false},{"name":"Tsuwano","country":"JP","lat":34.4667,"lng":131.7667,"pop":6875,"capital":false},{"name":"Yoshitomi","country":"JP","lat":33.6025,"lng":131.176,"pop":6875,"capital":false},{"name":"Kawazu-ikadaba","country":"JP","lat":34.7716,"lng":138.9663,"pop":6870,"capital":false},{"name":"Hamanose","country":"JP","lat":33.8833,"lng":135.15,"pop":6867,"capital":false},{"name":"Nagatoro","country":"JP","lat":36.1031,"lng":139.1095,"pop":6838,"capital":false},{"name":"Rokuchō","country":"JP","lat":35.7834,"lng":139.8197,"pop":6805,"capital":false},{"name":"Higashinaka","country":"JP","lat":34.0194,"lng":135.1845,"pop":6781,"capital":false},{"name":"Kamitosa","country":"JP","lat":34.4451,"lng":135.8013,"pop":6729,"capital":false},{"name":"Nakayama","country":"JP","lat":36.6865,"lng":138.3684,"pop":6617,"capital":false},{"name":"Matsubara","country":"JP","lat":38.0278,"lng":139.9912,"pop":6613,"capital":false},{"name":"Ashida","country":"JP","lat":36.2698,"lng":138.3176,"pop":6612,"capital":false},{"name":"Nagata","country":"JP","lat":34.6821,"lng":135.5567,"pop":6610,"capital":false},{"name":"Miyahara","country":"JP","lat":33.1227,"lng":131.0701,"pop":6590,"capital":false},{"name":"Kaminakazato","country":"JP","lat":35.745,"lng":139.7495,"pop":6587,"capital":false},{"name":"Matsuzaki","country":"JP","lat":34.7533,"lng":138.7761,"pop":6563,"capital":false},{"name":"Gōtokuji","country":"JP","lat":35.6503,"lng":139.6473,"pop":6550,"capital":false},{"name":"Miyanoura","country":"JP","lat":30.4269,"lng":130.5715,"pop":6544,"capital":false},{"name":"Nezu","country":"JP","lat":35.7189,"lng":139.7647,"pop":6519,"capital":false},{"name":"Kami-yuge","country":"JP","lat":34.2667,"lng":133.2167,"pop":6509,"capital":false},{"name":"Nejime-kawaminan","country":"JP","lat":31.2113,"lng":130.7785,"pop":6481,"capital":false},{"name":"Nishimagome","country":"JP","lat":35.5888,"lng":139.704,"pop":6462,"capital":false},{"name":"Rinkan","country":"JP","lat":35.4984,"lng":139.4489,"pop":6453,"capital":false},{"name":"Kaigan","country":"JP","lat":35.649,"lng":139.7593,"pop":6444,"capital":false},{"name":"Tomondo","country":"JP","lat":34.5729,"lng":135.7709,"pop":6439,"capital":false},{"name":"Ichiba","country":"JP","lat":35.55,"lng":137.9,"pop":6426,"capital":false},{"name":"Kawahara","country":"JP","lat":32.8067,"lng":130.8975,"pop":6426,"capital":false},{"name":"Misasa","country":"JP","lat":35.41,"lng":133.8947,"pop":6407,"capital":false},{"name":"Azabu-jūban","country":"JP","lat":35.656,"lng":139.7353,"pop":6394,"capital":false},{"name":"Kōra","country":"JP","lat":35.2041,"lng":136.2612,"pop":6362,"capital":false},{"name":"Ōmachi","country":"JP","lat":33.2188,"lng":130.1197,"pop":6293,"capital":false},{"name":"Kusatsu","country":"JP","lat":36.6167,"lng":138.6,"pop":6255,"capital":false},{"name":"Kawahigashi","country":"JP","lat":31.3725,"lng":131.0075,"pop":6237,"capital":false},{"name":"Saruhashi","country":"JP","lat":35.6167,"lng":138.9833,"pop":6229,"capital":false},{"name":"Iriya","country":"JP","lat":35.721,"lng":139.7869,"pop":6226,"capital":false},{"name":"Hiwasaura","country":"JP","lat":33.7326,"lng":134.5374,"pop":6222,"capital":false},{"name":"Tanokuchi","country":"JP","lat":35.0554,"lng":138.0968,"pop":6206,"capital":false},{"name":"Takamori","country":"JP","lat":32.8196,"lng":131.127,"pop":6189,"capital":false},{"name":"Nakajima","country":"JP","lat":36.464,"lng":136.5871,"pop":6135,"capital":false},{"name":"Nagawa","country":"JP","lat":36.2836,"lng":138.2478,"pop":6088,"capital":false},{"name":"Okugano","country":"JP","lat":34.4167,"lng":131.8333,"pop":6077,"capital":false},{"name":"Komaba","country":"JP","lat":35.4333,"lng":137.7333,"pop":6068,"capital":false},{"name":"Waki","country":"JP","lat":34.2,"lng":132.2167,"pop":6034,"capital":false},{"name":"Fujisato","country":"JP","lat":35.0564,"lng":136.7447,"pop":6023,"capital":false},{"name":"Jūjō-nakahara","country":"JP","lat":35.7681,"lng":139.719,"pop":6006,"capital":false},{"name":"Yoshino","country":"JP","lat":33.3167,"lng":133.1333,"pop":6002,"capital":false},{"name":"Yonedacho Sendo","country":"JP","lat":34.7756,"lng":134.8255,"pop":6000,"capital":false},{"name":"Ajima","country":"JP","lat":35.5167,"lng":137.8833,"pop":5973,"capital":false},{"name":"Suga-inadazutsumi","country":"JP","lat":35.635,"lng":139.5396,"pop":5842,"capital":false},{"name":"Ōyama-higashichō","country":"JP","lat":35.7497,"lng":139.7061,"pop":5832,"capital":false},{"name":"Nozawa","country":"JP","lat":37.5873,"lng":139.6468,"pop":5770,"capital":false},{"name":"Togōchi","country":"JP","lat":34.5667,"lng":132.2333,"pop":5740,"capital":false},{"name":"Nishitokorozawa","country":"JP","lat":35.7893,"lng":139.4585,"pop":5686,"capital":false},{"name":"Asuka","country":"JP","lat":34.4808,"lng":135.8204,"pop":5681,"capital":false},{"name":"Ōyama-kanaichō","country":"JP","lat":35.7469,"lng":139.7041,"pop":5659,"capital":false},{"name":"Higashi-nihombashi","country":"JP","lat":35.6932,"lng":139.7863,"pop":5628,"capital":false},{"name":"Tomika","country":"JP","lat":35.4849,"lng":136.9798,"pop":5626,"capital":false},{"name":"Waseda-tsurumakichō","country":"JP","lat":35.7068,"lng":139.7245,"pop":5614,"capital":false},{"name":"Nagi","country":"JP","lat":35.123,"lng":134.1774,"pop":5578,"capital":false},{"name":"Daiba","country":"JP","lat":35.6277,"lng":139.7733,"pop":5530,"capital":false},{"name":"Naganohara","country":"JP","lat":36.55,"lng":138.6333,"pop":5495,"capital":false},{"name":"Nakanokami","country":"JP","lat":30.4147,"lng":130.9056,"pop":5445,"capital":false},{"name":"Shimoichi","country":"JP","lat":34.3709,"lng":135.7877,"pop":5378,"capital":false},{"name":"Sato","country":"JP","lat":33.9603,"lng":135.119,"pop":5364,"capital":false},{"name":"Kinshi","country":"JP","lat":35.6989,"lng":139.8142,"pop":5363,"capital":false},{"name":"Fudaba","country":"JP","lat":33.45,"lng":133.2,"pop":5291,"capital":false},{"name":"Yagoshima","country":"JP","lat":37.2687,"lng":139.8872,"pop":5264,"capital":false},{"name":"Shoji","country":"JP","lat":34.6604,"lng":135.5555,"pop":5250,"capital":false},{"name":"Toi","country":"JP","lat":34.9017,"lng":138.8,"pop":5203,"capital":false},{"name":"Dōjō","country":"JP","lat":35.8561,"lng":139.6131,"pop":5203,"capital":false},{"name":"Ochi","country":"JP","lat":33.5333,"lng":133.25,"pop":5187,"capital":false},{"name":"HIgashifushimi","country":"JP","lat":35.7253,"lng":139.5603,"pop":5187,"capital":false},{"name":"Yamanaka","country":"JP","lat":35.4245,"lng":138.8421,"pop":5179,"capital":false},{"name":"Shimoseki","country":"JP","lat":38.0913,"lng":139.5598,"pop":5144,"capital":false},{"name":"Sekimachi-higashi","country":"JP","lat":35.7257,"lng":139.5836,"pop":5076,"capital":false},{"name":"Sumiyoshi","country":"JP","lat":35.6887,"lng":139.8147,"pop":5055,"capital":false},{"name":"Konoha","country":"JP","lat":32.9188,"lng":130.6272,"pop":5045,"capital":false},{"name":"Daigyōji","country":"JP","lat":33.5981,"lng":130.8512,"pop":5008,"capital":false}]