[{"name":"Amursk","country":"RU","lat":50.2322,"lng":136.897,"pop":46993,"capital":false},{"name":"Chegdomyn","country":"RU","lat":51.1306,"lng":133.002,"pop":14855,"capital":false},{"name":"Solnechnyy","country":"RU","lat":50.725,"lng":136.6356,"pop":14227,"capital":false},{"name":"Solnechnyy","country":"RU","lat":50.5833,"lng":137.0333,"pop":13993,"capital":false},{"name":"El’ban","country":"RU","lat":50.0953,"lng":136.5011,"pop":10155,"capital":false},{"name":"Novyy Urgal","country":"RU","lat":51.0707,"lng":132.6016,"pop":7061,"capital":false},{"name":"Talakan","country":"RU","lat":50.2638,"lng":130.2676,"pop":6294,"capital":false},{"name":"Berëzovyy","country":"RU","lat":51.6709,"lng":135.6753,"pop":5633,"capital":false},{"name":"Khurba","country":"RU","lat":50.4066,"lng":136.8828,"pop":5537,"capital":false}]