[{"name":"Adelaide Hills","country":"AU","lat":-34.9112,"lng":138.7074,"pop":72260,"capital":false},{"name":"Morphett Vale","country":"AU","lat":-35.1333,"lng":138.5167,"pop":24002,"capital":false},{"name":"Mount Barker","country":"AU","lat":-35.0667,"lng":138.8667,"pop":21554,"capital":false},{"name":"Whyalla","country":"AU","lat":-33.0327,"lng":137.5648,"pop":20880,"capital":false},{"name":"Gawler","country":"AU","lat":-34.6025,"lng":138.749,"pop":20006,"capital":false},{"name":"Adelaide city centre","country":"AU","lat":-34.9287,"lng":138.6033,"pop":19820,"capital":false},{"name":"Parafield Gardens","country":"AU","lat":-34.7825,"lng":138.6108,"pop":16872,"capital":false},{"name":"Paralowie","country":"AU","lat":-34.757,"lng":138.6082,"pop":16530,"capital":false},{"name":"Prospect","country":"AU","lat":-34.8824,"lng":138.5933,"pop":14584,"capital":false},{"name":"Murray Bridge","country":"AU","lat":-35.1199,"lng":139.2735,"pop":14491,"capital":false},{"name":"Port Pirie","country":"AU","lat":-33.1918,"lng":138.0175,"pop":13896,"capital":false},{"name":"Port Lincoln","country":"AU","lat":-34.7262,"lng":135.8744,"pop":13810,"capital":false},{"name":"Mawson Lakes","country":"AU","lat":-34.8159,"lng":138.6081,"pop":13220,"capital":false},{"name":"Port Augusta","country":"AU","lat":-32.496,"lng":137.7728,"pop":12788,"capital":false},{"name":"Hallett Cove","country":"AU","lat":-35.0792,"lng":138.5146,"pop":12512,"capital":false},{"name":"Happy Valley","country":"AU","lat":-35.0833,"lng":138.5333,"pop":11420,"capital":false},{"name":"Woodcroft","country":"AU","lat":-35.1024,"lng":138.5629,"pop":11326,"capital":false},{"name":"Craigmore","country":"AU","lat":-34.7006,"lng":138.7096,"pop":10943,"capital":false},{"name":"Aberfoyle Park","country":"AU","lat":-35.0768,"lng":138.5916,"pop":10795,"capital":false},{"name":"Aldinga Beach","country":"AU","lat":-35.2783,"lng":138.458,"pop":10343,"capital":false},{"name":"Seaton","country":"AU","lat":-34.9,"lng":138.5167,"pop":10208,"capital":false},{"name":"Golden Grove","country":"AU","lat":-34.7833,"lng":138.7333,"pop":10017,"capital":false},{"name":"Salisbury North","country":"AU","lat":-34.7496,"lng":138.6206,"pop":9724,"capital":false},{"name":"Flagstaff Hill","country":"AU","lat":-35.0486,"lng":138.5829,"pop":9624,"capital":false},{"name":"Athelstone","country":"AU","lat":-34.8702,"lng":138.6999,"pop":8992,"capital":false},{"name":"Salisbury East","country":"AU","lat":-34.7905,"lng":138.6545,"pop":8772,"capital":false},{"name":"Greenwith","country":"AU","lat":-34.7656,"lng":138.7138,"pop":8763,"capital":false},{"name":"Magill","country":"AU","lat":-34.9091,"lng":138.675,"pop":8690,"capital":false},{"name":"Ingle Farm","country":"AU","lat":-34.8333,"lng":138.6333,"pop":8679,"capital":false},{"name":"Hope Valley","country":"AU","lat":-34.8333,"lng":138.7,"pop":8223,"capital":false},{"name":"Salisbury","country":"AU","lat":-34.7667,"lng":138.6333,"pop":8136,"capital":false},{"name":"Campbelltown","country":"AU","lat":-34.8833,"lng":138.6667,"pop":8130,"capital":false},{"name":"Andrews Farm","country":"AU","lat":-34.6763,"lng":138.662,"pop":7957,"capital":false},{"name":"North Adelaide","country":"AU","lat":-34.9073,"lng":138.5914,"pop":7794,"capital":false},{"name":"Rostrevor","country":"AU","lat":-34.8939,"lng":138.6918,"pop":7649,"capital":false},{"name":"Wynn Vale","country":"AU","lat":-34.7994,"lng":138.6871,"pop":7610,"capital":false},{"name":"Pooraka","country":"AU","lat":-34.8247,"lng":138.6264,"pop":7158,"capital":false},{"name":"Blakeview","country":"AU","lat":-34.6757,"lng":138.7101,"pop":7043,"capital":false},{"name":"Whyalla Norrie","country":"AU","lat":-33.029,"lng":137.5392,"pop":6760,"capital":false},{"name":"Paradise","country":"AU","lat":-34.8736,"lng":138.669,"pop":6699,"capital":false},{"name":"Whyalla Stuart","country":"AU","lat":-33.0249,"lng":137.5247,"pop":6605,"capital":false},{"name":"Modbury Heights","country":"AU","lat":-34.8097,"lng":138.6854,"pop":6577,"capital":false},{"name":"Sheidow Park","country":"AU","lat":-35.0793,"lng":138.5274,"pop":6507,"capital":false},{"name":"Para Hills","country":"AU","lat":-34.8121,"lng":138.658,"pop":6468,"capital":false},{"name":"Davoren Park","country":"AU","lat":-34.6906,"lng":138.6686,"pop":6434,"capital":false},{"name":"Highbury","country":"AU","lat":-34.8529,"lng":138.6975,"pop":6432,"capital":false},{"name":"Strathalbyn","country":"AU","lat":-35.2598,"lng":138.8925,"pop":6348,"capital":false},{"name":"Burton","country":"AU","lat":-34.7334,"lng":138.6025,"pop":6242,"capital":false},{"name":"Nuriootpa","country":"AU","lat":-34.4682,"lng":138.9977,"pop":6213,"capital":false},{"name":"Findon","country":"AU","lat":-34.9,"lng":138.5333,"pop":6178,"capital":false},{"name":"Glenelg North","country":"AU","lat":-34.9679,"lng":138.5175,"pop":6166,"capital":false},{"name":"Northgate","country":"AU","lat":-34.8578,"lng":138.6291,"pop":6154,"capital":false},{"name":"Fulham Gardens","country":"AU","lat":-34.9148,"lng":138.5132,"pop":6056,"capital":false},{"name":"Klemzig","country":"AU","lat":-34.8793,"lng":138.6356,"pop":6018,"capital":false},{"name":"Valley View","country":"AU","lat":-34.8399,"lng":138.6607,"pop":6007,"capital":false},{"name":"Seaford Rise","country":"AU","lat":-35.193,"lng":138.4817,"pop":5992,"capital":false},{"name":"Salisbury Downs","country":"AU","lat":-34.7677,"lng":138.6221,"pop":5933,"capital":false},{"name":"Henley Beach","country":"AU","lat":-34.9203,"lng":138.4944,"pop":5840,"capital":false},{"name":"Munno Para West","country":"AU","lat":-34.657,"lng":138.671,"pop":5823,"capital":false},{"name":"Norwood","country":"AU","lat":-34.9273,"lng":138.6285,"pop":5803,"capital":false},{"name":"Grange","country":"AU","lat":-34.9022,"lng":138.4902,"pop":5759,"capital":false},{"name":"West Lakes","country":"AU","lat":-34.873,"lng":138.4946,"pop":5611,"capital":false},{"name":"Lockleys","country":"AU","lat":-34.9259,"lng":138.528,"pop":5546,"capital":false},{"name":"Modbury North","country":"AU","lat":-34.8285,"lng":138.6739,"pop":5478,"capital":false},{"name":"North Haven","country":"AU","lat":-34.7882,"lng":138.4916,"pop":5457,"capital":false},{"name":"Christies Beach","country":"AU","lat":-35.1388,"lng":138.4723,"pop":5404,"capital":false},{"name":"Mitchell Park","country":"AU","lat":-35.0103,"lng":138.5627,"pop":5384,"capital":false},{"name":"Kilburn","country":"AU","lat":-34.8597,"lng":138.5856,"pop":5384,"capital":false},{"name":"Somerton Park","country":"AU","lat":-34.997,"lng":138.5216,"pop":5356,"capital":false},{"name":"Modbury","country":"AU","lat":-34.8333,"lng":138.6833,"pop":5306,"capital":false},{"name":"Gawler East","country":"AU","lat":-34.5989,"lng":138.7632,"pop":5291,"capital":false},{"name":"Enfield","country":"AU","lat":-34.8526,"lng":138.6026,"pop":5289,"capital":false},{"name":"Redwood Park","country":"AU","lat":-34.8115,"lng":138.707,"pop":5230,"capital":false},{"name":"Christie Downs","country":"AU","lat":-35.13,"lng":138.4963,"pop":5227,"capital":false},{"name":"Windsor Gardens","country":"AU","lat":-34.8654,"lng":138.647,"pop":5199,"capital":false},{"name":"Glengowrie","country":"AU","lat":-34.9871,"lng":138.5367,"pop":5185,"capital":false},{"name":"Salisbury Heights","country":"AU","lat":-34.7631,"lng":138.6759,"pop":5117,"capital":false},{"name":"Warradale","country":"AU","lat":-34.9972,"lng":138.5316,"pop":5096,"capital":false},{"name":"Elizabeth Downs","country":"AU","lat":-34.6998,"lng":138.6913,"pop":5031,"capital":false}]