[{"name":"Koror","country":"PW","lat":7.3398,"lng":134.4733,"pop":14000,"capital":false},{"name":"Koror Town","country":"PW","lat":7.3426,"lng":134.4789,"pop":12676,"capital":false},{"name":"Colonia","country":"FM","lat":9.5164,"lng":138.1217,"pop":7371,"capital":false},{"name":"Kloulklubed","country":"PW","lat":7.0419,"lng":134.2556,"pop":702,"capital":false},{"name":"Ulimang","country":"PW","lat":7.6242,"lng":134.6421,"pop":581,"capital":false},{"name":"Mengellang","country":"PW","lat":7.6957,"lng":134.6305,"pop":488,"capital":false},{"name":"Ngchesar Hamlet","country":"PW","lat":7.4693,"lng":134.6099,"pop":300,"capital":false},{"name":"Melekeok Village","country":"PW","lat":7.4957,"lng":134.6367,"pop":271,"capital":false},{"name":"Ngchemiangel","country":"PW","lat":7.4461,"lng":134.4768,"pop":270,"capital":false},{"name":"Ngerkeai","country":"PW","lat":7.5546,"lng":134.6361,"pop":223,"capital":false},{"name":"Ngardmau","country":"PW","lat":7.6099,"lng":134.5744,"pop":221,"capital":false},{"name":"Angaur State","country":"PW","lat":6.906,"lng":134.13,"pop":188,"capital":false},{"name":"Kayangel","country":"PW","lat":8.0823,"lng":134.7173,"pop":188,"capital":false},{"name":"Imeong Hamlet","country":"PW","lat":7.5313,"lng":134.5271,"pop":132,"capital":false},{"name":"Ngetkib","country":"PW","lat":7.3645,"lng":134.5148,"pop":62,"capital":false},{"name":"Tobi Village","country":"PW","lat":3.0049,"lng":131.1217,"pop":44,"capital":false},{"name":"Sonsorol Village","country":"PW","lat":5.3261,"lng":132.2194,"pop":30,"capital":false},{"name":"Ngereklmadel","country":"PW","lat":7.4883,"lng":134.4856,"pop":0,"capital":false}]