[{"name":"Mackay","country":"AU","lat":-21.1534,"lng":149.1655,"pop":84333,"capital":false},{"name":"Emerald","country":"AU","lat":-23.523,"lng":148.1578,"pop":14906,"capital":false},{"name":"Moranbah","country":"AU","lat":-22.0016,"lng":148.0466,"pop":12068,"capital":false},{"name":"Bowen","country":"AU","lat":-20.0137,"lng":148.2475,"pop":11417,"capital":false},{"name":"Moree","country":"AU","lat":-29.4628,"lng":149.8416,"pop":9779,"capital":false},{"name":"Andergrove","country":"AU","lat":-21.0833,"lng":149.1833,"pop":9097,"capital":false},{"name":"Charters Towers","country":"AU","lat":-20.0767,"lng":146.2635,"pop":8040,"capital":false},{"name":"Roma","country":"AU","lat":-26.5674,"lng":148.7875,"pop":7105,"capital":false},{"name":"South Mackay","country":"AU","lat":-21.1629,"lng":149.1775,"pop":6494,"capital":false},{"name":"West Mackay","country":"AU","lat":-21.1547,"lng":149.1618,"pop":6339,"capital":false},{"name":"Cannonvale","country":"AU","lat":-20.2768,"lng":148.6976,"pop":6107,"capital":false},{"name":"Blackwater","country":"AU","lat":-23.5835,"lng":148.8791,"pop":6089,"capital":false},{"name":"North Mackay","country":"AU","lat":-21.1201,"lng":149.1794,"pop":5742,"capital":false},{"name":"Sarina","country":"AU","lat":-21.4191,"lng":149.2168,"pop":5534,"capital":false},{"name":"Red Hill","country":"AU","lat":-20.3167,"lng":148.5,"pop":5406,"capital":false},{"name":"Beaconsfield","country":"AU","lat":-21.0912,"lng":149.1654,"pop":5260,"capital":false}]