[{"name":"Maitland","country":"AU","lat":-32.7331,"lng":151.5574,"pop":89597,"capital":false},{"name":"Coffs Harbour","country":"AU","lat":-30.2963,"lng":153.1135,"pop":78759,"capital":false},{"name":"Blue Mountains","country":"AU","lat":-33.7133,"lng":150.3307,"pop":78121,"capital":false},{"name":"Pittwater","country":"AU","lat":-33.6662,"lng":151.3017,"pop":63482,"capital":false},{"name":"Port Macquarie","country":"AU","lat":-31.4308,"lng":152.9089,"pop":51965,"capital":false},{"name":"Blacktown","country":"AU","lat":-33.7667,"lng":150.9167,"pop":46942,"capital":false},{"name":"Tamworth","country":"AU","lat":-31.0905,"lng":150.9291,"pop":43874,"capital":false},{"name":"Castle Hill","country":"AU","lat":-33.7333,"lng":151,"pop":39284,"capital":false},{"name":"Auburn","country":"AU","lat":-33.85,"lng":151.0333,"pop":37245,"capital":false},{"name":"Baulkham Hills","country":"AU","lat":-33.7588,"lng":150.9929,"pop":36792,"capital":false},{"name":"Bankstown","country":"AU","lat":-33.9167,"lng":151.0333,"pop":34933,"capital":false},{"name":"Liverpool","country":"AU","lat":-33.9194,"lng":150.9259,"pop":31078,"capital":false},{"name":"Maroubra","country":"AU","lat":-33.95,"lng":151.2333,"pop":30224,"capital":false},{"name":"Parramatta","country":"AU","lat":-33.8178,"lng":151.0035,"pop":30211,"capital":false},{"name":"Hurstville","country":"AU","lat":-33.9677,"lng":151.1015,"pop":29744,"capital":false},{"name":"Merrylands","country":"AU","lat":-33.8333,"lng":150.9833,"pop":29508,"capital":false},{"name":"Randwick","country":"AU","lat":-33.9144,"lng":151.249,"pop":28943,"capital":false},{"name":"Mosman","country":"AU","lat":-33.839,"lng":151.2396,"pop":27844,"capital":false},{"name":"Kellyville","country":"AU","lat":-33.7103,"lng":150.951,"pop":27676,"capital":false},{"name":"Quakers Hill","country":"AU","lat":-33.7333,"lng":150.8833,"pop":26904,"capital":false},{"name":"Ryde","country":"AU","lat":-33.8188,"lng":151.1062,"pop":26385,"capital":false},{"name":"Marrickville","country":"AU","lat":-33.9074,"lng":151.1555,"pop":26140,"capital":false},{"name":"Strathfield","country":"AU","lat":-33.881,"lng":151.0799,"pop":25769,"capital":false},{"name":"Sydney Central Business District","country":"AU","lat":-33.8648,"lng":151.2077,"pop":25654,"capital":false},{"name":"Chatswood","country":"AU","lat":-33.8,"lng":151.1833,"pop":25140,"capital":false},{"name":"Campsie","country":"AU","lat":-33.9125,"lng":151.1028,"pop":24487,"capital":false},{"name":"Greenacre","country":"AU","lat":-33.9003,"lng":151.0556,"pop":24361,"capital":false},{"name":"Carlingford","country":"AU","lat":-33.7827,"lng":151.0489,"pop":24131,"capital":false},{"name":"Ashfield","country":"AU","lat":-33.8883,"lng":151.1227,"pop":23749,"capital":false},{"name":"Greystanes","country":"AU","lat":-33.8235,"lng":150.9461,"pop":23511,"capital":false},{"name":"Epping","country":"AU","lat":-33.7727,"lng":151.0818,"pop":23435,"capital":false},{"name":"Cessnock","country":"AU","lat":-32.8321,"lng":151.3562,"pop":23211,"capital":false},{"name":"Glenmore Park","country":"AU","lat":-33.7907,"lng":150.6693,"pop":22863,"capital":false},{"name":"Hornsby","country":"AU","lat":-33.7024,"lng":151.0993,"pop":22462,"capital":false},{"name":"Cabramatta","country":"AU","lat":-33.8974,"lng":150.9345,"pop":21634,"capital":false},{"name":"Armidale","country":"AU","lat":-30.5012,"lng":151.6655,"pop":21312,"capital":false},{"name":"Dee Why","country":"AU","lat":-33.7511,"lng":151.2889,"pop":21145,"capital":false},{"name":"Punchbowl","country":"AU","lat":-33.9289,"lng":151.0511,"pop":20174,"capital":false},{"name":"St Clair","country":"AU","lat":-33.7973,"lng":150.7847,"pop":19856,"capital":false},{"name":"Lidcombe","country":"AU","lat":-33.8644,"lng":151.0397,"pop":19791,"capital":false},{"name":"Bexley","country":"AU","lat":-33.95,"lng":151.1167,"pop":19664,"capital":false},{"name":"Seven Hills","country":"AU","lat":-33.7833,"lng":150.9333,"pop":19196,"capital":false},{"name":"Wollongong city centre","country":"AU","lat":-34.4279,"lng":150.8927,"pop":19108,"capital":false},{"name":"Cherrybrook","country":"AU","lat":-33.722,"lng":151.0461,"pop":18588,"capital":false},{"name":"Saint Ives","country":"AU","lat":-33.7298,"lng":151.1598,"pop":18384,"capital":false},{"name":"Burwood","country":"AU","lat":-33.8833,"lng":151.1,"pop":18224,"capital":false},{"name":"Fairfield","country":"AU","lat":-33.8667,"lng":150.95,"pop":17932,"capital":false},{"name":"Yagoona","country":"AU","lat":-33.9049,"lng":151.02,"pop":17908,"capital":false},{"name":"Westmead","country":"AU","lat":-33.8038,"lng":150.9877,"pop":17835,"capital":false},{"name":"Eastwood","country":"AU","lat":-33.7918,"lng":151.0806,"pop":17792,"capital":false},{"name":"Cronulla","country":"AU","lat":-34.0625,"lng":151.1496,"pop":17703,"capital":false},{"name":"Wahroonga","country":"AU","lat":-33.7182,"lng":151.1156,"pop":17652,"capital":false},{"name":"Earlwood","country":"AU","lat":-33.9209,"lng":151.1251,"pop":17592,"capital":false},{"name":"Batemans Bay","country":"AU","lat":-35.7066,"lng":150.1754,"pop":17519,"capital":false},{"name":"Engadine","country":"AU","lat":-34.0656,"lng":151.0127,"pop":17141,"capital":false},{"name":"Lakemba","country":"AU","lat":-33.9197,"lng":151.0759,"pop":16921,"capital":false},{"name":"Granville","country":"AU","lat":-33.8406,"lng":151.0075,"pop":16716,"capital":false},{"name":"Mount Druitt","country":"AU","lat":-33.7667,"lng":150.8167,"pop":16682,"capital":false},{"name":"Kogarah","country":"AU","lat":-33.9681,"lng":151.1356,"pop":16416,"capital":false},{"name":"Umina Beach","country":"AU","lat":-33.5231,"lng":151.3133,"pop":16413,"capital":false},{"name":"Taree","country":"AU","lat":-31.911,"lng":152.4539,"pop":16359,"capital":false},{"name":"Manly","country":"AU","lat":-33.798,"lng":151.2883,"pop":16170,"capital":false},{"name":"West Pennant Hills","country":"AU","lat":-33.7457,"lng":151.0476,"pop":16162,"capital":false},{"name":"Glenwood","country":"AU","lat":-33.7333,"lng":150.9328,"pop":16040,"capital":false},{"name":"Muswellbrook","country":"AU","lat":-32.2612,"lng":150.8901,"pop":16000,"capital":false},{"name":"Mascot","country":"AU","lat":-33.926,"lng":151.1935,"pop":15985,"capital":false},{"name":"Surry Hills","country":"AU","lat":-33.8837,"lng":151.2128,"pop":15828,"capital":false},{"name":"Casula","country":"AU","lat":-33.9522,"lng":150.8995,"pop":15695,"capital":false},{"name":"Cranebrook","country":"AU","lat":-33.7061,"lng":150.7094,"pop":15649,"capital":false},{"name":"Rockdale","country":"AU","lat":-33.95,"lng":151.1333,"pop":15436,"capital":false},{"name":"Kingsford","country":"AU","lat":-33.924,"lng":151.2275,"pop":15338,"capital":false},{"name":"Coogee","country":"AU","lat":-33.9205,"lng":151.2552,"pop":15333,"capital":false},{"name":"Prestons","country":"AU","lat":-33.9418,"lng":150.8717,"pop":15312,"capital":false},{"name":"Miranda","country":"AU","lat":-34.0386,"lng":151.1001,"pop":15111,"capital":false},{"name":"Kensington","country":"AU","lat":-33.9202,"lng":151.2224,"pop":15021,"capital":false},{"name":"Ingleburn","country":"AU","lat":-34,"lng":150.8667,"pop":14994,"capital":false},{"name":"Rooty Hill","country":"AU","lat":-33.7667,"lng":150.8333,"pop":14821,"capital":false},{"name":"Newtown","country":"AU","lat":-33.8983,"lng":151.1775,"pop":14820,"capital":false},{"name":"Bossley Park","country":"AU","lat":-33.8618,"lng":150.8841,"pop":14476,"capital":false},{"name":"Leichhardt","country":"AU","lat":-33.8834,"lng":151.1563,"pop":14373,"capital":false},{"name":"Concord","country":"AU","lat":-33.8472,"lng":151.1038,"pop":14353,"capital":false},{"name":"Toongabbie","country":"AU","lat":-33.7833,"lng":150.95,"pop":14218,"capital":false},{"name":"Revesby","country":"AU","lat":-33.95,"lng":151.0167,"pop":14056,"capital":false},{"name":"Macquarie Fields","country":"AU","lat":-33.9921,"lng":150.8931,"pop":13686,"capital":false},{"name":"Forster","country":"AU","lat":-32.1814,"lng":152.5171,"pop":13660,"capital":false},{"name":"Pyrmont","country":"AU","lat":-33.8698,"lng":151.194,"pop":13549,"capital":false},{"name":"Dulwich Hill","country":"AU","lat":-33.9041,"lng":151.1395,"pop":13536,"capital":false},{"name":"North Parramatta","country":"AU","lat":-33.7935,"lng":151.0012,"pop":13394,"capital":false},{"name":"Doonside","country":"AU","lat":-33.7667,"lng":150.8667,"pop":13356,"capital":false},{"name":"Penrith","country":"AU","lat":-33.75,"lng":150.7,"pop":13343,"capital":false},{"name":"Frenchs Forest","country":"AU","lat":-33.7482,"lng":151.2232,"pop":13278,"capital":false},{"name":"West Ryde","country":"AU","lat":-33.8054,"lng":151.0739,"pop":13275,"capital":false},{"name":"Padstow","country":"AU","lat":-33.9569,"lng":151.0319,"pop":13226,"capital":false},{"name":"Marsfield","country":"AU","lat":-33.7778,"lng":151.1057,"pop":13218,"capital":false},{"name":"Campbelltown","country":"AU","lat":-34.0667,"lng":150.8167,"pop":13193,"capital":false},{"name":"Redfern","country":"AU","lat":-33.8928,"lng":151.2042,"pop":13072,"capital":false},{"name":"Albion Park","country":"AU","lat":-34.5713,"lng":150.7757,"pop":13039,"capital":false},{"name":"Chester Hill","country":"AU","lat":-33.879,"lng":150.9995,"pop":12765,"capital":false},{"name":"Paddington","country":"AU","lat":-33.8842,"lng":151.2315,"pop":12686,"capital":false},{"name":"Penshurst","country":"AU","lat":-33.9667,"lng":151.0833,"pop":12673,"capital":false},{"name":"Zetland","country":"AU","lat":-33.9075,"lng":151.2086,"pop":12622,"capital":false},{"name":"Raymond Terrace","country":"AU","lat":-32.7595,"lng":151.7505,"pop":12620,"capital":false},{"name":"Belmore","country":"AU","lat":-33.919,"lng":151.0894,"pop":12596,"capital":false},{"name":"Green Valley","country":"AU","lat":-33.9029,"lng":150.8671,"pop":12482,"capital":false},{"name":"Minto","country":"AU","lat":-34.0333,"lng":150.85,"pop":12461,"capital":false},{"name":"Kingsgrove","country":"AU","lat":-33.9393,"lng":151.0993,"pop":12390,"capital":false},{"name":"Panania","country":"AU","lat":-33.9537,"lng":150.9973,"pop":12382,"capital":false},{"name":"Lane Cove","country":"AU","lat":-33.8157,"lng":151.1668,"pop":12363,"capital":false},{"name":"Wallsend","country":"AU","lat":-32.9013,"lng":151.6643,"pop":12344,"capital":false},{"name":"Potts Point","country":"AU","lat":-33.867,"lng":151.2259,"pop":12168,"capital":false},{"name":"Darlinghurst","country":"AU","lat":-33.8794,"lng":151.2192,"pop":12073,"capital":false},{"name":"Riverwood","country":"AU","lat":-33.9472,"lng":151.0497,"pop":12059,"capital":false},{"name":"Caringbah South","country":"AU","lat":-34.0566,"lng":151.1215,"pop":12020,"capital":false},{"name":"Woonona","country":"AU","lat":-34.3493,"lng":150.9144,"pop":11980,"capital":false},{"name":"Bateau Bay","country":"AU","lat":-33.3833,"lng":151.4667,"pop":11905,"capital":false},{"name":"Smithfield","country":"AU","lat":-33.85,"lng":150.9333,"pop":11899,"capital":false},{"name":"Caringbah","country":"AU","lat":-34.0353,"lng":151.1247,"pop":11830,"capital":false},{"name":"Kingswood Park","country":"AU","lat":-33.7665,"lng":150.7144,"pop":11813,"capital":false},{"name":"Rutherford","country":"AU","lat":-32.7167,"lng":151.5333,"pop":11788,"capital":false},{"name":"Pymble","country":"AU","lat":-33.7439,"lng":151.1419,"pop":11775,"capital":false},{"name":"Bondi Beach","country":"AU","lat":-33.8908,"lng":151.2785,"pop":11733,"capital":false},{"name":"Charlestown","country":"AU","lat":-32.9683,"lng":151.6932,"pop":11725,"capital":false},{"name":"Drummoyne","country":"AU","lat":-33.8524,"lng":151.1549,"pop":11718,"capital":false},{"name":"South Penrith","country":"AU","lat":-33.7735,"lng":150.6947,"pop":11691,"capital":false},{"name":"Turramurra","country":"AU","lat":-33.7334,"lng":151.1285,"pop":11690,"capital":false},{"name":"Gladesville","country":"AU","lat":-33.8333,"lng":151.1333,"pop":11673,"capital":false},{"name":"The Ponds","country":"AU","lat":-33.7023,"lng":150.9109,"pop":11642,"capital":false},{"name":"Mount Annan","country":"AU","lat":-34.0529,"lng":150.7598,"pop":11584,"capital":false},{"name":"Toongabbie West","country":"AU","lat":-33.7833,"lng":150.9333,"pop":11578,"capital":false},{"name":"Winston Hills","country":"AU","lat":-33.7764,"lng":150.9805,"pop":11572,"capital":false},{"name":"East Maitland","country":"AU","lat":-32.75,"lng":151.5833,"pop":11562,"capital":false},{"name":"Roselands","country":"AU","lat":-33.9332,"lng":151.0732,"pop":11528,"capital":false},{"name":"Glebe","country":"AU","lat":-33.8788,"lng":151.1843,"pop":11525,"capital":false},{"name":"Condell Park","country":"AU","lat":-33.9246,"lng":151.0109,"pop":11523,"capital":false},{"name":"Fairfield West","country":"AU","lat":-33.8667,"lng":150.917,"pop":11456,"capital":false},{"name":"Rhodes","country":"AU","lat":-33.8266,"lng":151.0881,"pop":11453,"capital":false},{"name":"Figtree","country":"AU","lat":-34.4356,"lng":150.8583,"pop":11376,"capital":false},{"name":"Lane Cove North","country":"AU","lat":-33.8054,"lng":151.1664,"pop":11345,"capital":false},{"name":"Camperdown","country":"AU","lat":-33.8897,"lng":151.1764,"pop":11336,"capital":false},{"name":"Wentworthville","country":"AU","lat":-33.8065,"lng":150.9679,"pop":11328,"capital":false},{"name":"Terrigal","country":"AU","lat":-33.4481,"lng":151.4467,"pop":11309,"capital":false},{"name":"Hinchinbrook","country":"AU","lat":-33.9188,"lng":150.8631,"pop":11220,"capital":false},{"name":"Kempsey","country":"AU","lat":-31.079,"lng":152.8309,"pop":11073,"capital":false},{"name":"Cremorne","country":"AU","lat":-33.8268,"lng":151.2263,"pop":11069,"capital":false},{"name":"Northmead","country":"AU","lat":-33.7838,"lng":150.9986,"pop":11042,"capital":false},{"name":"Canley Heights","country":"AU","lat":-33.8826,"lng":150.9241,"pop":10936,"capital":false},{"name":"Mona Vale","country":"AU","lat":-33.6776,"lng":151.3031,"pop":10877,"capital":false},{"name":"North Ryde","country":"AU","lat":-33.7968,"lng":151.1244,"pop":10827,"capital":false},{"name":"Bowral","country":"AU","lat":-34.4775,"lng":150.4204,"pop":10764,"capital":false},{"name":"Botany","country":"AU","lat":-33.946,"lng":151.1959,"pop":10732,"capital":false},{"name":"Woy Woy","country":"AU","lat":-33.4843,"lng":151.3247,"pop":10668,"capital":false},{"name":"Sutherland","country":"AU","lat":-34.031,"lng":151.0553,"pop":10657,"capital":false},{"name":"Carlton","country":"AU","lat":-33.9711,"lng":151.1214,"pop":10635,"capital":false},{"name":"Bellevue Hill","country":"AU","lat":-33.879,"lng":151.251,"pop":10599,"capital":false},{"name":"Harrington Park","country":"AU","lat":-34.024,"lng":150.735,"pop":10584,"capital":false},{"name":"Dapto","country":"AU","lat":-34.5039,"lng":150.7942,"pop":10568,"capital":false},{"name":"Merewether","country":"AU","lat":-32.948,"lng":151.7433,"pop":10557,"capital":false},{"name":"Ermington","country":"AU","lat":-33.8148,"lng":151.0547,"pop":10550,"capital":false},{"name":"Croydon","country":"AU","lat":-33.8833,"lng":151.1167,"pop":10546,"capital":false},{"name":"Arncliffe","country":"AU","lat":-33.9363,"lng":151.1482,"pop":10523,"capital":false},{"name":"Killara","country":"AU","lat":-33.766,"lng":151.1621,"pop":10451,"capital":false},{"name":"Peakhurst","country":"AU","lat":-33.9629,"lng":151.0516,"pop":10450,"capital":false},{"name":"Sylvania","country":"AU","lat":-34.0124,"lng":151.0972,"pop":10422,"capital":false},{"name":"Kellyville Ridge","country":"AU","lat":-33.7016,"lng":150.9179,"pop":10395,"capital":false},{"name":"Mortdale","country":"AU","lat":-33.969,"lng":151.0723,"pop":10315,"capital":false},{"name":"Balmain","country":"AU","lat":-33.8548,"lng":151.1833,"pop":10305,"capital":false},{"name":"Oatley","country":"AU","lat":-33.98,"lng":151.072,"pop":10301,"capital":false},{"name":"Neutral Bay","country":"AU","lat":-33.8378,"lng":151.2175,"pop":10250,"capital":false},{"name":"Sans Souci","country":"AU","lat":-33.9899,"lng":151.1333,"pop":10249,"capital":false},{"name":"Menai","country":"AU","lat":-34.0167,"lng":151.0167,"pop":10199,"capital":false},{"name":"Canley Vale","country":"AU","lat":-33.8866,"lng":150.948,"pop":10162,"capital":false},{"name":"Wiley Park","country":"AU","lat":-33.9242,"lng":151.0674,"pop":10098,"capital":false},{"name":"Beverly Hills","country":"AU","lat":-33.948,"lng":151.0798,"pop":10090,"capital":false},{"name":"New Lambton","country":"AU","lat":-32.9284,"lng":151.7085,"pop":10016,"capital":false},{"name":"West Hoxton","country":"AU","lat":-33.9339,"lng":150.8323,"pop":9978,"capital":false},{"name":"Wyoming","country":"AU","lat":-33.4039,"lng":151.3625,"pop":9927,"capital":false},{"name":"Mount Pritchard","country":"AU","lat":-33.9029,"lng":150.9047,"pop":9926,"capital":false},{"name":"Rose Bay","country":"AU","lat":-33.8688,"lng":151.2706,"pop":9915,"capital":false},{"name":"Roseville","country":"AU","lat":-33.7833,"lng":151.1833,"pop":9908,"capital":false},{"name":"Bondi","country":"AU","lat":-33.8943,"lng":151.2644,"pop":9891,"capital":false},{"name":"Matraville","country":"AU","lat":-33.9634,"lng":151.232,"pop":9768,"capital":false},{"name":"Leumeah","country":"AU","lat":-34.05,"lng":150.8333,"pop":9767,"capital":false},{"name":"Gunnedah","country":"AU","lat":-30.9806,"lng":150.2584,"pop":9761,"capital":false},{"name":"Edensor Park","country":"AU","lat":-33.8797,"lng":150.8778,"pop":9739,"capital":false},{"name":"Bondi Junction","country":"AU","lat":-33.8927,"lng":151.2472,"pop":9649,"capital":false},{"name":"Moorebank","country":"AU","lat":-33.9437,"lng":150.9566,"pop":9621,"capital":false},{"name":"Lindfield","country":"AU","lat":-33.7833,"lng":151.1667,"pop":9616,"capital":false},{"name":"Nowra","country":"AU","lat":-34.8842,"lng":150.6004,"pop":9598,"capital":false},{"name":"Haymarket","country":"AU","lat":-33.8787,"lng":151.2053,"pop":9587,"capital":false},{"name":"Glenfield","country":"AU","lat":-33.9667,"lng":150.9,"pop":9538,"capital":false},{"name":"Artarmon","country":"AU","lat":-33.8167,"lng":151.1833,"pop":9392,"capital":false},{"name":"Hunters Hill","country":"AU","lat":-33.8343,"lng":151.1459,"pop":9357,"capital":false},{"name":"Medowie","country":"AU","lat":-32.7415,"lng":151.8676,"pop":9301,"capital":false},{"name":"Beecroft","country":"AU","lat":-33.7495,"lng":151.0648,"pop":9290,"capital":false},{"name":"Kings Langley","country":"AU","lat":-33.75,"lng":150.9354,"pop":9286,"capital":false},{"name":"Lurnea","country":"AU","lat":-33.9354,"lng":150.8967,"pop":9282,"capital":false},{"name":"Annandale","country":"AU","lat":-33.8833,"lng":151.1667,"pop":9259,"capital":false},{"name":"Bass Hill","country":"AU","lat":-33.8986,"lng":150.9954,"pop":9229,"capital":false},{"name":"Five Dock","country":"AU","lat":-33.8674,"lng":151.1291,"pop":9218,"capital":false},{"name":"Mayfield","country":"AU","lat":-32.8979,"lng":151.7361,"pop":9218,"capital":false},{"name":"Plumpton","country":"AU","lat":-33.7518,"lng":150.8369,"pop":9208,"capital":false},{"name":"Vaucluse","country":"AU","lat":-33.8555,"lng":151.2775,"pop":9205,"capital":false},{"name":"Kirrawee","country":"AU","lat":-34.0383,"lng":151.069,"pop":9139,"capital":false},{"name":"Stanhope Gardens","country":"AU","lat":-33.7221,"lng":150.926,"pop":9084,"capital":false},{"name":"Macquarie Park","country":"AU","lat":-33.781,"lng":151.1276,"pop":9054,"capital":false},{"name":"Newport","country":"AU","lat":-33.6564,"lng":151.314,"pop":9048,"capital":false},{"name":"Georges Hall","country":"AU","lat":-33.9088,"lng":150.9885,"pop":9007,"capital":false},{"name":"Chipping Norton","country":"AU","lat":-33.918,"lng":150.9593,"pop":8981,"capital":false},{"name":"Berala","country":"AU","lat":-33.872,"lng":151.0339,"pop":8974,"capital":false},{"name":"Beaumont Hills","country":"AU","lat":-33.6999,"lng":150.9411,"pop":8944,"capital":false},{"name":"North Bondi","country":"AU","lat":-33.8879,"lng":151.2808,"pop":8926,"capital":false},{"name":"Wattle Grove","country":"AU","lat":-33.9544,"lng":150.9445,"pop":8885,"capital":false},{"name":"Bradbury","country":"AU","lat":-34.0854,"lng":150.8154,"pop":8730,"capital":false},{"name":"Belrose","country":"AU","lat":-33.7395,"lng":151.2103,"pop":8714,"capital":false},{"name":"Bonnyrigg","country":"AU","lat":-33.8936,"lng":150.8891,"pop":8697,"capital":false},{"name":"Freshwater","country":"AU","lat":-33.7787,"lng":151.2857,"pop":8584,"capital":false},{"name":"Rozelle","country":"AU","lat":-33.8614,"lng":151.1705,"pop":8542,"capital":false},{"name":"Homebush West","country":"AU","lat":-33.8627,"lng":151.067,"pop":8521,"capital":false},{"name":"Brighton-Le-Sands","country":"AU","lat":-33.9601,"lng":151.1511,"pop":8515,"capital":false},{"name":"Moss Vale","country":"AU","lat":-34.5537,"lng":150.3712,"pop":8430,"capital":false},{"name":"Thornleigh","country":"AU","lat":-33.7323,"lng":151.079,"pop":8395,"capital":false},{"name":"Emu Plains","country":"AU","lat":-33.75,"lng":150.6667,"pop":8395,"capital":false},{"name":"Springwood","country":"AU","lat":-33.7,"lng":150.55,"pop":8358,"capital":false},{"name":"Wollstonecraft","country":"AU","lat":-33.8328,"lng":151.1898,"pop":8329,"capital":false},{"name":"Colyton","country":"AU","lat":-33.7828,"lng":150.7968,"pop":8285,"capital":false},{"name":"Katoomba","country":"AU","lat":-33.7198,"lng":150.3074,"pop":8268,"capital":false},{"name":"Gorokan","country":"AU","lat":-33.2576,"lng":151.5097,"pop":8211,"capital":false},{"name":"Berkeley Vale","country":"AU","lat":-33.35,"lng":151.4333,"pop":8198,"capital":false},{"name":"Forestville","country":"AU","lat":-33.7667,"lng":151.2083,"pop":8185,"capital":false},{"name":"Horsley","country":"AU","lat":-34.4876,"lng":150.778,"pop":8089,"capital":false},{"name":"Alexandria","country":"AU","lat":-33.8999,"lng":151.1995,"pop":8075,"capital":false},{"name":"Bella Vista","country":"AU","lat":-33.7413,"lng":150.9546,"pop":8056,"capital":false},{"name":"North Sydney","country":"AU","lat":-33.839,"lng":151.2072,"pop":8055,"capital":false},{"name":"Narrabeen","country":"AU","lat":-33.7128,"lng":151.2974,"pop":8049,"capital":false},{"name":"Petersham","country":"AU","lat":-33.8946,"lng":151.155,"pop":8040,"capital":false},{"name":"North Rocks","country":"AU","lat":-33.7722,"lng":151.0172,"pop":7899,"capital":false},{"name":"Thornton","country":"AU","lat":-32.7833,"lng":151.6333,"pop":7879,"capital":false},{"name":"Rouse Hill","country":"AU","lat":-33.6821,"lng":150.9154,"pop":7877,"capital":false},{"name":"Erskineville","country":"AU","lat":-33.9025,"lng":151.1858,"pop":7856,"capital":false},{"name":"Narara","country":"AU","lat":-33.3959,"lng":151.3353,"pop":7841,"capital":false},{"name":"Cameron Park","country":"AU","lat":-32.907,"lng":151.6053,"pop":7819,"capital":false},{"name":"Chippendale","country":"AU","lat":-33.8867,"lng":151.1975,"pop":7803,"capital":false},{"name":"Balgowlah","country":"AU","lat":-33.7949,"lng":151.2572,"pop":7768,"capital":false},{"name":"Rosemeadow","country":"AU","lat":-34.1041,"lng":150.7928,"pop":7756,"capital":false},{"name":"Collaroy","country":"AU","lat":-33.732,"lng":151.3012,"pop":7730,"capital":false},{"name":"Marayong","country":"AU","lat":-33.7482,"lng":150.8927,"pop":7675,"capital":false},{"name":"Lilyfield","country":"AU","lat":-33.875,"lng":151.1653,"pop":7641,"capital":false},{"name":"Lalor Park","country":"AU","lat":-33.7609,"lng":150.9312,"pop":7637,"capital":false},{"name":"Stanmore","country":"AU","lat":-33.8941,"lng":151.1642,"pop":7619,"capital":false},{"name":"Gordon","country":"AU","lat":-33.7553,"lng":151.1512,"pop":7567,"capital":false},{"name":"Berkeley","country":"AU","lat":-34.4833,"lng":150.85,"pop":7559,"capital":false},{"name":"Cromer","country":"AU","lat":-33.7312,"lng":151.2679,"pop":7515,"capital":false},{"name":"Fairfield Heights","country":"AU","lat":-33.8644,"lng":150.9388,"pop":7512,"capital":false},{"name":"Warners Bay","country":"AU","lat":-32.9725,"lng":151.6527,"pop":7504,"capital":false},{"name":"Maryland","country":"AU","lat":-32.8789,"lng":151.6614,"pop":7502,"capital":false},{"name":"Dural","country":"AU","lat":-33.6833,"lng":151.0167,"pop":7493,"capital":false},{"name":"Gymea","country":"AU","lat":-34.0364,"lng":151.0853,"pop":7489,"capital":false},{"name":"Ultimo","country":"AU","lat":-33.8772,"lng":151.1972,"pop":7410,"capital":false},{"name":"Ambarvale","country":"AU","lat":-34.0894,"lng":150.7966,"pop":7333,"capital":false},{"name":"Beacon Hill","country":"AU","lat":-33.7528,"lng":151.2586,"pop":7308,"capital":false},{"name":"Bonnyrigg Heights","country":"AU","lat":-33.8912,"lng":150.8699,"pop":7300,"capital":false},{"name":"Blaxland","country":"AU","lat":-33.75,"lng":150.6,"pop":7288,"capital":false},{"name":"Summer Hill","country":"AU","lat":-33.8915,"lng":151.1383,"pop":7287,"capital":false},{"name":"Fairy Meadow","country":"AU","lat":-34.393,"lng":150.8928,"pop":7283,"capital":false},{"name":"Woollahra","country":"AU","lat":-33.8878,"lng":151.2368,"pop":7278,"capital":false},{"name":"Warriewood","country":"AU","lat":-33.6886,"lng":151.2953,"pop":7265,"capital":false},{"name":"Illawong","country":"AU","lat":-34,"lng":151.0333,"pop":7206,"capital":false},{"name":"Canterbury","country":"AU","lat":-33.9119,"lng":151.1186,"pop":7200,"capital":false},{"name":"Pennant Hills","country":"AU","lat":-33.7378,"lng":151.0722,"pop":7199,"capital":false},{"name":"Riverstone","country":"AU","lat":-33.6833,"lng":150.8667,"pop":7191,"capital":false},{"name":"Narellan Vale","country":"AU","lat":-34.0497,"lng":150.7439,"pop":7160,"capital":false},{"name":"Pendle Hill","country":"AU","lat":-33.804,"lng":150.9554,"pop":7150,"capital":false},{"name":"Cabramatta West","country":"AU","lat":-33.893,"lng":150.9119,"pop":7138,"capital":false},{"name":"Killarney Vale","country":"AU","lat":-33.3632,"lng":151.458,"pop":7103,"capital":false},{"name":"Belmont","country":"AU","lat":-33.0274,"lng":151.6601,"pop":7079,"capital":false},{"name":"Sanctuary Point","country":"AU","lat":-35.1036,"lng":150.6267,"pop":7020,"capital":false},{"name":"Seaforth","country":"AU","lat":-33.8014,"lng":151.2398,"pop":6998,"capital":false},{"name":"Oakhurst","country":"AU","lat":-33.7388,"lng":150.8384,"pop":6978,"capital":false},{"name":"Mount Colah","country":"AU","lat":-33.6833,"lng":151.1167,"pop":6974,"capital":false},{"name":"Wentworth Point","country":"AU","lat":-33.8308,"lng":151.0744,"pop":6937,"capital":false},{"name":"Cecil Hills","country":"AU","lat":-33.8892,"lng":150.8514,"pop":6924,"capital":false},{"name":"Eastlakes","country":"AU","lat":-33.932,"lng":151.2121,"pop":6884,"capital":false},{"name":"Cammeray","country":"AU","lat":-33.8213,"lng":151.2161,"pop":6854,"capital":false},{"name":"Allambie Heights","country":"AU","lat":-33.7665,"lng":151.2498,"pop":6844,"capital":false},{"name":"Kiama","country":"AU","lat":-34.6683,"lng":150.8522,"pop":6836,"capital":false},{"name":"Albion Park Rail","country":"AU","lat":-34.5663,"lng":150.7918,"pop":6809,"capital":false},{"name":"Homebush","country":"AU","lat":-33.8667,"lng":151.0833,"pop":6787,"capital":false},{"name":"Gymea Bay","country":"AU","lat":-34.0521,"lng":151.088,"pop":6725,"capital":false},{"name":"Cambridge Park","country":"AU","lat":-33.7478,"lng":150.7221,"pop":6646,"capital":false},{"name":"South Tamworth","country":"AU","lat":-31.11,"lng":150.9225,"pop":6627,"capital":false},{"name":"Wolli Creek","country":"AU","lat":-33.9313,"lng":151.1522,"pop":6614,"capital":false},{"name":"Rydalmere","country":"AU","lat":-33.8145,"lng":151.0375,"pop":6571,"capital":false},{"name":"Flinders","country":"AU","lat":-34.5833,"lng":150.8552,"pop":6558,"capital":false},{"name":"Bronte","country":"AU","lat":-33.902,"lng":151.2656,"pop":6553,"capital":false},{"name":"St Helens Park","country":"AU","lat":-34.1047,"lng":150.8137,"pop":6553,"capital":false},{"name":"Merrylands West","country":"AU","lat":-33.8327,"lng":150.9691,"pop":6536,"capital":false},{"name":"Nambucca Heads","country":"AU","lat":-30.6432,"lng":153.0088,"pop":6529,"capital":false},{"name":"Bomaderry","country":"AU","lat":-34.8497,"lng":150.6109,"pop":6499,"capital":false},{"name":"Narraweena","country":"AU","lat":-33.7552,"lng":151.2766,"pop":6498,"capital":false},{"name":"Haberfield","country":"AU","lat":-33.883,"lng":151.1439,"pop":6480,"capital":false},{"name":"Ulladulla","country":"AU","lat":-35.3591,"lng":150.4725,"pop":6468,"capital":false},{"name":"Willoughby","country":"AU","lat":-33.8049,"lng":151.1993,"pop":6451,"capital":false},{"name":"Oak Flats","country":"AU","lat":-34.5623,"lng":150.8219,"pop":6427,"capital":false},{"name":"Corrimal","country":"AU","lat":-34.3786,"lng":150.9036,"pop":6424,"capital":false},{"name":"Woodcroft","country":"AU","lat":-33.7564,"lng":150.8807,"pop":6423,"capital":false},{"name":"Green Point","country":"AU","lat":-33.444,"lng":151.3682,"pop":6405,"capital":false},{"name":"Glenhaven","country":"AU","lat":-33.7,"lng":151,"pop":6402,"capital":false},{"name":"Long Jetty","country":"AU","lat":-33.3592,"lng":151.4883,"pop":6399,"capital":false},{"name":"Erskine Park","country":"AU","lat":-33.813,"lng":150.7977,"pop":6393,"capital":false},{"name":"Wamberal","country":"AU","lat":-33.4155,"lng":151.4456,"pop":6378,"capital":false},{"name":"Concord West","country":"AU","lat":-33.8481,"lng":151.0861,"pop":6378,"capital":false},{"name":"Warilla","country":"AU","lat":-34.5518,"lng":150.8583,"pop":6377,"capital":false},{"name":"St Leonards","country":"AU","lat":-33.8234,"lng":151.1984,"pop":6343,"capital":false},{"name":"South Wentworthville","country":"AU","lat":-33.8185,"lng":150.9634,"pop":6336,"capital":false},{"name":"Bligh Park","country":"AU","lat":-33.6398,"lng":150.8025,"pop":6322,"capital":false},{"name":"Blue Haven","country":"AU","lat":-33.2111,"lng":151.5035,"pop":6313,"capital":false},{"name":"Kariong","country":"AU","lat":-33.4397,"lng":151.2945,"pop":6305,"capital":false},{"name":"Belfield","country":"AU","lat":-33.9035,"lng":151.0847,"pop":6295,"capital":false},{"name":"Tuncurry","country":"AU","lat":-32.1744,"lng":152.4988,"pop":6277,"capital":false},{"name":"Wauchope","country":"AU","lat":-31.4579,"lng":152.7262,"pop":6252,"capital":false},{"name":"Hamlyn Terrace","country":"AU","lat":-33.2512,"lng":151.4763,"pop":6248,"capital":false},{"name":"Helensburgh","country":"AU","lat":-34.1784,"lng":150.9952,"pop":6221,"capital":false},{"name":"Toormina","country":"AU","lat":-30.3538,"lng":153.0884,"pop":6210,"capital":false},{"name":"Hornsby Heights","country":"AU","lat":-33.6713,"lng":151.0943,"pop":6204,"capital":false},{"name":"Hillvue","country":"AU","lat":-31.1276,"lng":150.9071,"pop":6191,"capital":false},{"name":"Northbridge","country":"AU","lat":-33.8131,"lng":151.2173,"pop":6183,"capital":false},{"name":"Belmont North","country":"AU","lat":-33.0208,"lng":151.6685,"pop":6168,"capital":false},{"name":"Ropes Crossing","country":"AU","lat":-33.7328,"lng":150.791,"pop":6151,"capital":false},{"name":"Edgeworth","country":"AU","lat":-32.9251,"lng":151.6161,"pop":6142,"capital":false},{"name":"Blakehurst","country":"AU","lat":-33.9915,"lng":151.1088,"pop":6141,"capital":false},{"name":"Nambucca","country":"AU","lat":-30.6333,"lng":152.9833,"pop":6137,"capital":false},{"name":"St Johns Park","country":"AU","lat":-33.8829,"lng":150.9018,"pop":6119,"capital":false},{"name":"Wetherill Park","country":"AU","lat":-33.8428,"lng":150.9006,"pop":6104,"capital":false},{"name":"Nelson Bay","country":"AU","lat":-32.7204,"lng":152.144,"pop":6096,"capital":false},{"name":"Jannali","country":"AU","lat":-34.0164,"lng":151.0607,"pop":6078,"capital":false},{"name":"Picnic Point","country":"AU","lat":-33.9806,"lng":150.9966,"pop":6068,"capital":false},{"name":"Villawood","country":"AU","lat":-33.8843,"lng":150.9803,"pop":6067,"capital":false},{"name":"Winmalee","country":"AU","lat":-33.6785,"lng":150.6121,"pop":6057,"capital":false},{"name":"Manly Vale","country":"AU","lat":-33.7846,"lng":151.262,"pop":6057,"capital":false},{"name":"Kurri Kurri","country":"AU","lat":-32.8193,"lng":151.4791,"pop":6048,"capital":false},{"name":"Bulli","country":"AU","lat":-34.3383,"lng":150.9135,"pop":6025,"capital":false},{"name":"Heathcote","country":"AU","lat":-34.0841,"lng":151.0131,"pop":5935,"capital":false},{"name":"Wentworth Falls","country":"AU","lat":-33.7103,"lng":150.3753,"pop":5928,"capital":false},{"name":"Thirroul","country":"AU","lat":-34.316,"lng":150.9214,"pop":5920,"capital":false},{"name":"Whalan","country":"AU","lat":-33.757,"lng":150.804,"pop":5913,"capital":false},{"name":"Adamstown","country":"AU","lat":-32.9382,"lng":151.7254,"pop":5904,"capital":false},{"name":"Raby","country":"AU","lat":-34.0185,"lng":150.8176,"pop":5885,"capital":false},{"name":"Waitara","country":"AU","lat":-33.7109,"lng":151.1033,"pop":5874,"capital":false},{"name":"Warwick Farm","country":"AU","lat":-33.9129,"lng":150.937,"pop":5864,"capital":false},{"name":"Greenwich","country":"AU","lat":-33.8395,"lng":151.183,"pop":5860,"capital":false},{"name":"North Narrabeen","country":"AU","lat":-33.7093,"lng":151.2961,"pop":5855,"capital":false},{"name":"South Windsor","country":"AU","lat":-33.6181,"lng":150.8044,"pop":5855,"capital":false},{"name":"Barrack Heights","country":"AU","lat":-34.5646,"lng":150.8569,"pop":5834,"capital":false},{"name":"Eagle Vale","country":"AU","lat":-34.0375,"lng":150.8136,"pop":5779,"capital":false},{"name":"Naremburn","country":"AU","lat":-33.817,"lng":151.2008,"pop":5772,"capital":false},{"name":"Holsworthy","country":"AU","lat":-33.9833,"lng":150.9667,"pop":5771,"capital":false},{"name":"Sefton","country":"AU","lat":-33.8877,"lng":151.0105,"pop":5757,"capital":false},{"name":"Newington","country":"AU","lat":-33.8349,"lng":151.057,"pop":5741,"capital":false},{"name":"Harris Park","country":"AU","lat":-33.8228,"lng":151.0078,"pop":5738,"capital":false},{"name":"Mittagong","country":"AU","lat":-34.45,"lng":150.4457,"pop":5725,"capital":false},{"name":"Fairlight","country":"AU","lat":-33.7957,"lng":151.2735,"pop":5695,"capital":false},{"name":"St Andrews","country":"AU","lat":-34.0224,"lng":150.8296,"pop":5688,"capital":false},{"name":"Toronto","country":"AU","lat":-33.0136,"lng":151.5937,"pop":5670,"capital":false},{"name":"Hebersham","country":"AU","lat":-33.7458,"lng":150.8239,"pop":5660,"capital":false},{"name":"Allawah","country":"AU","lat":-33.9726,"lng":151.1144,"pop":5645,"capital":false},{"name":"Narwee","country":"AU","lat":-33.9465,"lng":151.0692,"pop":5636,"capital":false},{"name":"Minchinbury","country":"AU","lat":-33.7872,"lng":150.8296,"pop":5627,"capital":false},{"name":"Scone","country":"AU","lat":-32.0501,"lng":150.8689,"pop":5613,"capital":false},{"name":"North Nowra","country":"AU","lat":-34.8582,"lng":150.5748,"pop":5610,"capital":false},{"name":"Oatlands","country":"AU","lat":-33.7959,"lng":151.0271,"pop":5598,"capital":false},{"name":"Eleebana","country":"AU","lat":-32.9896,"lng":151.6364,"pop":5548,"capital":false},{"name":"Girraween","country":"AU","lat":-33.799,"lng":150.943,"pop":5537,"capital":false},{"name":"Lugarno","country":"AU","lat":-33.9827,"lng":151.0418,"pop":5521,"capital":false},{"name":"Ruse","country":"AU","lat":-34.0698,"lng":150.8417,"pop":5520,"capital":false},{"name":"Shell Cove","country":"AU","lat":-34.5899,"lng":150.862,"pop":5497,"capital":false},{"name":"Woolgoolga","country":"AU","lat":-30.1106,"lng":153.2007,"pop":5495,"capital":false},{"name":"Jamisontown","country":"AU","lat":-33.768,"lng":150.6768,"pop":5485,"capital":false},{"name":"South Granville","country":"AU","lat":-33.8586,"lng":151.0107,"pop":5484,"capital":false},{"name":"Bangor","country":"AU","lat":-34.0167,"lng":151.0333,"pop":5471,"capital":false},{"name":"Unanderra","country":"AU","lat":-34.4531,"lng":150.8475,"pop":5430,"capital":false},{"name":"Balgownie","country":"AU","lat":-34.395,"lng":150.8805,"pop":5427,"capital":false},{"name":"South Coogee","country":"AU","lat":-33.9311,"lng":151.256,"pop":5421,"capital":false},{"name":"Richmond","country":"AU","lat":-33.5996,"lng":150.7514,"pop":5418,"capital":false},{"name":"Kanahooka","country":"AU","lat":-34.4916,"lng":150.8082,"pop":5417,"capital":false},{"name":"Valentine","country":"AU","lat":-33.015,"lng":151.6429,"pop":5417,"capital":false},{"name":"Elermore Vale","country":"AU","lat":-32.9162,"lng":151.6767,"pop":5417,"capital":false},{"name":"Telopea","country":"AU","lat":-33.7928,"lng":151.0386,"pop":5413,"capital":false},{"name":"Hillsdale","country":"AU","lat":-33.9515,"lng":151.2278,"pop":5412,"capital":false},{"name":"Malabar","country":"AU","lat":-33.9622,"lng":151.248,"pop":5403,"capital":false},{"name":"Oyster Bay","country":"AU","lat":-34.0041,"lng":151.0759,"pop":5379,"capital":false},{"name":"Cooranbong","country":"AU","lat":-33.0762,"lng":151.4541,"pop":5377,"capital":false},{"name":"Dundas Valley","country":"AU","lat":-33.7883,"lng":151.0526,"pop":5374,"capital":false},{"name":"Wingham","country":"AU","lat":-31.8668,"lng":152.3699,"pop":5329,"capital":false},{"name":"Abbotsford","country":"AU","lat":-33.8489,"lng":151.128,"pop":5316,"capital":false},{"name":"Aberglasslyn","country":"AU","lat":-32.7,"lng":151.5333,"pop":5301,"capital":false},{"name":"North Tamworth","country":"AU","lat":-31.0786,"lng":150.9222,"pop":5276,"capital":false},{"name":"East Tamworth","country":"AU","lat":-31.0855,"lng":150.9372,"pop":5273,"capital":false},{"name":"Elizabeth Bay","country":"AU","lat":-33.8718,"lng":151.2271,"pop":5270,"capital":false},{"name":"West Tamworth","country":"AU","lat":-31.1024,"lng":150.9145,"pop":5259,"capital":false},{"name":"Currans Hill","country":"AU","lat":-34.0431,"lng":150.773,"pop":5251,"capital":false},{"name":"Fairfield East","country":"AU","lat":-33.8694,"lng":150.9713,"pop":5241,"capital":false},{"name":"Adamstown Heights","country":"AU","lat":-32.9491,"lng":151.7101,"pop":5215,"capital":false},{"name":"West Pymble","country":"AU","lat":-33.7667,"lng":151.1333,"pop":5211,"capital":false},{"name":"Normanhurst","country":"AU","lat":-33.7237,"lng":151.0958,"pop":5211,"capital":false},{"name":"Middleton Grange","country":"AU","lat":-33.917,"lng":150.8419,"pop":5181,"capital":false},{"name":"Berowra Heights","country":"AU","lat":-33.6121,"lng":151.1375,"pop":5162,"capital":false},{"name":"Corlette","country":"AU","lat":-32.7201,"lng":152.1085,"pop":5147,"capital":false},{"name":"Woongarrah","country":"AU","lat":-33.2413,"lng":151.4756,"pop":5147,"capital":false},{"name":"Glendenning","country":"AU","lat":-33.7483,"lng":150.8541,"pop":5131,"capital":false},{"name":"Lake Munmorah","country":"AU","lat":-33.1972,"lng":151.5824,"pop":5128,"capital":false},{"name":"Lithgow","country":"AU","lat":-33.4845,"lng":150.149,"pop":5125,"capital":false},{"name":"Jordan Springs","country":"AU","lat":-33.7214,"lng":150.7287,"pop":5111,"capital":false},{"name":"South Hurstville","country":"AU","lat":-33.9776,"lng":151.1055,"pop":5102,"capital":false},{"name":"Greenfield Park","country":"AU","lat":-33.8746,"lng":150.8919,"pop":5078,"capital":false},{"name":"Singleton","country":"AU","lat":-32.5674,"lng":151.166,"pop":5076,"capital":false},{"name":"Boambee East","country":"AU","lat":-30.3466,"lng":153.0732,"pop":5068,"capital":false},{"name":"Fletcher","country":"AU","lat":-32.8723,"lng":151.6401,"pop":5050,"capital":false},{"name":"Lisarow","country":"AU","lat":-33.3833,"lng":151.3667,"pop":5036,"capital":false},{"name":"Tahmoor","country":"AU","lat":-34.2225,"lng":150.5947,"pop":5016,"capital":false},{"name":"Port Kembla","country":"AU","lat":-34.4818,"lng":150.9012,"pop":5012,"capital":false}]