[{"name":"Ailuk","country":"MH","lat":10.2197,"lng":169.9797,"pop":451,"capital":false},{"name":"Utrik","country":"MH","lat":11.2278,"lng":169.8474,"pop":409,"capital":false},{"name":"Wotho","country":"MH","lat":10.1657,"lng":166.0102,"pop":160,"capital":false},{"name":"Rongelap","country":"MH","lat":11.1635,"lng":166.8941,"pop":19,"capital":false},{"name":"Enewetak","country":"MH","lat":11.3474,"lng":162.3373,"pop":0,"capital":false}]