[{"name":"Luganville","country":"VU","lat":-15.5199,"lng":167.1624,"pop":13397,"capital":false},{"name":"Kirakira","country":"SB","lat":-10.4544,"lng":161.9204,"pop":2107,"capital":false},{"name":"Isangel","country":"VU","lat":-19.5417,"lng":169.2817,"pop":1437,"capital":false},{"name":"Sola","country":"VU","lat":-13.8761,"lng":167.5517,"pop":1171,"capital":false},{"name":"Lakatoro","country":"VU","lat":-16.0999,"lng":167.4164,"pop":705,"capital":false},{"name":"Lata","country":"SB","lat":-10.725,"lng":165.7972,"pop":553,"capital":false},{"name":"Saratamata","country":"VU","lat":-15.2862,"lng":167.9913,"pop":0,"capital":false}]