[{"name":"Panatina","country":"SB","lat":-9.4321,"lng":160.0061,"pop":32712,"capital":false},{"name":"Malango","country":"SB","lat":-9.425,"lng":160.0533,"pop":15560,"capital":false},{"name":"Auki","country":"SB","lat":-8.7678,"lng":160.6978,"pop":7020,"capital":false},{"name":"Tulagi","country":"SB","lat":-9.1031,"lng":160.1506,"pop":1750,"capital":false},{"name":"Yangor","country":"NR","lat":-0.5354,"lng":166.9105,"pop":1258,"capital":false},{"name":"Baiti","country":"NR","lat":-0.508,"lng":166.9295,"pop":810,"capital":false},{"name":"Anabar","country":"NR","lat":-0.5084,"lng":166.9533,"pop":378,"capital":false},{"name":"Anibare","country":"NR","lat":-0.5279,"lng":166.9525,"pop":373,"capital":false},{"name":"Uaboe","country":"NR","lat":-0.5139,"lng":166.9238,"pop":330,"capital":false},{"name":"Ijuw","country":"NR","lat":-0.521,"lng":166.9581,"pop":180,"capital":false}]