[{"name":"Palmerston North","country":"NZ","lat":-40.3564,"lng":175.6111,"pop":90500,"capital":false},{"name":"Porirua","country":"NZ","lat":-41.1333,"lng":174.85,"pop":61500,"capital":false},{"name":"Nelson","country":"NZ","lat":-41.2708,"lng":173.284,"pop":54400,"capital":false},{"name":"Upper Hutt","country":"NZ","lat":-41.1383,"lng":175.0502,"pop":47400,"capital":false},{"name":"Rolleston","country":"NZ","lat":-43.5833,"lng":172.3833,"pop":34100,"capital":false},{"name":"Paraparaumu","country":"NZ","lat":-40.9167,"lng":175.0167,"pop":29900,"capital":false},{"name":"Blenheim","country":"NZ","lat":-41.516,"lng":173.9528,"pop":29800,"capital":false},{"name":"Timaru","country":"NZ","lat":-44.3967,"lng":171.2536,"pop":29300,"capital":false},{"name":"Masterton","country":"NZ","lat":-40.9597,"lng":175.6575,"pop":28900,"capital":false},{"name":"Ashburton","country":"NZ","lat":-43.8983,"lng":171.7301,"pop":21600,"capital":false},{"name":"Wainuiomata","country":"NZ","lat":-41.2667,"lng":174.95,"pop":20450,"capital":false},{"name":"Stoke","country":"NZ","lat":-41.3167,"lng":173.2333,"pop":20260,"capital":false},{"name":"Richmond","country":"NZ","lat":-41.3333,"lng":173.1833,"pop":19950,"capital":false},{"name":"Levin","country":"NZ","lat":-40.6333,"lng":175.275,"pop":19789,"capital":false},{"name":"Rangiora","country":"NZ","lat":-43.3044,"lng":172.5836,"pop":19300,"capital":false},{"name":"Karori","country":"NZ","lat":-41.2837,"lng":174.7414,"pop":15380,"capital":false},{"name":"Mosgiel","country":"NZ","lat":-45.875,"lng":170.3472,"pop":14800,"capital":false},{"name":"Te Aro","country":"NZ","lat":-41.294,"lng":174.7773,"pop":14600,"capital":false},{"name":"Kaiapoi","country":"NZ","lat":-43.3783,"lng":172.6401,"pop":13700,"capital":false},{"name":"Halswell","country":"NZ","lat":-43.5833,"lng":172.5667,"pop":13620,"capital":false},{"name":"Waikanae","country":"NZ","lat":-40.8833,"lng":175.0667,"pop":13600,"capital":false},{"name":"Oamaru","country":"NZ","lat":-45.0976,"lng":170.9709,"pop":13000,"capital":false},{"name":"Wigram","country":"NZ","lat":-43.55,"lng":172.55,"pop":12270,"capital":false},{"name":"Whitby","country":"NZ","lat":-41.1083,"lng":174.8902,"pop":12230,"capital":false},{"name":"Johnsonville","country":"NZ","lat":-41.2213,"lng":174.803,"pop":12150,"capital":false},{"name":"Hokowhitu","country":"NZ","lat":-40.3626,"lng":175.6338,"pop":11730,"capital":false},{"name":"Riccarton","country":"NZ","lat":-43.5283,"lng":172.5901,"pop":11650,"capital":false},{"name":"Redwoodtown","country":"NZ","lat":-41.5283,"lng":173.9502,"pop":11210,"capital":false},{"name":"Stokes Valley","country":"NZ","lat":-41.1783,"lng":174.9802,"pop":10770,"capital":false},{"name":"Parklands","country":"NZ","lat":-43.4783,"lng":172.6901,"pop":10760,"capital":false},{"name":"Carterton","country":"NZ","lat":-41.0183,"lng":175.5302,"pop":10300,"capital":false},{"name":"Avonhead","country":"NZ","lat":-43.5083,"lng":172.5501,"pop":10240,"capital":false},{"name":"Newtown","country":"NZ","lat":-41.3111,"lng":174.7794,"pop":10130,"capital":false},{"name":"Ilam","country":"NZ","lat":-43.5183,"lng":172.5701,"pop":10100,"capital":false},{"name":"Spreydon","country":"NZ","lat":-43.5567,"lng":172.6169,"pop":9970,"capital":false},{"name":"Bishopdale","country":"NZ","lat":-43.4783,"lng":172.5801,"pop":9850,"capital":false},{"name":"North East Valley","country":"NZ","lat":-45.85,"lng":170.5333,"pop":9830,"capital":false},{"name":"Burnside","country":"NZ","lat":-43.4983,"lng":172.5601,"pop":9810,"capital":false},{"name":"Bryndwr","country":"NZ","lat":-43.4983,"lng":172.5901,"pop":9760,"capital":false},{"name":"Naenae","country":"NZ","lat":-41.1983,"lng":174.9402,"pop":9720,"capital":false},{"name":"Tawa","country":"NZ","lat":-41.1704,"lng":174.8261,"pop":9670,"capital":false},{"name":"Hoon Hay","country":"NZ","lat":-43.5644,"lng":172.6077,"pop":9510,"capital":false},{"name":"Greymouth","country":"NZ","lat":-42.4667,"lng":171.2,"pop":9419,"capital":false},{"name":"Cannons Creek","country":"NZ","lat":-41.1399,"lng":174.8666,"pop":9250,"capital":false},{"name":"Lincoln","country":"NZ","lat":-43.65,"lng":172.4833,"pop":9180,"capital":false},{"name":"Awapuni","country":"NZ","lat":-40.3762,"lng":175.5838,"pop":9050,"capital":false},{"name":"Newlands","country":"NZ","lat":-41.2244,"lng":174.8219,"pop":8880,"capital":false},{"name":"Hornby","country":"NZ","lat":-43.55,"lng":172.5333,"pop":8790,"capital":false},{"name":"Khandallah","country":"NZ","lat":-41.245,"lng":174.7942,"pop":8640,"capital":false},{"name":"Redwood","country":"NZ","lat":-43.4683,"lng":172.6101,"pop":8500,"capital":false},{"name":"Petone","country":"NZ","lat":-41.2283,"lng":174.8702,"pop":8370,"capital":false},{"name":"Churton Park","country":"NZ","lat":-41.2066,"lng":174.8073,"pop":8290,"capital":false},{"name":"Kelvin Grove","country":"NZ","lat":-40.3287,"lng":175.6451,"pop":8170,"capital":false},{"name":"Upper Riccarton","country":"NZ","lat":-43.5283,"lng":172.5701,"pop":7990,"capital":false},{"name":"Papanui","country":"NZ","lat":-43.5,"lng":172.6167,"pop":7900,"capital":false},{"name":"Mount Cook","country":"NZ","lat":-41.3015,"lng":174.7748,"pop":7510,"capital":false},{"name":"Motueka","country":"NZ","lat":-41.1333,"lng":173.0167,"pop":7485,"capital":false},{"name":"Solway","country":"NZ","lat":-40.9583,"lng":175.6102,"pop":7430,"capital":false},{"name":"Island Bay","country":"NZ","lat":-41.3362,"lng":174.7735,"pop":7170,"capital":false},{"name":"Mairehau","country":"NZ","lat":-43.4983,"lng":172.6401,"pop":7120,"capital":false},{"name":"Somerfield","country":"NZ","lat":-43.5593,"lng":172.6313,"pop":7070,"capital":false},{"name":"Shirley","country":"NZ","lat":-43.4983,"lng":172.6501,"pop":6990,"capital":false},{"name":"Taita","country":"NZ","lat":-41.1783,"lng":174.9502,"pop":6960,"capital":false},{"name":"Cashmere","country":"NZ","lat":-43.5678,"lng":172.628,"pop":6940,"capital":false},{"name":"Epuni","country":"NZ","lat":-41.2026,"lng":174.9304,"pop":6940,"capital":false},{"name":"Titahi Bay","country":"NZ","lat":-41.1,"lng":174.8333,"pop":6810,"capital":false},{"name":"Allenton","country":"NZ","lat":-43.8883,"lng":171.7401,"pop":6789,"capital":false},{"name":"Terrace End","country":"NZ","lat":-40.3482,"lng":175.6302,"pop":6740,"capital":false},{"name":"Milson","country":"NZ","lat":-40.3282,"lng":175.6102,"pop":6740,"capital":false},{"name":"New Brighton","country":"NZ","lat":-43.5167,"lng":172.7333,"pop":6480,"capital":false},{"name":"Homedale","country":"NZ","lat":-41.2683,"lng":174.9502,"pop":6270,"capital":false},{"name":"Sydenham","country":"NZ","lat":-43.547,"lng":172.6359,"pop":6243,"capital":false},{"name":"Springlands","country":"NZ","lat":-41.5085,"lng":173.9373,"pop":6200,"capital":false},{"name":"Otaki","country":"NZ","lat":-40.7583,"lng":175.15,"pop":6086,"capital":false},{"name":"Takaro","country":"NZ","lat":-40.3579,"lng":175.5897,"pop":6080,"capital":false},{"name":"Witherlea","country":"NZ","lat":-41.5283,"lng":173.9502,"pop":6060,"capital":false},{"name":"Waterloo","country":"NZ","lat":-41.2155,"lng":174.9256,"pop":5950,"capital":false},{"name":"Prebbleton","country":"NZ","lat":-43.5833,"lng":172.5167,"pop":5750,"capital":false},{"name":"Marton","country":"NZ","lat":-40.0692,"lng":175.3782,"pop":5740,"capital":false},{"name":"Saint Kilda","country":"NZ","lat":-45.9019,"lng":170.5018,"pop":5710,"capital":false},{"name":"Burwood","country":"NZ","lat":-43.5,"lng":172.7,"pop":5661,"capital":false},{"name":"Ngaio","country":"NZ","lat":-41.2504,"lng":174.7739,"pop":5660,"capital":false},{"name":"Dannevirke","country":"NZ","lat":-40.2055,"lng":176.1008,"pop":5640,"capital":false},{"name":"Hataitai","country":"NZ","lat":-41.3043,"lng":174.7942,"pop":5620,"capital":false},{"name":"Avalon","country":"NZ","lat":-41.1983,"lng":174.9202,"pop":5590,"capital":false},{"name":"West End","country":"NZ","lat":-40.3659,"lng":175.5984,"pop":5510,"capital":false},{"name":"Woodend","country":"NZ","lat":-43.3167,"lng":172.6667,"pop":5430,"capital":false},{"name":"Raumati Beach","country":"NZ","lat":-40.9167,"lng":174.9833,"pop":5390,"capital":false},{"name":"Merivale","country":"NZ","lat":-43.5083,"lng":172.6101,"pop":5360,"capital":false},{"name":"Addington","country":"NZ","lat":-43.55,"lng":172.6167,"pop":5346,"capital":false},{"name":"Casebrook","country":"NZ","lat":-43.4783,"lng":172.5901,"pop":5262,"capital":false}]