[{"name":"Vacaville","country":"US","lat":38.3566,"lng":-121.9877,"pop":96803,"capital":false},{"name":"Arden-Arcade","country":"US","lat":38.6025,"lng":-121.3785,"pop":92186,"capital":false},{"name":"San Leandro","country":"US","lat":37.7249,"lng":-122.1561,"pop":90712,"capital":false},{"name":"Livermore","country":"US","lat":37.6819,"lng":-121.768,"pop":88126,"capital":false},{"name":"Tracy","country":"US","lat":37.7399,"lng":-121.4262,"pop":87075,"capital":false},{"name":"Citrus Heights","country":"US","lat":38.7071,"lng":-121.2811,"pop":87056,"capital":false},{"name":"Redwood City","country":"US","lat":37.4852,"lng":-122.2363,"pop":85288,"capital":false},{"name":"Merced","country":"US","lat":37.3022,"lng":-120.483,"pop":82436,"capital":false},{"name":"Mountain View","country":"US","lat":37.3861,"lng":-122.0838,"pop":80435,"capital":false},{"name":"Napa","country":"US","lat":38.2971,"lng":-122.2855,"pop":80434,"capital":false},{"name":"Pleasanton","country":"US","lat":37.6624,"lng":-121.8747,"pop":79510,"capital":false},{"name":"Alameda","country":"US","lat":37.771,"lng":-122.2609,"pop":78630,"capital":false},{"name":"Milpitas","country":"US","lat":37.4283,"lng":-121.9066,"pop":77604,"capital":false},{"name":"Folsom","country":"US","lat":38.678,"lng":-121.1761,"pop":76375,"capital":false},{"name":"San Ramon","country":"US","lat":37.7799,"lng":-121.978,"pop":76134,"capital":false},{"name":"Manteca","country":"US","lat":37.7974,"lng":-121.216,"pop":75448,"capital":false},{"name":"Union City","country":"US","lat":37.5958,"lng":-122.0191,"pop":74494,"capital":false},{"name":"Turlock","country":"US","lat":37.4947,"lng":-120.8466,"pop":72292,"capital":false},{"name":"Rancho Cordova","country":"US","lat":38.5891,"lng":-121.3027,"pop":71017,"capital":false},{"name":"Pittsburg","country":"US","lat":38.028,"lng":-121.8847,"pop":69424,"capital":false},{"name":"Walnut Creek","country":"US","lat":37.9063,"lng":-122.065,"pop":68910,"capital":false},{"name":"Davis","country":"US","lat":38.5449,"lng":-121.7405,"pop":67666,"capital":false},{"name":"South San Francisco","country":"US","lat":37.6547,"lng":-122.4077,"pop":67271,"capital":false},{"name":"Yuba City","country":"US","lat":39.1405,"lng":-121.6169,"pop":66941,"capital":false},{"name":"Palo Alto","country":"US","lat":37.4419,"lng":-122.143,"pop":66853,"capital":false},{"name":"Lodi","country":"US","lat":38.1302,"lng":-121.2724,"pop":64596,"capital":false},{"name":"Santa Cruz","country":"US","lat":36.9741,"lng":-122.0308,"pop":64220,"capital":false},{"name":"Madera","country":"US","lat":36.9613,"lng":-120.0607,"pop":64208,"capital":false},{"name":"Carmichael","country":"US","lat":38.6171,"lng":-121.3283,"pop":61762,"capital":false},{"name":"Castro Valley","country":"US","lat":37.6941,"lng":-122.0863,"pop":61388,"capital":false},{"name":"Rocklin","country":"US","lat":38.7907,"lng":-121.2358,"pop":61213,"capital":false},{"name":"Cupertino","country":"US","lat":37.323,"lng":-122.0322,"pop":60572,"capital":false},{"name":"Petaluma","country":"US","lat":38.2324,"lng":-122.6366,"pop":60438,"capital":false},{"name":"San Rafael","country":"US","lat":37.9735,"lng":-122.5311,"pop":59162,"capital":false},{"name":"Brentwood","country":"US","lat":37.9319,"lng":-121.6958,"pop":58968,"capital":false},{"name":"Woodland","country":"US","lat":38.6785,"lng":-121.7733,"pop":58567,"capital":false},{"name":"Dublin","country":"US","lat":37.7022,"lng":-121.9358,"pop":57721,"capital":false},{"name":"Novato","country":"US","lat":38.1074,"lng":-122.5697,"pop":55530,"capital":false},{"name":"Watsonville","country":"US","lat":36.9102,"lng":-121.7569,"pop":53628,"capital":false},{"name":"Gilroy","country":"US","lat":37.0058,"lng":-121.5683,"pop":53231,"capital":false},{"name":"West Sacramento","country":"US","lat":38.5805,"lng":-121.5302,"pop":52721,"capital":false},{"name":"Lincoln","country":"US","lat":38.8916,"lng":-121.293,"pop":49757,"capital":false},{"name":"Ceres","country":"US","lat":37.5949,"lng":-120.9577,"pop":47963,"capital":false},{"name":"Florin","country":"US","lat":38.496,"lng":-121.4088,"pop":47513,"capital":false},{"name":"San Luis Obispo","country":"US","lat":35.2828,"lng":-120.6596,"pop":47339,"capital":false},{"name":"Mission District","country":"US","lat":37.7599,"lng":-122.4191,"pop":47234,"capital":false},{"name":"Laguna","country":"US","lat":38.421,"lng":-121.4238,"pop":46621,"capital":false},{"name":"Antelope","country":"US","lat":38.7082,"lng":-121.3299,"pop":45770,"capital":false},{"name":"Newark","country":"US","lat":37.5297,"lng":-122.0402,"pop":45336,"capital":false},{"name":"Danville","country":"US","lat":37.8216,"lng":-122,"pop":44400,"capital":false},{"name":"Lompoc","country":"US","lat":34.6392,"lng":-120.4579,"pop":44164,"capital":false},{"name":"San Bruno","country":"US","lat":37.6305,"lng":-122.4111,"pop":43185,"capital":false},{"name":"Morgan Hill","country":"US","lat":37.1305,"lng":-121.6544,"pop":42948,"capital":false},{"name":"North Highlands","country":"US","lat":38.6857,"lng":-121.3722,"pop":42694,"capital":false},{"name":"Rohnert Park","country":"US","lat":38.3396,"lng":-122.7011,"pop":42407,"capital":false},{"name":"El Dorado Hills","country":"US","lat":38.6857,"lng":-121.0822,"pop":42108,"capital":false},{"name":"Campbell","country":"US","lat":37.2872,"lng":-121.95,"pop":41117,"capital":false},{"name":"Oakley","country":"US","lat":37.9974,"lng":-121.7124,"pop":39813,"capital":false},{"name":"Pacifica","country":"US","lat":37.6138,"lng":-122.4869,"pop":39260,"capital":false},{"name":"Martinez","country":"US","lat":38.0194,"lng":-122.1341,"pop":38137,"capital":false},{"name":"Hollister","country":"US","lat":36.8525,"lng":-121.4016,"pop":37462,"capital":false},{"name":"Los Banos","country":"US","lat":37.0583,"lng":-120.8499,"pop":37457,"capital":false},{"name":"Bayview-Hunters Point","country":"US","lat":37.7286,"lng":-122.3811,"pop":34835,"capital":false},{"name":"Pleasant Hill","country":"US","lat":37.948,"lng":-122.0608,"pop":34810,"capital":false},{"name":"Orangevale","country":"US","lat":38.6785,"lng":-121.2258,"pop":33960,"capital":false},{"name":"Foster City","country":"US","lat":37.5585,"lng":-122.2711,"pop":33477,"capital":false},{"name":"Menlo Park","country":"US","lat":37.4538,"lng":-122.1822,"pop":33449,"capital":false},{"name":"Foothill Farms","country":"US","lat":38.6788,"lng":-121.3511,"pop":33121,"capital":false},{"name":"Seaside","country":"US","lat":36.6111,"lng":-121.8516,"pop":33025,"capital":false},{"name":"Saratoga","country":"US","lat":37.2638,"lng":-122.023,"pop":30968,"capital":false},{"name":"Fair Oaks","country":"US","lat":38.6446,"lng":-121.2722,"pop":30912,"capital":false},{"name":"Los Gatos","country":"US","lat":37.2266,"lng":-121.9747,"pop":30705,"capital":false},{"name":"Los Altos","country":"US","lat":37.3852,"lng":-122.1141,"pop":30671,"capital":false},{"name":"Burlingame","country":"US","lat":37.5841,"lng":-122.3661,"pop":30459,"capital":false},{"name":"San Pablo","country":"US","lat":37.9622,"lng":-122.3455,"pop":30407,"capital":false},{"name":"San Carlos","country":"US","lat":37.5072,"lng":-122.2605,"pop":29931,"capital":false},{"name":"Atascadero","country":"US","lat":35.4894,"lng":-120.6707,"pop":29819,"capital":false},{"name":"East Palo Alto","country":"US","lat":37.4688,"lng":-122.1411,"pop":29662,"capital":false},{"name":"Atwater","country":"US","lat":37.3477,"lng":-120.6091,"pop":29237,"capital":false},{"name":"Orcutt","country":"US","lat":34.8653,"lng":-120.436,"pop":28905,"capital":false},{"name":"Monterey","country":"US","lat":36.6002,"lng":-121.8947,"pop":28338,"capital":false},{"name":"Benicia","country":"US","lat":38.0494,"lng":-122.1586,"pop":28167,"capital":false},{"name":"Suisun","country":"US","lat":38.2383,"lng":-122.0402,"pop":28111,"capital":false},{"name":"Windsor","country":"US","lat":38.5471,"lng":-122.8164,"pop":27464,"capital":false},{"name":"Belmont","country":"US","lat":37.5202,"lng":-122.2758,"pop":27218,"capital":false},{"name":"Paso Robles","country":"US","lat":35.6266,"lng":-120.691,"pop":27157,"capital":false},{"name":"Agua Caliente","country":"US","lat":38.3241,"lng":-122.488,"pop":27090,"capital":false},{"name":"Paradise","country":"US","lat":39.7596,"lng":-121.6219,"pop":26476,"capital":false},{"name":"Lafayette","country":"US","lat":37.8858,"lng":-122.118,"pop":25843,"capital":false},{"name":"Hercules","country":"US","lat":38.0171,"lng":-122.2886,"pop":25314,"capital":false},{"name":"Galt","country":"US","lat":38.2546,"lng":-121.2999,"pop":25303,"capital":false},{"name":"Soledad","country":"US","lat":36.4247,"lng":-121.3263,"pop":25003,"capital":false},{"name":"Vineyard","country":"US","lat":38.4645,"lng":-121.3469,"pop":24836,"capital":false},{"name":"Riverbank","country":"US","lat":37.736,"lng":-120.9355,"pop":24122,"capital":false},{"name":"El Cerrito","country":"US","lat":37.9158,"lng":-122.3116,"pop":23549,"capital":false},{"name":"San Lorenzo","country":"US","lat":37.6741,"lng":-122.1332,"pop":23452,"capital":false},{"name":"Noe Valley","country":"US","lat":37.7502,"lng":-122.4337,"pop":22893,"capital":false},{"name":"Millbrae","country":"US","lat":37.5986,"lng":-122.3872,"pop":22795,"capital":false},{"name":"Rosemont","country":"US","lat":38.5519,"lng":-121.3647,"pop":22681,"capital":false},{"name":"Visitacion Valley","country":"US","lat":37.7171,"lng":-122.4043,"pop":22534,"capital":false},{"name":"Oakdale","country":"US","lat":37.7666,"lng":-120.8471,"pop":22259,"capital":false},{"name":"Ashland","country":"US","lat":37.6947,"lng":-122.1138,"pop":21925,"capital":false},{"name":"Bay Point","country":"US","lat":38.0291,"lng":-121.9616,"pop":21534,"capital":false},{"name":"Patterson","country":"US","lat":37.4716,"lng":-121.1297,"pop":21498,"capital":false},{"name":"Marina","country":"US","lat":36.6844,"lng":-121.8022,"pop":21229,"capital":false},{"name":"Lathrop","country":"US","lat":37.8227,"lng":-121.2766,"pop":20866,"capital":false},{"name":"American Canyon","country":"US","lat":38.1749,"lng":-122.2608,"pop":20554,"capital":false},{"name":"Granite Bay","country":"US","lat":38.7632,"lng":-121.1638,"pop":20402,"capital":false},{"name":"Albany","country":"US","lat":37.8869,"lng":-122.2977,"pop":19735,"capital":false},{"name":"Dixon","country":"US","lat":38.4455,"lng":-121.8233,"pop":19390,"capital":false},{"name":"Orinda","country":"US","lat":37.8772,"lng":-122.1797,"pop":19279,"capital":false},{"name":"Pinole","country":"US","lat":38.0044,"lng":-122.2989,"pop":19269,"capital":false},{"name":"Chowchilla","country":"US","lat":37.123,"lng":-120.2602,"pop":18510,"capital":false},{"name":"Cameron Park","country":"US","lat":38.6688,"lng":-120.9872,"pop":18228,"capital":false},{"name":"Arroyo Grande","country":"US","lat":35.1186,"lng":-120.5907,"pop":18108,"capital":false},{"name":"Linda","country":"US","lat":39.1277,"lng":-121.5508,"pop":17773,"capital":false},{"name":"Prunedale","country":"US","lat":36.7758,"lng":-121.6697,"pop":17560,"capital":false},{"name":"Moraga","country":"US","lat":37.8349,"lng":-122.1297,"pop":17256,"capital":false},{"name":"Greenfield","country":"US","lat":36.3208,"lng":-121.2438,"pop":17184,"capital":false},{"name":"Live Oak","country":"US","lat":36.9836,"lng":-121.9805,"pop":17158,"capital":false},{"name":"Parkside","country":"US","lat":37.742,"lng":-122.4863,"pop":16874,"capital":false},{"name":"Nipomo","country":"US","lat":35.0428,"lng":-120.476,"pop":16714,"capital":false},{"name":"Coalinga","country":"US","lat":36.1397,"lng":-120.3601,"pop":16564,"capital":false},{"name":"Truckee","country":"US","lat":39.328,"lng":-120.1832,"pop":16299,"capital":false},{"name":"Oroville","country":"US","lat":39.5139,"lng":-121.5578,"pop":16260,"capital":false},{"name":"Ukiah","country":"US","lat":39.1502,"lng":-123.2078,"pop":15917,"capital":false},{"name":"Pacific Grove","country":"US","lat":36.6177,"lng":-121.9166,"pop":15674,"capital":false},{"name":"Alum Rock","country":"US","lat":37.3661,"lng":-121.8272,"pop":15536,"capital":false},{"name":"South Yuba City","country":"US","lat":39.1166,"lng":-121.6391,"pop":15217,"capital":false},{"name":"Clearlake","country":"US","lat":38.9582,"lng":-122.6264,"pop":15182,"capital":false},{"name":"Ripon","country":"US","lat":37.7416,"lng":-121.1244,"pop":15151,"capital":false},{"name":"Rio Linda","country":"US","lat":38.691,"lng":-121.4486,"pop":15106,"capital":false},{"name":"Cherryland","country":"US","lat":37.6794,"lng":-122.1033,"pop":14728,"capital":false},{"name":"North Fair Oaks","country":"US","lat":37.4744,"lng":-122.1966,"pop":14687,"capital":false},{"name":"Parkway","country":"US","lat":38.496,"lng":-121.4588,"pop":14670,"capital":false},{"name":"Alamo","country":"US","lat":37.8502,"lng":-122.0322,"pop":14570,"capital":false},{"name":"Kerman","country":"US","lat":36.7236,"lng":-120.0599,"pop":14475,"capital":false},{"name":"Mill Valley","country":"US","lat":37.906,"lng":-122.545,"pop":14394,"capital":false},{"name":"Los Osos","country":"US","lat":35.3111,"lng":-120.8324,"pop":14276,"capital":false},{"name":"King City","country":"US","lat":36.2127,"lng":-121.126,"pop":13902,"capital":false},{"name":"Livingston","country":"US","lat":37.3869,"lng":-120.7235,"pop":13902,"capital":false},{"name":"Stanford","country":"US","lat":37.4241,"lng":-122.1661,"pop":13809,"capital":false},{"name":"Auburn","country":"US","lat":38.8966,"lng":-121.0769,"pop":13776,"capital":false},{"name":"Salida","country":"US","lat":37.7058,"lng":-121.0849,"pop":13722,"capital":false},{"name":"Olivehurst","country":"US","lat":39.0955,"lng":-121.5522,"pop":13656,"capital":false},{"name":"Grover Beach","country":"US","lat":35.1216,"lng":-120.6213,"pop":13600,"capital":false},{"name":"Discovery Bay","country":"US","lat":37.9085,"lng":-121.6002,"pop":13352,"capital":false},{"name":"Avenal","country":"US","lat":36.0041,"lng":-120.129,"pop":13301,"capital":false},{"name":"North Auburn","country":"US","lat":38.9313,"lng":-121.0819,"pop":13022,"capital":false},{"name":"Grass Valley","country":"US","lat":39.2191,"lng":-121.0611,"pop":12944,"capital":false},{"name":"El Sobrante","country":"US","lat":37.9772,"lng":-122.2952,"pop":12669,"capital":false},{"name":"Half Moon Bay","country":"US","lat":37.4636,"lng":-122.4286,"pop":12657,"capital":false},{"name":"San Anselmo","country":"US","lat":37.9746,"lng":-122.5616,"pop":12653,"capital":false},{"name":"Larkspur","country":"US","lat":37.9341,"lng":-122.5352,"pop":12417,"capital":false},{"name":"Marysville","country":"US","lat":39.1457,"lng":-121.5913,"pop":12216,"capital":false},{"name":"Scotts Valley","country":"US","lat":37.0511,"lng":-122.0147,"pop":11945,"capital":false},{"name":"Clayton","country":"US","lat":37.941,"lng":-121.9358,"pop":11867,"capital":false},{"name":"Healdsburg","country":"US","lat":38.6105,"lng":-122.8692,"pop":11742,"capital":false},{"name":"Emeryville","country":"US","lat":37.8313,"lng":-122.2852,"pop":11694,"capital":false},{"name":"Hillsborough","country":"US","lat":37.5741,"lng":-122.3794,"pop":11451,"capital":false},{"name":"Mendota","country":"US","lat":36.7536,"lng":-120.3816,"pop":11430,"capital":false},{"name":"Piedmont","country":"US","lat":37.8244,"lng":-122.2316,"pop":11376,"capital":false},{"name":"Magalia","country":"US","lat":39.8121,"lng":-121.5783,"pop":11310,"capital":false},{"name":"Communications Hill","country":"US","lat":37.289,"lng":-121.8551,"pop":11267,"capital":false},{"name":"Diamond Springs","country":"US","lat":38.6946,"lng":-120.8149,"pop":11037,"capital":false},{"name":"Sonoma","country":"US","lat":38.2919,"lng":-122.458,"pop":11037,"capital":false},{"name":"Newman","country":"US","lat":37.3138,"lng":-121.0208,"pop":10899,"capital":false},{"name":"La Riviera","country":"US","lat":38.5669,"lng":-121.3569,"pop":10802,"capital":false},{"name":"Delhi","country":"US","lat":37.4322,"lng":-120.7785,"pop":10755,"capital":false},{"name":"Tamalpais-Homestead Valley","country":"US","lat":37.8783,"lng":-122.5362,"pop":10735,"capital":false},{"name":"Placerville","country":"US","lat":38.7296,"lng":-120.7985,"pop":10650,"capital":false},{"name":"Garden Acres","country":"US","lat":37.9638,"lng":-121.2294,"pop":10648,"capital":false},{"name":"Morro Bay","country":"US","lat":35.3658,"lng":-120.8499,"pop":10639,"capital":false},{"name":"Winton","country":"US","lat":37.3894,"lng":-120.6132,"pop":10613,"capital":false},{"name":"Redwood Shores","country":"US","lat":37.5319,"lng":-122.248,"pop":10500,"capital":false},{"name":"Capitola","country":"US","lat":36.9752,"lng":-121.9533,"pop":10189,"capital":false},{"name":"Fairview","country":"US","lat":37.6785,"lng":-122.0458,"pop":10003,"capital":false},{"name":"Corte Madera","country":"US","lat":37.9255,"lng":-122.5275,"pop":9901,"capital":false},{"name":"Mountain House","country":"US","lat":37.7833,"lng":-121.5427,"pop":9675,"capital":false},{"name":"Soquel","country":"US","lat":36.988,"lng":-121.9566,"pop":9644,"capital":false},{"name":"Country Club","country":"US","lat":37.9688,"lng":-121.3408,"pop":9379,"capital":false},{"name":"Blackhawk","country":"US","lat":37.8208,"lng":-121.9077,"pop":9354,"capital":false},{"name":"Rio Del Mar","country":"US","lat":36.9683,"lng":-121.9002,"pop":9216,"capital":false},{"name":"Tiburon","country":"US","lat":37.8735,"lng":-122.4566,"pop":9214,"capital":false},{"name":"Madera Acres","country":"US","lat":37.0191,"lng":-120.0668,"pop":9163,"capital":false},{"name":"Larkfield-Wikiup","country":"US","lat":38.5134,"lng":-122.7509,"pop":8884,"capital":false},{"name":"Waterford","country":"US","lat":37.6413,"lng":-120.7605,"pop":8824,"capital":false},{"name":"Cloverdale","country":"US","lat":38.8055,"lng":-123.0172,"pop":8811,"capital":false},{"name":"Rodeo","country":"US","lat":38.033,"lng":-122.2669,"pop":8679,"capital":false},{"name":"Live Oak","country":"US","lat":39.2757,"lng":-121.66,"pop":8531,"capital":false},{"name":"Gonzales","country":"US","lat":36.5066,"lng":-121.4444,"pop":8473,"capital":false},{"name":"Los Altos Hills","country":"US","lat":37.3797,"lng":-122.1375,"pop":8419,"capital":false},{"name":"August","country":"US","lat":37.9788,"lng":-121.2622,"pop":8390,"capital":false},{"name":"Rio Vista","country":"US","lat":38.1639,"lng":-121.6958,"pop":8348,"capital":false},{"name":"Firebaugh","country":"US","lat":36.8588,"lng":-120.456,"pop":8330,"capital":false},{"name":"Oroville East","country":"US","lat":39.5113,"lng":-121.4752,"pop":8280,"capital":false},{"name":"East Foothills","country":"US","lat":37.3811,"lng":-121.8174,"pop":8269,"capital":false},{"name":"Pismo Beach","country":"US","lat":35.1428,"lng":-120.6413,"pop":8162,"capital":false},{"name":"Gold River","country":"US","lat":38.6263,"lng":-121.2466,"pop":7912,"capital":false},{"name":"Sebastopol","country":"US","lat":38.4021,"lng":-122.8239,"pop":7678,"capital":false},{"name":"Templeton","country":"US","lat":35.5497,"lng":-120.706,"pop":7674,"capital":false},{"name":"Fairfax","country":"US","lat":37.9872,"lng":-122.5889,"pop":7626,"capital":false},{"name":"Orland","country":"US","lat":39.7474,"lng":-122.1964,"pop":7550,"capital":false},{"name":"Corning","country":"US","lat":39.9277,"lng":-122.1792,"pop":7548,"capital":false},{"name":"Escalon","country":"US","lat":37.7978,"lng":-120.9979,"pop":7523,"capital":false},{"name":"Cotati","country":"US","lat":38.3269,"lng":-122.7072,"pop":7445,"capital":false},{"name":"Hughson","country":"US","lat":37.5969,"lng":-120.866,"pop":7384,"capital":false},{"name":"Interlaken","country":"US","lat":36.9513,"lng":-121.7338,"pop":7321,"capital":false},{"name":"Guadalupe","country":"US","lat":34.9716,"lng":-120.5718,"pop":7318,"capital":false},{"name":"Fort Bragg","country":"US","lat":39.4457,"lng":-123.8053,"pop":7289,"capital":false},{"name":"Oceano","country":"US","lat":35.0989,"lng":-120.6124,"pop":7286,"capital":false},{"name":"Atherton","country":"US","lat":37.4613,"lng":-122.1977,"pop":7167,"capital":false},{"name":"Sausalito","country":"US","lat":37.8591,"lng":-122.4852,"pop":7156,"capital":false},{"name":"Winters","country":"US","lat":38.5249,"lng":-121.9708,"pop":7034,"capital":false},{"name":"San Martin","country":"US","lat":37.085,"lng":-121.6102,"pop":7027,"capital":false},{"name":"Ione","country":"US","lat":38.3527,"lng":-120.9327,"pop":7000,"capital":false},{"name":"Tamalpais Valley","country":"US","lat":37.8797,"lng":-122.5458,"pop":7000,"capital":false},{"name":"Alta Sierra","country":"US","lat":39.1416,"lng":-121.0538,"pop":6911,"capital":false},{"name":"Pollock Pines","country":"US","lat":38.7616,"lng":-120.5861,"pop":6871,"capital":false},{"name":"Huron","country":"US","lat":36.2027,"lng":-120.1029,"pop":6836,"capital":false},{"name":"Loomis","country":"US","lat":38.8213,"lng":-121.193,"pop":6836,"capital":false},{"name":"Longwood - Winton Grove","country":"US","lat":37.6593,"lng":-122.1093,"pop":6700,"capital":false},{"name":"Boyes Hot Springs","country":"US","lat":38.3138,"lng":-122.4819,"pop":6656,"capital":false},{"name":"Thermalito","country":"US","lat":39.5113,"lng":-121.5869,"pop":6646,"capital":false},{"name":"Gridley","country":"US","lat":39.3638,"lng":-121.6936,"pop":6582,"capital":false},{"name":"Vandenberg Village","country":"US","lat":34.7083,"lng":-120.4677,"pop":6497,"capital":false},{"name":"Kentfield","country":"US","lat":37.9522,"lng":-122.5572,"pop":6485,"capital":false},{"name":"Castroville","country":"US","lat":36.7658,"lng":-121.758,"pop":6481,"capital":false},{"name":"Roseland","country":"US","lat":38.4221,"lng":-122.728,"pop":6325,"capital":false},{"name":"Ben Lomond","country":"US","lat":37.0891,"lng":-122.0863,"pop":6234,"capital":false},{"name":"Aptos","country":"US","lat":36.9772,"lng":-121.8994,"pop":6220,"capital":false},{"name":"Lucas Valley-Marinwood","country":"US","lat":38.0401,"lng":-122.5755,"pop":6094,"capital":false},{"name":"Willows","country":"US","lat":39.5243,"lng":-122.1936,"pop":6069,"capital":false},{"name":"Cambria","country":"US","lat":35.5641,"lng":-121.0807,"pop":6032,"capital":false},{"name":"Colusa","country":"US","lat":39.2143,"lng":-122.0094,"pop":5935,"capital":false},{"name":"Plumas Lake","country":"US","lat":39.0207,"lng":-121.558,"pop":5853,"capital":false},{"name":"Saint Helena","country":"US","lat":38.5052,"lng":-122.4703,"pop":5814,"capital":false},{"name":"Fruitridge Pocket","country":"US","lat":38.5326,"lng":-121.4558,"pop":5800,"capital":false},{"name":"Tierra Buena","country":"US","lat":39.1488,"lng":-121.6669,"pop":5797,"capital":false},{"name":"Gustine","country":"US","lat":37.2577,"lng":-120.9988,"pop":5756,"capital":false},{"name":"South Oroville","country":"US","lat":39.481,"lng":-121.536,"pop":5742,"capital":false},{"name":"Solvang","country":"US","lat":34.5958,"lng":-120.1376,"pop":5741,"capital":false},{"name":"West Modesto","country":"US","lat":37.6175,"lng":-121.0391,"pop":5682,"capital":false},{"name":"Keyes","country":"US","lat":37.5566,"lng":-120.9155,"pop":5601,"capital":false},{"name":"Hidden Valley Lake","country":"US","lat":38.808,"lng":-122.5583,"pop":5579,"capital":false},{"name":"Woodside","country":"US","lat":37.4299,"lng":-122.2539,"pop":5561,"capital":false},{"name":"Durham","country":"US","lat":39.6463,"lng":-121.8,"pop":5518,"capital":false},{"name":"Elverta","country":"US","lat":38.7138,"lng":-121.4627,"pop":5492,"capital":false},{"name":"Rancho Murieta","country":"US","lat":38.5019,"lng":-121.0947,"pop":5488,"capital":false},{"name":"El Granada","country":"US","lat":37.5027,"lng":-122.4694,"pop":5467,"capital":false},{"name":"Strawberry","country":"US","lat":37.8969,"lng":-122.5089,"pop":5393,"capital":false},{"name":"Palermo","country":"US","lat":39.4354,"lng":-121.538,"pop":5382,"capital":false},{"name":"Waldon","country":"US","lat":37.9263,"lng":-122.0555,"pop":5364,"capital":false},{"name":"Contra Costa Centre","country":"US","lat":37.9275,"lng":-122.0579,"pop":5364,"capital":false},{"name":"Wilton","country":"US","lat":38.4119,"lng":-121.2722,"pop":5363,"capital":false},{"name":"Calistoga","country":"US","lat":38.5788,"lng":-122.5797,"pop":5330,"capital":false},{"name":"Saranap","country":"US","lat":37.8849,"lng":-122.0761,"pop":5202,"capital":false},{"name":"Hilmar-Irwin","country":"US","lat":37.4045,"lng":-120.8504,"pop":5197,"capital":false},{"name":"Williams","country":"US","lat":39.1546,"lng":-122.1494,"pop":5196,"capital":false},{"name":"Bret Harte","country":"US","lat":37.6021,"lng":-121.0052,"pop":5152,"capital":false},{"name":"Tara Hills","country":"US","lat":37.9935,"lng":-122.3164,"pop":5126,"capital":false},{"name":"Dos Palos","country":"US","lat":36.9861,"lng":-120.6266,"pop":5125,"capital":false},{"name":"Buellton","country":"US","lat":34.6136,"lng":-120.1926,"pop":5082,"capital":false},{"name":"Kensington","country":"US","lat":37.9105,"lng":-122.2802,"pop":5077,"capital":false}]