[{"name":"Beaverton","country":"US","lat":45.4871,"lng":-122.8037,"pop":96577,"capital":false},{"name":"Federal Way","country":"US","lat":47.3223,"lng":-122.3126,"pop":95171,"capital":false},{"name":"Yakima","country":"US","lat":46.6021,"lng":-120.5059,"pop":93701,"capital":false},{"name":"Redding","country":"US","lat":40.5865,"lng":-122.3917,"pop":91582,"capital":false},{"name":"Nanaimo","country":"CA","lat":49.1664,"lng":-123.94,"pop":90504,"capital":false},{"name":"North Vancouver","country":"CA","lat":49.3164,"lng":-123.0693,"pop":88168,"capital":false},{"name":"Kirkland","country":"US","lat":47.6815,"lng":-122.2087,"pop":87281,"capital":false},{"name":"Bend","country":"US","lat":44.0582,"lng":-121.3153,"pop":87014,"capital":false},{"name":"Bellingham","country":"US","lat":48.7596,"lng":-122.4882,"pop":85146,"capital":false},{"name":"Maple Ridge","country":"CA","lat":49.2194,"lng":-122.6019,"pop":82256,"capital":false},{"name":"East Hastings","country":"CA","lat":49.2717,"lng":-123.0619,"pop":80740,"capital":false},{"name":"Medford","country":"US","lat":42.3265,"lng":-122.8756,"pop":79805,"capital":false},{"name":"New Westminster","country":"CA","lat":49.2068,"lng":-122.9109,"pop":78916,"capital":false},{"name":"South Surrey","country":"CA","lat":49.05,"lng":-122.7917,"pop":77170,"capital":false},{"name":"Auburn","country":"US","lat":47.3073,"lng":-122.2284,"pop":77006,"capital":false},{"name":"Cloverdale","country":"CA","lat":49.108,"lng":-122.7276,"pop":73355,"capital":false},{"name":"Marysville","country":"US","lat":48.0518,"lng":-122.1771,"pop":66773,"capital":false},{"name":"Fleetwood","country":"CA","lat":49.1667,"lng":-122.8,"pop":65565,"capital":false},{"name":"Guildford","country":"CA","lat":49.1917,"lng":-122.8,"pop":64985,"capital":false},{"name":"Brighouse-City Centre","country":"CA","lat":49.1667,"lng":-123.1333,"pop":62855,"capital":false},{"name":"Downtown Vancouver","country":"CA","lat":49.2828,"lng":-123.1193,"pop":62030,"capital":false},{"name":"Springfield","country":"US","lat":44.0462,"lng":-123.022,"pop":60870,"capital":false},{"name":"North Delta","country":"CA","lat":49.1667,"lng":-122.9167,"pop":60769,"capital":false},{"name":"Redmond","country":"US","lat":47.674,"lng":-122.1215,"pop":60598,"capital":false},{"name":"Lakewood","country":"US","lat":47.1718,"lng":-122.5185,"pop":59829,"capital":false},{"name":"Port Coquitlam","country":"CA","lat":49.2664,"lng":-122.7693,"pop":58000,"capital":false},{"name":"Corvallis","country":"US","lat":44.5646,"lng":-123.262,"pop":55780,"capital":false},{"name":"Olympia","country":"US","lat":47.0449,"lng":-122.9017,"pop":55733,"capital":false},{"name":"Shoreline","country":"US","lat":47.7557,"lng":-122.3415,"pop":55439,"capital":false},{"name":"South Hill","country":"US","lat":47.1412,"lng":-122.2701,"pop":52431,"capital":false},{"name":"Metrotown","country":"CA","lat":49.225,"lng":-123,"pop":52355,"capital":false},{"name":"Sammamish","country":"US","lat":47.6418,"lng":-122.0804,"pop":52253,"capital":false},{"name":"Albany","country":"US","lat":44.6365,"lng":-123.1059,"pop":52175,"capital":false},{"name":"Renfrew-Collingwood","country":"CA","lat":49.245,"lng":-123.0376,"pop":51530,"capital":false},{"name":"Tigard","country":"US","lat":45.4312,"lng":-122.7715,"pop":51253,"capital":false},{"name":"Burien","country":"US","lat":47.4704,"lng":-122.3468,"pop":50467,"capital":false},{"name":"Aloha","country":"US","lat":45.4943,"lng":-122.867,"pop":49425,"capital":false},{"name":"Kensington-Cedar Cottage","country":"CA","lat":49.25,"lng":-123.0667,"pop":49235,"capital":false},{"name":"West End","country":"CA","lat":49.2833,"lng":-123.1333,"pop":47200,"capital":false},{"name":"Langford","country":"CA","lat":48.4496,"lng":-123.5026,"pop":46584,"capital":false},{"name":"Lacey","country":"US","lat":47.0343,"lng":-122.8232,"pop":46409,"capital":false},{"name":"Victoria-Downtown","country":"CA","lat":48.4277,"lng":-123.361,"pop":46309,"capital":false},{"name":"City of Sammamish","country":"US","lat":47.6044,"lng":-122.0377,"pop":45780,"capital":false},{"name":"West Vancouver","country":"CA","lat":49.3286,"lng":-123.1602,"pop":45487,"capital":false},{"name":"Kitsilano","country":"CA","lat":49.2667,"lng":-123.1667,"pop":43045,"capital":false},{"name":"Bothell","country":"US","lat":47.7623,"lng":-122.2054,"pop":42939,"capital":false},{"name":"Mission","country":"CA","lat":49.133,"lng":-122.3026,"pop":41519,"capital":false},{"name":"Edmonds","country":"US","lat":47.8107,"lng":-122.3774,"pop":41375,"capital":false},{"name":"Strawberry Hill","country":"CA","lat":49.1333,"lng":-122.8833,"pop":41000,"capital":false},{"name":"Puyallup","country":"US","lat":47.1854,"lng":-122.2929,"pop":39659,"capital":false},{"name":"Bremerton","country":"US","lat":47.5673,"lng":-122.6326,"pop":39520,"capital":false},{"name":"Lake Oswego","country":"US","lat":45.4207,"lng":-122.6706,"pop":38496,"capital":false},{"name":"Keizer","country":"US","lat":44.9901,"lng":-123.0262,"pop":37895,"capital":false},{"name":"Grants Pass","country":"US","lat":42.4393,"lng":-123.3307,"pop":37088,"capital":false},{"name":"Lynnwood","country":"US","lat":47.8209,"lng":-122.3151,"pop":36997,"capital":false},{"name":"Longview","country":"US","lat":46.1382,"lng":-122.9382,"pop":36848,"capital":false},{"name":"Sunset","country":"CA","lat":49.221,"lng":-123.0955,"pop":36500,"capital":false},{"name":"Issaquah","country":"US","lat":47.5301,"lng":-122.0326,"pop":36081,"capital":false},{"name":"Oregon City","country":"US","lat":45.3573,"lng":-122.6068,"pop":35831,"capital":false},{"name":"Parkland","country":"US","lat":47.1554,"lng":-122.434,"pop":35803,"capital":false},{"name":"Hastings-Sunrise","country":"CA","lat":49.2833,"lng":-123.0333,"pop":34575,"capital":false},{"name":"Mount Vernon","country":"US","lat":48.4212,"lng":-122.334,"pop":34053,"capital":false},{"name":"West Lake Sammamish","country":"US","lat":47.5776,"lng":-122.1012,"pop":33929,"capital":false},{"name":"McMinnville","country":"US","lat":45.2101,"lng":-123.1987,"pop":33892,"capital":false},{"name":"Wenatchee","country":"US","lat":47.4235,"lng":-120.3103,"pop":33636,"capital":false},{"name":"Fairview","country":"CA","lat":49.2631,"lng":-123.1321,"pop":33620,"capital":false},{"name":"Surrey City Centre","country":"CA","lat":49.1854,"lng":-122.8466,"pop":33520,"capital":false},{"name":"Mount Pleasant","country":"CA","lat":49.2667,"lng":-123.1,"pop":33000,"capital":false},{"name":"Mt Pleasant","country":"CA","lat":49.2624,"lng":-123.1002,"pop":32955,"capital":false},{"name":"University Place","country":"US","lat":47.2357,"lng":-122.5504,"pop":32842,"capital":false},{"name":"Chilliwack-Downtown","country":"CA","lat":49.1643,"lng":-121.9591,"pop":31410,"capital":false},{"name":"Willoughby","country":"CA","lat":49.1262,"lng":-122.6799,"pop":31305,"capital":false},{"name":"Des Moines","country":"US","lat":47.4018,"lng":-122.3243,"pop":31221,"capital":false},{"name":"Victoria-Fraserview","country":"CA","lat":49.2167,"lng":-123.0667,"pop":31065,"capital":false},{"name":"Lake Stevens","country":"US","lat":48.0151,"lng":-122.0637,"pop":30886,"capital":false},{"name":"East Hill-Meridian","country":"US","lat":47.4105,"lng":-122.1737,"pop":29878,"capital":false},{"name":"North Cowichan","country":"CA","lat":48.8413,"lng":-123.686,"pop":29676,"capital":false},{"name":"Killarney","country":"CA","lat":49.2259,"lng":-123.0428,"pop":29325,"capital":false},{"name":"Grandview-Woodlands","country":"CA","lat":49.2774,"lng":-123.0708,"pop":29175,"capital":false},{"name":"Redmond","country":"US","lat":44.2726,"lng":-121.1739,"pop":28654,"capital":false},{"name":"Courtenay","country":"CA","lat":49.6866,"lng":-124.9936,"pop":28420,"capital":false},{"name":"SeaTac","country":"US","lat":47.4485,"lng":-122.2922,"pop":28215,"capital":false},{"name":"Marpole","country":"CA","lat":49.2136,"lng":-123.1298,"pop":27843,"capital":false},{"name":"Port Moody","country":"CA","lat":49.2812,"lng":-122.8246,"pop":27512,"capital":false},{"name":"Spanaway","country":"US","lat":47.104,"lng":-122.4346,"pop":27227,"capital":false},{"name":"Tualatin","country":"US","lat":45.384,"lng":-122.764,"pop":27154,"capital":false},{"name":"Eureka","country":"US","lat":40.8021,"lng":-124.1637,"pop":27017,"capital":false},{"name":"West Linn","country":"US","lat":45.3657,"lng":-122.6123,"pop":26593,"capital":false},{"name":"North Creek","country":"US","lat":47.8195,"lng":-122.1762,"pop":26410,"capital":false},{"name":"Maple Valley","country":"US","lat":47.3927,"lng":-122.0464,"pop":25686,"capital":false},{"name":"Walnut Grove","country":"CA","lat":49.1647,"lng":-122.6404,"pop":25683,"capital":false},{"name":"Coquitlam West","country":"CA","lat":49.257,"lng":-122.8788,"pop":25656,"capital":false},{"name":"Steveston","country":"CA","lat":49.1271,"lng":-123.1814,"pop":25220,"capital":false},{"name":"Woodburn","country":"US","lat":45.1437,"lng":-122.8554,"pop":25173,"capital":false},{"name":"Mercer Island","country":"US","lat":47.5707,"lng":-122.2221,"pop":25042,"capital":false},{"name":"Fraser Heights","country":"CA","lat":49.2,"lng":-122.7833,"pop":25000,"capital":false},{"name":"South Granville","country":"CA","lat":49.2602,"lng":-123.1395,"pop":24820,"capital":false},{"name":"Forest Grove","country":"US","lat":45.5198,"lng":-123.1107,"pop":24457,"capital":false},{"name":"Coquitlam Town Centre","country":"CA","lat":49.277,"lng":-122.7967,"pop":24282,"capital":false},{"name":"Chinatown","country":"CA","lat":49.28,"lng":-123.1056,"pop":24000,"capital":false},{"name":"Bainbridge Island","country":"US","lat":47.6262,"lng":-122.5212,"pop":23840,"capital":false},{"name":"Squamish","country":"CA","lat":49.6993,"lng":-123.1563,"pop":23819,"capital":false},{"name":"White Rock","country":"CA","lat":49.0205,"lng":-122.7951,"pop":23670,"capital":false},{"name":"Graham","country":"US","lat":47.0529,"lng":-122.2943,"pop":23491,"capital":false},{"name":"Broadmoor","country":"CA","lat":49.15,"lng":-123.1333,"pop":23050,"capital":false},{"name":"Ladner","country":"CA","lat":49.0894,"lng":-123.0824,"pop":23016,"capital":false},{"name":"Picnic Point-North Lynnwood","country":"US","lat":47.8628,"lng":-122.295,"pop":22953,"capital":false},{"name":"Cariboo","country":"CA","lat":49.25,"lng":-122.8833,"pop":22780,"capital":false},{"name":"Newberg","country":"US","lat":45.3001,"lng":-122.9732,"pop":22780,"capital":false},{"name":"Wilsonville","country":"US","lat":45.2998,"lng":-122.7737,"pop":22729,"capital":false},{"name":"Inglewood-Finn Hill","country":"US","lat":47.7205,"lng":-122.2317,"pop":22707,"capital":false},{"name":"Oak Harbor","country":"US","lat":48.2932,"lng":-122.6432,"pop":22693,"capital":false},{"name":"Vedder Crossing","country":"CA","lat":49.1,"lng":-121.9667,"pop":22620,"capital":false},{"name":"Riley Park","country":"CA","lat":49.243,"lng":-123.0932,"pop":22555,"capital":false},{"name":"Cottage Lake","country":"US","lat":47.7443,"lng":-122.0773,"pop":22494,"capital":false},{"name":"Edmonds","country":"CA","lat":49.2139,"lng":-122.9399,"pop":22318,"capital":false},{"name":"Duncan","country":"CA","lat":48.7829,"lng":-123.7027,"pop":22199,"capital":false},{"name":"Roseburg","country":"US","lat":43.2165,"lng":-123.3417,"pop":22114,"capital":false},{"name":"Kenmore","country":"US","lat":47.7573,"lng":-122.244,"pop":22030,"capital":false},{"name":"Camas","country":"US","lat":45.5871,"lng":-122.3995,"pop":21846,"capital":false},{"name":"Tsawwassen","country":"CA","lat":49.0167,"lng":-123.0833,"pop":21588,"capital":false},{"name":"Klamath Falls","country":"US","lat":42.2249,"lng":-121.7817,"pop":21399,"capital":false},{"name":"Gordon Head","country":"CA","lat":48.4833,"lng":-123.3167,"pop":21270,"capital":false},{"name":"Dunbar-Southlands","country":"CA","lat":49.2422,"lng":-123.1884,"pop":21245,"capital":false},{"name":"Mukilteo","country":"US","lat":47.9445,"lng":-122.3046,"pop":21226,"capital":false},{"name":"Townline","country":"CA","lat":49.0621,"lng":-122.3601,"pop":21095,"capital":false},{"name":"West Lake Stevens","country":"US","lat":47.9934,"lng":-122.1018,"pop":21047,"capital":false},{"name":"Haney","country":"CA","lat":49.2167,"lng":-122.6,"pop":21041,"capital":false},{"name":"Mountlake Terrace","country":"US","lat":47.7882,"lng":-122.3087,"pop":20989,"capital":false},{"name":"Silver Firs","country":"US","lat":47.866,"lng":-122.1551,"pop":20891,"capital":false},{"name":"Ashland","country":"US","lat":42.1946,"lng":-122.7095,"pop":20861,"capital":false},{"name":"Milwaukie","country":"US","lat":45.4462,"lng":-122.6393,"pop":20830,"capital":false},{"name":"Port Alberni","country":"CA","lat":49.2413,"lng":-124.8028,"pop":20712,"capital":false},{"name":"Bethany","country":"US","lat":45.5579,"lng":-122.8676,"pop":20646,"capital":false},{"name":"Renfrew Heights","country":"CA","lat":49.2545,"lng":-123.0316,"pop":20570,"capital":false},{"name":"Lents","country":"US","lat":45.4798,"lng":-122.5673,"pop":20156,"capital":false},{"name":"Eastmont","country":"US","lat":47.8974,"lng":-122.1815,"pop":20101,"capital":false},{"name":"Mill Creek","country":"US","lat":47.8601,"lng":-122.2043,"pop":20043,"capital":false},{"name":"Tukwila","country":"US","lat":47.474,"lng":-122.261,"pop":20018,"capital":false},{"name":"Hayesville","country":"US","lat":44.986,"lng":-122.9829,"pop":19936,"capital":false},{"name":"Bonney Lake","country":"US","lat":47.1771,"lng":-122.1865,"pop":19903,"capital":false},{"name":"Westwood Plateau","country":"CA","lat":49.3046,"lng":-122.7934,"pop":19776,"capital":false},{"name":"Lower Lonsdale","country":"CA","lat":49.3141,"lng":-123.0725,"pop":19718,"capital":false},{"name":"Salmon Creek","country":"US","lat":45.7107,"lng":-122.649,"pop":19686,"capital":false},{"name":"Maywood","country":"CA","lat":49.2222,"lng":-123.0059,"pop":19650,"capital":false},{"name":"Orchards","country":"US","lat":45.6665,"lng":-122.5609,"pop":19556,"capital":false},{"name":"Port Angeles","country":"US","lat":48.1182,"lng":-123.4307,"pop":19448,"capital":false},{"name":"Hazel Dell","country":"US","lat":45.6715,"lng":-122.6629,"pop":19435,"capital":false},{"name":"Battle Ground","country":"US","lat":45.781,"lng":-122.5334,"pop":19407,"capital":false},{"name":"Sherwood","country":"US","lat":45.3565,"lng":-122.8401,"pop":19283,"capital":false},{"name":"Altamont","country":"US","lat":42.2068,"lng":-121.7372,"pop":19257,"capital":false},{"name":"Silverdale","country":"US","lat":47.6445,"lng":-122.6949,"pop":19204,"capital":false},{"name":"Covington","country":"US","lat":47.3582,"lng":-122.1222,"pop":19197,"capital":false},{"name":"Tumwater","country":"US","lat":47.0073,"lng":-122.9093,"pop":19190,"capital":false},{"name":"Fairwood","country":"US","lat":47.4484,"lng":-122.1573,"pop":19102,"capital":false},{"name":"Ellensburg","country":"US","lat":46.9965,"lng":-120.5478,"pop":19001,"capital":false},{"name":"Columbia City","country":"US","lat":47.564,"lng":-122.2754,"pop":19000,"capital":false},{"name":"Arlington","country":"US","lat":48.1987,"lng":-122.1251,"pop":18949,"capital":false},{"name":"Union Hill-Novelty Hill","country":"US","lat":47.6789,"lng":-122.0283,"pop":18805,"capital":false},{"name":"Frederickson","country":"US","lat":47.0962,"lng":-122.3587,"pop":18719,"capital":false},{"name":"Pitt Meadows","country":"CA","lat":49.2212,"lng":-122.6896,"pop":18573,"capital":false},{"name":"Happy Valley","country":"US","lat":45.4468,"lng":-122.5304,"pop":18493,"capital":false},{"name":"Central Lonsdale","country":"CA","lat":49.3257,"lng":-123.0723,"pop":18485,"capital":false},{"name":"Downtown Eastside","country":"CA","lat":49.2818,"lng":-123.0935,"pop":18477,"capital":false},{"name":"Carey","country":"CA","lat":48.4721,"lng":-123.3948,"pop":18405,"capital":false},{"name":"Five Corners","country":"US","lat":45.6846,"lng":-122.5751,"pop":18159,"capital":false},{"name":"Anacortes","country":"US","lat":48.5126,"lng":-122.6127,"pop":18103,"capital":false},{"name":"Monroe","country":"US","lat":47.8554,"lng":-121.971,"pop":18090,"capital":false},{"name":"Blundell","country":"CA","lat":49.1553,"lng":-123.1571,"pop":18065,"capital":false},{"name":"Oak Bay","country":"CA","lat":48.4496,"lng":-123.3026,"pop":18015,"capital":false},{"name":"Central Point","country":"US","lat":42.376,"lng":-122.9164,"pop":17995,"capital":false},{"name":"Arcata","country":"US","lat":40.8665,"lng":-124.0828,"pop":17843,"capital":false},{"name":"Esquimalt","country":"CA","lat":48.4357,"lng":-123.4117,"pop":17655,"capital":false},{"name":"Central Saanich","country":"CA","lat":48.5663,"lng":-123.4193,"pop":17385,"capital":false},{"name":"Canby","country":"US","lat":45.2629,"lng":-122.6926,"pop":17271,"capital":false},{"name":"Bayside","country":"US","lat":40.8424,"lng":-124.0637,"pop":17132,"capital":false},{"name":"University Endowment Lands","country":"CA","lat":49.2642,"lng":-123.239,"pop":16920,"capital":false},{"name":"Colwood","country":"CA","lat":48.4329,"lng":-123.4859,"pop":16859,"capital":false},{"name":"Centralia","country":"US","lat":46.7162,"lng":-122.9543,"pop":16753,"capital":false},{"name":"Troutdale","country":"US","lat":45.5393,"lng":-122.3873,"pop":16631,"capital":false},{"name":"Oak Grove","country":"US","lat":45.4168,"lng":-122.6401,"pop":16629,"capital":false},{"name":"Bothell West","country":"US","lat":47.8053,"lng":-122.2406,"pop":16607,"capital":false},{"name":"Sunnyside","country":"US","lat":46.3237,"lng":-120.0086,"pop":16325,"capital":false},{"name":"Lebanon","country":"US","lat":44.5365,"lng":-122.907,"pop":16324,"capital":false},{"name":"Aberdeen","country":"US","lat":46.9754,"lng":-123.8157,"pop":16276,"capital":false},{"name":"Coos Bay","country":"US","lat":43.3665,"lng":-124.2179,"pop":16182,"capital":false},{"name":"Seafair","country":"CA","lat":49.15,"lng":-123.1833,"pop":16070,"capital":false},{"name":"Four Corners","country":"US","lat":44.9279,"lng":-122.9837,"pop":15947,"capital":false},{"name":"Maillardville","country":"CA","lat":49.2384,"lng":-122.8668,"pop":15837,"capital":false},{"name":"Mill Creek East","country":"US","lat":47.836,"lng":-122.1877,"pop":15709,"capital":false},{"name":"Bryn Mawr-Skyway","country":"US","lat":47.4943,"lng":-122.2409,"pop":15645,"capital":false},{"name":"Central Coquitlam","country":"CA","lat":49.2603,"lng":-122.8381,"pop":15480,"capital":false},{"name":"Martha Lake","country":"US","lat":47.8509,"lng":-122.2393,"pop":15473,"capital":false},{"name":"The Dalles","country":"US","lat":45.5946,"lng":-121.1787,"pop":15340,"capital":false},{"name":"Lougheed","country":"CA","lat":49.2481,"lng":-122.8924,"pop":15300,"capital":false},{"name":"Arbutus Ridge","country":"CA","lat":49.2497,"lng":-123.1693,"pop":15295,"capital":false},{"name":"Washougal","country":"US","lat":45.5826,"lng":-122.3534,"pop":15288,"capital":false},{"name":"Dallas","country":"US","lat":44.9193,"lng":-123.317,"pop":15277,"capital":false},{"name":"Susanville","country":"US","lat":40.4163,"lng":-120.653,"pop":15247,"capital":false},{"name":"McKinleyville","country":"US","lat":40.9465,"lng":-124.1006,"pop":15177,"capital":false},{"name":"Sooke","country":"CA","lat":48.3746,"lng":-123.7276,"pop":15086,"capital":false},{"name":"East Clayton","country":"CA","lat":49.1249,"lng":-122.7017,"pop":15000,"capital":false},{"name":"Thompson","country":"CA","lat":49.1667,"lng":-123.1667,"pop":14955,"capital":false},{"name":"Burquitlam","country":"CA","lat":49.2667,"lng":-122.8833,"pop":14896,"capital":false},{"name":"Comox","country":"CA","lat":49.6829,"lng":-124.9361,"pop":14806,"capital":false},{"name":"Yaletown","country":"CA","lat":49.2761,"lng":-123.1177,"pop":14583,"capital":false},{"name":"Cedar Mill","country":"US","lat":45.5248,"lng":-122.8109,"pop":14546,"capital":false},{"name":"English Bay","country":"CA","lat":49.2846,"lng":-123.1425,"pop":14225,"capital":false},{"name":"Elk Plain","country":"US","lat":47.0532,"lng":-122.3976,"pop":14205,"capital":false},{"name":"Camano","country":"US","lat":48.174,"lng":-122.5282,"pop":14202,"capital":false},{"name":"Marlborough","country":"CA","lat":49.2295,"lng":-122.9899,"pop":14169,"capital":false},{"name":"Red Bluff","country":"US","lat":40.1785,"lng":-122.2358,"pop":14131,"capital":false},{"name":"Kerrisdale","country":"CA","lat":49.2344,"lng":-123.1551,"pop":13975,"capital":false},{"name":"Davie Village","country":"CA","lat":49.2805,"lng":-123.1312,"pop":13768,"capital":false},{"name":"East Wenatchee","country":"US","lat":47.4157,"lng":-120.2931,"pop":13659,"capital":false},{"name":"Port Orchard","country":"US","lat":47.5404,"lng":-122.6362,"pop":13607,"capital":false},{"name":"Lynden","country":"US","lat":48.9465,"lng":-122.4521,"pop":13517,"capital":false},{"name":"White Center","country":"US","lat":47.5173,"lng":-122.3548,"pop":13495,"capital":false},{"name":"Oatfield","country":"US","lat":45.4142,"lng":-122.6001,"pop":13415,"capital":false},{"name":"Brookswood","country":"CA","lat":49.0667,"lng":-122.6667,"pop":13336,"capital":false},{"name":"Lake Forest Park","country":"US","lat":47.7568,"lng":-122.281,"pop":13243,"capital":false},{"name":"Lea Hill","country":"US","lat":47.3262,"lng":-122.1815,"pop":13182,"capital":false},{"name":"Snoqualmie","country":"US","lat":47.5287,"lng":-121.8254,"pop":13169,"capital":false},{"name":"Powell River","country":"CA","lat":49.8328,"lng":-124.5237,"pop":13157,"capital":false},{"name":"West Clayton","country":"CA","lat":49.1291,"lng":-122.7157,"pop":13102,"capital":false},{"name":"West Point Grey","country":"CA","lat":49.2667,"lng":-123.2,"pop":13065,"capital":false},{"name":"Kingsgate","country":"US","lat":47.727,"lng":-122.1796,"pop":13065,"capital":false},{"name":"James Bay","country":"CA","lat":48.4167,"lng":-123.3833,"pop":13055,"capital":false},{"name":"Oakridge","country":"CA","lat":49.2333,"lng":-123.1167,"pop":13030,"capital":false},{"name":"Ferndale","country":"US","lat":48.8465,"lng":-122.591,"pop":13010,"capital":false},{"name":"Lakeland North","country":"US","lat":47.3334,"lng":-122.2769,"pop":12942,"capital":false},{"name":"Saint Helens","country":"US","lat":45.864,"lng":-122.8065,"pop":12883,"capital":false},{"name":"South Slope","country":"CA","lat":49.2167,"lng":-123,"pop":12782,"capital":false},{"name":"Hammond","country":"CA","lat":49.2193,"lng":-122.6533,"pop":12709,"capital":false},{"name":"Cape Horn","country":"CA","lat":49.2268,"lng":-122.8369,"pop":12680,"capital":false},{"name":"West Valley","country":"US","lat":46.5921,"lng":-120.6051,"pop":12655,"capital":false},{"name":"Artondale","country":"US","lat":47.2995,"lng":-122.6207,"pop":12653,"capital":false},{"name":"Strathcona","country":"CA","lat":49.2766,"lng":-123.0912,"pop":12585,"capital":false},{"name":"Shelbourne","country":"CA","lat":48.453,"lng":-123.329,"pop":12525,"capital":false},{"name":"Willingdon Heights","country":"CA","lat":49.275,"lng":-123.0083,"pop":12443,"capital":false},{"name":"Albion","country":"CA","lat":49.1875,"lng":-122.5569,"pop":12424,"capital":false},{"name":"Greenwood","country":"US","lat":47.6943,"lng":-122.3549,"pop":12378,"capital":false},{"name":"Aldergrove","country":"CA","lat":49.058,"lng":-122.4709,"pop":12363,"capital":false},{"name":"Agate Beach","country":"US","lat":44.6773,"lng":-124.0618,"pop":12351,"capital":false},{"name":"Sidney","country":"CA","lat":48.6496,"lng":-123.4026,"pop":12318,"capital":false},{"name":"Cornelius","country":"US","lat":45.5198,"lng":-123.0598,"pop":12317,"capital":false},{"name":"West Cambie","country":"CA","lat":49.1829,"lng":-123.1169,"pop":12255,"capital":false},{"name":"Burke Mountain","country":"CA","lat":49.2936,"lng":-122.7561,"pop":12100,"capital":false},{"name":"Parksville","country":"CA","lat":49.3195,"lng":-124.3157,"pop":12000,"capital":false},{"name":"Fortuna","country":"US","lat":40.5982,"lng":-124.1573,"pop":12000,"capital":false},{"name":"Ambleside","country":"CA","lat":49.3278,"lng":-123.1437,"pop":11998,"capital":false},{"name":"Gladstone","country":"US","lat":45.3807,"lng":-122.5948,"pop":11986,"capital":false},{"name":"Champlain Heights","country":"CA","lat":49.2092,"lng":-123.026,"pop":11958,"capital":false},{"name":"Kelso","country":"US","lat":46.1468,"lng":-122.9084,"pop":11901,"capital":false},{"name":"Cameron","country":"CA","lat":49.2562,"lng":-122.9067,"pop":11844,"capital":false},{"name":"Promontory","country":"CA","lat":49.1035,"lng":-121.9352,"pop":11820,"capital":false},{"name":"Woodinville","country":"US","lat":47.7543,"lng":-122.1635,"pop":11782,"capital":false},{"name":"Clayburn","country":"CA","lat":49.0691,"lng":-122.2618,"pop":11755,"capital":false},{"name":"Fairfield","country":"CA","lat":48.4167,"lng":-123.35,"pop":11740,"capital":false},{"name":"Enumclaw","country":"US","lat":47.2043,"lng":-121.9915,"pop":11609,"capital":false},{"name":"View Royal","country":"CA","lat":48.4579,"lng":-123.4526,"pop":11575,"capital":false},{"name":"Lakeland South","country":"US","lat":47.2784,"lng":-122.2833,"pop":11574,"capital":false},{"name":"Prairie Ridge","country":"US","lat":47.1376,"lng":-122.1487,"pop":11464,"capital":false},{"name":"Glenwood","country":"CA","lat":49.2734,"lng":-122.78,"pop":11437,"capital":false},{"name":"Murrayville","country":"CA","lat":49.0833,"lng":-122.6167,"pop":11420,"capital":false},{"name":"Shellmont","country":"CA","lat":49.1348,"lng":-123.0963,"pop":11420,"capital":false},{"name":"Surrey Centre","country":"CA","lat":49.1167,"lng":-122.75,"pop":11370,"capital":false},{"name":"Newcastle","country":"US","lat":47.539,"lng":-122.1557,"pop":11370,"capital":false},{"name":"Oak Hills","country":"US","lat":45.5412,"lng":-122.8412,"pop":11333,"capital":false},{"name":"Fairfield","country":"CA","lat":49.0671,"lng":-122.3152,"pop":11165,"capital":false},{"name":"East Renton Highlands","country":"US","lat":47.4848,"lng":-122.1123,"pop":11140,"capital":false},{"name":"North Saanich","country":"CA","lat":48.6663,"lng":-123.4193,"pop":11089,"capital":false},{"name":"Joint Base Lewis McChord","country":"US","lat":47.1079,"lng":-122.5769,"pop":11046,"capital":false},{"name":"Eagle Ridge","country":"CA","lat":49.2878,"lng":-122.8217,"pop":11004,"capital":false},{"name":"Queensborough","country":"CA","lat":49.1833,"lng":-122.9333,"pop":11000,"capital":false},{"name":"Damascus","country":"US","lat":45.4176,"lng":-122.459,"pop":10952,"capital":false},{"name":"Maltby","country":"US","lat":47.8051,"lng":-122.1132,"pop":10830,"capital":false},{"name":"Sedro-Woolley","country":"US","lat":48.5039,"lng":-122.2361,"pop":10815,"capital":false},{"name":"East Cambie","country":"CA","lat":49.1843,"lng":-123.0927,"pop":10780,"capital":false},{"name":"Klahanie","country":"US","lat":47.571,"lng":-122.0084,"pop":10674,"capital":false},{"name":"Sandy","country":"US","lat":45.3973,"lng":-122.2615,"pop":10644,"capital":false},{"name":"Brow of the Hill","country":"CA","lat":49.2021,"lng":-122.9201,"pop":10631,"capital":false},{"name":"Vashon","country":"US","lat":47.4473,"lng":-122.4598,"pop":10624,"capital":false},{"name":"Brentwood Park","country":"CA","lat":49.275,"lng":-122.9917,"pop":10500,"capital":false},{"name":"Coal Harbour","country":"CA","lat":49.2898,"lng":-123.1232,"pop":10441,"capital":false},{"name":"Hockaday","country":"CA","lat":49.2968,"lng":-122.7703,"pop":10373,"capital":false},{"name":"Whatcom","country":"CA","lat":49.0414,"lng":-122.2399,"pop":10270,"capital":false},{"name":"Newport","country":"US","lat":44.6368,"lng":-124.0534,"pop":10268,"capital":false},{"name":"Douglas-Gilpin","country":"CA","lat":49.2444,"lng":-122.9821,"pop":10234,"capital":false},{"name":"Anderson","country":"US","lat":40.4482,"lng":-122.2978,"pop":10217,"capital":false},{"name":"Fernwood","country":"CA","lat":48.4298,"lng":-123.3442,"pop":10200,"capital":false},{"name":"Gastown","country":"CA","lat":49.2851,"lng":-123.1117,"pop":10187,"capital":false},{"name":"Lake Morton-Berrydale","country":"US","lat":47.3325,"lng":-122.1029,"pop":10160,"capital":false},{"name":"Shasta Lake","country":"US","lat":40.6804,"lng":-122.3708,"pop":10159,"capital":false},{"name":"South Clearbrook","country":"CA","lat":49.0407,"lng":-122.3279,"pop":10120,"capital":false},{"name":"Garden Village","country":"CA","lat":49.2333,"lng":-123,"pop":10087,"capital":false},{"name":"Tillicum","country":"CA","lat":48.45,"lng":-123.4,"pop":10080,"capital":false},{"name":"Marshall-McCallum","country":"CA","lat":49.0372,"lng":-122.3017,"pop":10055,"capital":false},{"name":"Poulsbo","country":"US","lat":47.7359,"lng":-122.6465,"pop":10041,"capital":false},{"name":"Monmouth","country":"US","lat":44.8485,"lng":-123.234,"pop":10032,"capital":false},{"name":"Sardis","country":"CA","lat":49.1333,"lng":-121.95,"pop":10010,"capital":false},{"name":"Fife","country":"US","lat":47.2393,"lng":-122.3571,"pop":9970,"capital":false},{"name":"Cottage Grove","country":"US","lat":43.7976,"lng":-123.0595,"pop":9969,"capital":false},{"name":"Historic Downtown","country":"CA","lat":49.0514,"lng":-122.2933,"pop":9910,"capital":false},{"name":"Sunshine Hills","country":"CA","lat":49.1167,"lng":-122.9,"pop":9900,"capital":false},{"name":"Shelton","country":"US","lat":47.2151,"lng":-123.1007,"pop":9834,"capital":false},{"name":"Edgewood","country":"US","lat":47.2501,"lng":-122.2937,"pop":9826,"capital":false},{"name":"Walnut Grove","country":"US","lat":45.6679,"lng":-122.599,"pop":9790,"capital":false},{"name":"Minnehaha","country":"US","lat":45.659,"lng":-122.6271,"pop":9771,"capital":false},{"name":"Silverton","country":"US","lat":45.0051,"lng":-122.7831,"pop":9753,"capital":false},{"name":"Sumner","country":"US","lat":47.2032,"lng":-122.2404,"pop":9700,"capital":false},{"name":"North Bend","country":"US","lat":43.4065,"lng":-124.2243,"pop":9673,"capital":false},{"name":"Snohomish","country":"US","lat":47.9129,"lng":-122.0982,"pop":9670,"capital":false},{"name":"Astoria","country":"US","lat":46.1879,"lng":-123.8312,"pop":9626,"capital":false},{"name":"Prineville","country":"US","lat":44.2999,"lng":-120.8345,"pop":9530,"capital":false},{"name":"Olympic Village","country":"CA","lat":49.27,"lng":-123.1118,"pop":9423,"capital":false},{"name":"DuPont","country":"US","lat":47.0968,"lng":-122.6312,"pop":9356,"capital":false},{"name":"Port Townsend","country":"US","lat":48.1174,"lng":-122.7607,"pop":9335,"capital":false},{"name":"Rockcreek","country":"US","lat":45.5501,"lng":-122.877,"pop":9316,"capital":false},{"name":"Qualicum Beach","country":"CA","lat":49.3478,"lng":-124.4423,"pop":9303,"capital":false},{"name":"Fairview","country":"US","lat":45.5385,"lng":-122.434,"pop":9280,"capital":false},{"name":"Uptown","country":"CA","lat":49.2121,"lng":-122.9193,"pop":9273,"capital":false},{"name":"Sweet Home","country":"US","lat":44.3976,"lng":-122.7362,"pop":9270,"capital":false},{"name":"McMillan","country":"CA","lat":49.0449,"lng":-122.2666,"pop":9250,"capital":false},{"name":"Tulalip","country":"US","lat":48.0684,"lng":-122.2918,"pop":9246,"capital":false},{"name":"Independence","country":"US","lat":44.8512,"lng":-123.1868,"pop":9227,"capital":false},{"name":"Riverwood","country":"CA","lat":49.2558,"lng":-122.7358,"pop":9008,"capital":false},{"name":"Toppenish","country":"US","lat":46.3774,"lng":-120.3087,"pop":8995,"capital":false},{"name":"Molalla","country":"US","lat":45.1473,"lng":-122.577,"pop":8972,"capital":false},{"name":"Midland","country":"US","lat":47.167,"lng":-122.4048,"pop":8962,"capital":false},{"name":"Eagle Point","country":"US","lat":42.4726,"lng":-122.8028,"pop":8902,"capital":false},{"name":"East Wenatchee Bench","country":"US","lat":47.4257,"lng":-120.2812,"pop":8856,"capital":false},{"name":"Royal Oak","country":"CA","lat":48.4833,"lng":-123.3833,"pop":8855,"capital":false},{"name":"Sechelt","country":"CA","lat":49.4751,"lng":-123.759,"pop":8832,"capital":false},{"name":"Picnic Point","country":"US","lat":47.8811,"lng":-122.3284,"pop":8809,"capital":false},{"name":"Harewood","country":"CA","lat":49.1474,"lng":-123.9474,"pop":8769,"capital":false},{"name":"Gig Harbor","country":"US","lat":47.3293,"lng":-122.5801,"pop":8753,"capital":false},{"name":"Milton","country":"US","lat":47.2482,"lng":-122.3129,"pop":8697,"capital":false},{"name":"Florence","country":"US","lat":43.9826,"lng":-124.0998,"pop":8649,"capital":false},{"name":"Burlington","country":"US","lat":48.4757,"lng":-122.3254,"pop":8633,"capital":false},{"name":"Ladysmith","country":"CA","lat":48.9902,"lng":-123.817,"pop":8537,"capital":false},{"name":"Lincoln City","country":"US","lat":44.9582,"lng":-124.0179,"pop":8536,"capital":false},{"name":"Lochdale","country":"CA","lat":49.2737,"lng":-122.9648,"pop":8535,"capital":false},{"name":"New Horizons","country":"CA","lat":49.2813,"lng":-122.7791,"pop":8495,"capital":false},{"name":"Alderwood Manor","country":"US","lat":47.808,"lng":-122.261,"pop":8442,"capital":false},{"name":"Yelm","country":"US","lat":46.942,"lng":-122.606,"pop":8434,"capital":false},{"name":"Shaughnessy","country":"CA","lat":49.25,"lng":-123.1333,"pop":8430,"capital":false},{"name":"Clinton-Glenwood","country":"CA","lat":49.2121,"lng":-122.9796,"pop":8422,"capital":false},{"name":"Birch Bay","country":"US","lat":48.9179,"lng":-122.7446,"pop":8413,"capital":false},{"name":"Hoquiam","country":"US","lat":46.9809,"lng":-123.8893,"pop":8405,"capital":false},{"name":"Victoria West","country":"CA","lat":48.4319,"lng":-123.3821,"pop":8365,"capital":false},{"name":"Cedar Hills","country":"US","lat":45.5048,"lng":-122.7984,"pop":8300,"capital":false},{"name":"Burnaby Heights","country":"CA","lat":49.2833,"lng":-123,"pop":8280,"capital":false},{"name":"Cordova Bay","country":"CA","lat":48.5167,"lng":-123.3667,"pop":8100,"capital":false},{"name":"Cedar Valley","country":"CA","lat":49.1617,"lng":-122.3105,"pop":8080,"capital":false},{"name":"Woodwards","country":"CA","lat":49.1468,"lng":-123.1549,"pop":8055,"capital":false},{"name":"Bothell East","country":"US","lat":47.8063,"lng":-122.1843,"pop":8018,"capital":false},{"name":"West Haven-Sylvan","country":"US","lat":45.5161,"lng":-122.7681,"pop":8001,"capital":false},{"name":"Summit","country":"US","lat":47.1618,"lng":-122.3571,"pop":7985,"capital":false},{"name":"White City","country":"US","lat":42.4374,"lng":-122.832,"pop":7975,"capital":false},{"name":"South Cambie","country":"CA","lat":49.25,"lng":-123.1167,"pop":7970,"capital":false},{"name":"Stayton","country":"US","lat":44.8007,"lng":-122.7945,"pop":7969,"capital":false},{"name":"Ranch Park","country":"CA","lat":49.2605,"lng":-122.8091,"pop":7925,"capital":false},{"name":"Waller","country":"US","lat":47.2007,"lng":-122.3693,"pop":7922,"capital":false},{"name":"Sutherlin","country":"US","lat":43.3901,"lng":-123.3126,"pop":7912,"capital":false},{"name":"East Newton South","country":"CA","lat":49.1294,"lng":-122.809,"pop":7881,"capital":false},{"name":"Mill Plain","country":"US","lat":45.6429,"lng":-122.494,"pop":7874,"capital":false},{"name":"Douglas","country":"CA","lat":49.1023,"lng":-122.6511,"pop":7867,"capital":false},{"name":"Hillside-Quadra","country":"CA","lat":48.4447,"lng":-123.356,"pop":7860,"capital":false},{"name":"Mount Vista","country":"US","lat":45.7343,"lng":-122.6329,"pop":7850,"capital":false},{"name":"Lake Stickney","country":"US","lat":47.8766,"lng":-122.2621,"pop":7777,"capital":false},{"name":"Selah","country":"US","lat":46.654,"lng":-120.5301,"pop":7682,"capital":false},{"name":"Duvall","country":"US","lat":47.7423,"lng":-121.9857,"pop":7674,"capital":false},{"name":"Hood River","country":"US","lat":45.7054,"lng":-121.5215,"pop":7624,"capital":false},{"name":"Yreka","country":"US","lat":41.7354,"lng":-122.6345,"pop":7597,"capital":false},{"name":"Oaklands","country":"CA","lat":48.4439,"lng":-123.3406,"pop":7585,"capital":false},{"name":"Brentwood Bay","country":"CA","lat":48.5829,"lng":-123.4526,"pop":7581,"capital":false},{"name":"Canyon Springs","country":"CA","lat":49.2915,"lng":-122.7954,"pop":7528,"capital":false},{"name":"Green","country":"US","lat":43.1604,"lng":-123.3678,"pop":7515,"capital":false},{"name":"South Arm","country":"CA","lat":49.1403,"lng":-123.1248,"pop":7503,"capital":false},{"name":"Cascade Heights","country":"CA","lat":49.25,"lng":-123.0167,"pop":7449,"capital":false},{"name":"Orting","country":"US","lat":47.0979,"lng":-122.2043,"pop":7446,"capital":false},{"name":"College Park","country":"CA","lat":49.282,"lng":-122.8786,"pop":7396,"capital":false},{"name":"Chehalis","country":"US","lat":46.6621,"lng":-122.964,"pop":7391,"capital":false},{"name":"Felida","country":"US","lat":45.7096,"lng":-122.7073,"pop":7385,"capital":false},{"name":"Kingsway-Beresford","country":"CA","lat":49.2248,"lng":-122.964,"pop":7376,"capital":false},{"name":"East Newton North","country":"CA","lat":49.1435,"lng":-122.8139,"pop":7336,"capital":false},{"name":"Jennings Lodge","country":"US","lat":45.3912,"lng":-122.6126,"pop":7315,"capital":false},{"name":"Summit View","country":"US","lat":47.1363,"lng":-122.352,"pop":7236,"capital":false},{"name":"Inlet Centre","country":"CA","lat":49.2761,"lng":-122.8454,"pop":7232,"capital":false},{"name":"Mill Bay","country":"CA","lat":48.65,"lng":-123.55,"pop":7200,"capital":false},{"name":"Marpole South","country":"CA","lat":49.2061,"lng":-123.1318,"pop":7150,"capital":false},{"name":"Parkwood","country":"US","lat":47.5332,"lng":-122.6101,"pop":7126,"capital":false},{"name":"Pacific","country":"US","lat":47.2646,"lng":-122.2501,"pop":7123,"capital":false},{"name":"Yennadon","country":"CA","lat":49.233,"lng":-122.5859,"pop":7116,"capital":false},{"name":"Kenton","country":"US","lat":45.5818,"lng":-122.6815,"pop":7000,"capital":false},{"name":"North Portland","country":"US","lat":45.6104,"lng":-122.7034,"pop":7000,"capital":false},{"name":"Scappoose","country":"US","lat":45.7543,"lng":-122.8776,"pop":6954,"capital":false},{"name":"Terrace Heights","country":"US","lat":46.6062,"lng":-120.4398,"pop":6937,"capital":false},{"name":"Burnside-Gorge","country":"CA","lat":48.4434,"lng":-123.376,"pop":6875,"capital":false},{"name":"Sequim","country":"US","lat":48.0796,"lng":-123.1023,"pop":6826,"capital":false},{"name":"Gibsons","country":"CA","lat":49.3954,"lng":-123.5055,"pop":6821,"capital":false},{"name":"Stanwood","country":"US","lat":48.2412,"lng":-122.3707,"pop":6779,"capital":false},{"name":"Crescent City","country":"US","lat":41.756,"lng":-124.2017,"pop":6774,"capital":false},{"name":"Clackamas","country":"US","lat":45.4076,"lng":-122.5704,"pop":6767,"capital":false},{"name":"Fircrest","country":"US","lat":47.2395,"lng":-122.516,"pop":6687,"capital":false},{"name":"Hope","country":"CA","lat":49.383,"lng":-121.4414,"pop":6686,"capital":false},{"name":"North Bend","country":"US","lat":47.4957,"lng":-121.7868,"pop":6679,"capital":false},{"name":"Garden Home-Whitford","country":"US","lat":45.464,"lng":-122.7589,"pop":6674,"capital":false},{"name":"Normandy Park","country":"US","lat":47.4362,"lng":-122.3407,"pop":6668,"capital":false},{"name":"Madras","country":"US","lat":44.6335,"lng":-121.1295,"pop":6662,"capital":false},{"name":"Brier","country":"US","lat":47.7845,"lng":-122.2743,"pop":6656,"capital":false},{"name":"Wollochet","country":"US","lat":47.2687,"lng":-122.584,"pop":6651,"capital":false},{"name":"Port Haney","country":"CA","lat":49.2123,"lng":-122.6047,"pop":6630,"capital":false},{"name":"Lake Shore","country":"US","lat":45.6907,"lng":-122.6909,"pop":6571,"capital":false},{"name":"West Slope","country":"US","lat":45.4987,"lng":-122.7645,"pop":6554,"capital":false},{"name":"Departure Bay","country":"CA","lat":49.2021,"lng":-123.9762,"pop":6540,"capital":false},{"name":"Nanoose Bay","country":"CA","lat":49.2724,"lng":-124.1933,"pop":6540,"capital":false},{"name":"Seaside","country":"US","lat":45.9932,"lng":-123.9226,"pop":6540,"capital":false},{"name":"Punjabi Market","country":"CA","lat":49.233,"lng":-123.1016,"pop":6510,"capital":false},{"name":"Brookings","country":"US","lat":42.0526,"lng":-124.284,"pop":6476,"capital":false},{"name":"Ridgefield","country":"US","lat":45.8151,"lng":-122.7426,"pop":6455,"capital":false},{"name":"Sudden Valley","country":"US","lat":48.7229,"lng":-122.3465,"pop":6441,"capital":false},{"name":"Talent","country":"US","lat":42.2457,"lng":-122.7886,"pop":6411,"capital":false},{"name":"Riverton","country":"US","lat":47.4843,"lng":-122.2946,"pop":6407,"capital":false},{"name":"Capitol Hill","country":"CA","lat":49.2833,"lng":-122.9833,"pop":6330,"capital":false},{"name":"Sapperton","country":"CA","lat":49.2264,"lng":-122.8945,"pop":6327,"capital":false},{"name":"Agassiz","country":"CA","lat":49.233,"lng":-121.7693,"pop":6300,"capital":false},{"name":"Ironwood","country":"CA","lat":49.1261,"lng":-123.0951,"pop":6236,"capital":false},{"name":"Hobart","country":"US","lat":47.4218,"lng":-121.9729,"pop":6221,"capital":false},{"name":"Steilacoom","country":"US","lat":47.1698,"lng":-122.6026,"pop":6211,"capital":false},{"name":"Oxford Heights","country":"CA","lat":49.2811,"lng":-122.7601,"pop":6156,"capital":false},{"name":"Sheridan","country":"US","lat":45.0993,"lng":-123.3948,"pop":6094,"capital":false},{"name":"Bangor Trident Base","country":"US","lat":47.7227,"lng":-122.7145,"pop":6054,"capital":false},{"name":"Union Gap","country":"US","lat":46.5574,"lng":-120.4751,"pop":6037,"capital":false},{"name":"Stride Hill","country":"CA","lat":49.2096,"lng":-122.9638,"pop":6019,"capital":false},{"name":"West Haven","country":"US","lat":45.5176,"lng":-122.7695,"pop":6009,"capital":false},{"name":"Ganges","country":"CA","lat":48.8534,"lng":-123.5003,"pop":6000,"capital":false},{"name":"Cedar Cove","country":"CA","lat":49.2865,"lng":-123.0608,"pop":6000,"capital":false},{"name":"East Port Orchard","country":"US","lat":47.5234,"lng":-122.6243,"pop":5919,"capital":false},{"name":"Roseburg North","country":"US","lat":43.269,"lng":-123.351,"pop":5912,"capital":false},{"name":"Raleigh Hills","country":"US","lat":45.4807,"lng":-122.762,"pop":5896,"capital":false},{"name":"Tanglewilde-Thompson Place","country":"US","lat":47.0512,"lng":-122.7808,"pop":5892,"capital":false},{"name":"Tanglewilde","country":"US","lat":47.0515,"lng":-122.7824,"pop":5892,"capital":false},{"name":"Garden City","country":"CA","lat":49.1671,"lng":-123.1218,"pop":5885,"capital":false},{"name":"Junction City","country":"US","lat":44.2193,"lng":-123.2056,"pop":5842,"capital":false},{"name":"Woodland","country":"US","lat":45.9046,"lng":-122.744,"pop":5842,"capital":false},{"name":"Rosedale","country":"CA","lat":49.1833,"lng":-121.8,"pop":5700,"capital":false},{"name":"Ocean Shores","country":"US","lat":46.9737,"lng":-124.1563,"pop":5699,"capital":false},{"name":"Quilchena","country":"CA","lat":49.2434,"lng":-123.1508,"pop":5692,"capital":false},{"name":"Second Street","country":"CA","lat":49.2237,"lng":-122.922,"pop":5666,"capital":false},{"name":"Barberton","country":"US","lat":45.6932,"lng":-122.599,"pop":5661,"capital":false},{"name":"Woods Creek","country":"US","lat":47.8787,"lng":-121.8985,"pop":5589,"capital":false},{"name":"West Side Highway","country":"US","lat":46.184,"lng":-122.9171,"pop":5517,"capital":false},{"name":"Hamilton","country":"CA","lat":49.174,"lng":-122.9743,"pop":5505,"capital":false},{"name":"Highway 11","country":"CA","lat":49.0358,"lng":-122.2836,"pop":5500,"capital":false},{"name":"Saanich Core","country":"CA","lat":48.4548,"lng":-123.3745,"pop":5470,"capital":false},{"name":"Terra Nova","country":"CA","lat":49.1697,"lng":-123.189,"pop":5447,"capital":false},{"name":"Manchester","country":"US","lat":47.5557,"lng":-122.5451,"pop":5413,"capital":false},{"name":"Winston","country":"US","lat":43.1223,"lng":-123.4126,"pop":5393,"capital":false},{"name":"Lyndhurst","country":"CA","lat":49.2654,"lng":-122.8992,"pop":5370,"capital":false},{"name":"Dundarave","country":"CA","lat":49.3362,"lng":-123.1876,"pop":5350,"capital":false},{"name":"Jubilee","country":"CA","lat":48.4303,"lng":-123.3283,"pop":5290,"capital":false},{"name":"Boulevard Park","country":"US","lat":47.513,"lng":-122.317,"pop":5287,"capital":false},{"name":"Warrenton","country":"US","lat":46.1651,"lng":-123.9238,"pop":5282,"capital":false},{"name":"Tracyton","country":"US","lat":47.609,"lng":-122.6551,"pop":5233,"capital":false},{"name":"Creswell","country":"US","lat":43.9179,"lng":-123.0245,"pop":5199,"capital":false},{"name":"Maplewood","country":"US","lat":47.4018,"lng":-122.5571,"pop":5138,"capital":false},{"name":"Bridgeview","country":"CA","lat":49.2081,"lng":-122.8603,"pop":5082,"capital":false},{"name":"Deschutes River Woods","country":"US","lat":43.9915,"lng":-121.3584,"pop":5077,"capital":false},{"name":"Wapato","country":"US","lat":46.4476,"lng":-120.4203,"pop":5068,"capital":false},{"name":"Metchosin","country":"CA","lat":48.3829,"lng":-123.5359,"pop":5067,"capital":false},{"name":"Blaine","country":"US","lat":48.9937,"lng":-122.7471,"pop":5056,"capital":false},{"name":"Rural Saanich","country":"CA","lat":48.4973,"lng":-123.4288,"pop":5025,"capital":false}]