[{"name":"San Angelo","country":"US","lat":31.4638,"lng":-100.437,"pop":99893,"capital":false},{"name":"Highlands Ranch","country":"US","lat":39.5539,"lng":-104.9694,"pop":96713,"capital":false},{"name":"Rio Rancho","country":"US","lat":35.2334,"lng":-106.6645,"pop":87521,"capital":false},{"name":"Enchanted Hills","country":"US","lat":35.3368,"lng":-106.593,"pop":87521,"capital":false},{"name":"Santa Fe","country":"US","lat":35.687,"lng":-105.9378,"pop":87505,"capital":false},{"name":"Agua Prieta","country":"MX","lat":31.3224,"lng":-109.5425,"pop":77254,"capital":false},{"name":"Broomfield","country":"US","lat":39.9205,"lng":-105.0866,"pop":65065,"capital":false},{"name":"Grand Junction","country":"US","lat":39.0639,"lng":-108.5506,"pop":60358,"capital":false},{"name":"Castle Rock","country":"US","lat":39.3722,"lng":-104.8561,"pop":55591,"capital":false},{"name":"Nuevo Casas Grandes","country":"MX","lat":30.4155,"lng":-107.9117,"pop":55553,"capital":false},{"name":"Commerce City","country":"US","lat":39.8083,"lng":-104.9339,"pop":53696,"capital":false},{"name":"Parker","country":"US","lat":39.5186,"lng":-104.7614,"pop":49550,"capital":false},{"name":"Roswell","country":"US","lat":33.3944,"lng":-104.5249,"pop":48544,"capital":false},{"name":"Littleton","country":"US","lat":39.6133,"lng":-105.0166,"pop":46368,"capital":false},{"name":"Farmington","country":"US","lat":36.7281,"lng":-108.2187,"pop":42871,"capital":false},{"name":"Southglenn","country":"US","lat":39.5872,"lng":-104.9528,"pop":42268,"capital":false},{"name":"South Valley","country":"US","lat":35.0101,"lng":-106.6781,"pop":40976,"capital":false},{"name":"Clovis","country":"US","lat":34.4048,"lng":-103.2052,"pop":39480,"capital":false},{"name":"Northglenn","country":"US","lat":39.8855,"lng":-104.9872,"pop":39197,"capital":false},{"name":"Hobbs","country":"US","lat":32.7026,"lng":-103.136,"pop":38416,"capital":false},{"name":"Brighton","country":"US","lat":39.9853,"lng":-104.8205,"pop":37585,"capital":false},{"name":"Dakota Ridge","country":"US","lat":39.6164,"lng":-105.1393,"pop":33892,"capital":false},{"name":"Socorro","country":"US","lat":31.6546,"lng":-106.3033,"pop":33222,"capital":false},{"name":"Englewood","country":"US","lat":39.6478,"lng":-104.9878,"pop":33082,"capital":false},{"name":"Security-Widefield","country":"US","lat":38.7473,"lng":-104.7144,"pop":32882,"capital":false},{"name":"Ken Caryl","country":"US","lat":39.5758,"lng":-105.1122,"pop":32438,"capital":false},{"name":"Wheat Ridge","country":"US","lat":39.7661,"lng":-105.0772,"pop":31192,"capital":false},{"name":"Alamogordo","country":"US","lat":32.8995,"lng":-105.9603,"pop":30753,"capital":false},{"name":"Pueblo West","country":"US","lat":38.35,"lng":-104.7227,"pop":29637,"capital":false},{"name":"Carlsbad","country":"US","lat":32.4207,"lng":-104.2288,"pop":28957,"capital":false},{"name":"Big Spring","country":"US","lat":32.2504,"lng":-101.4787,"pop":28862,"capital":false},{"name":"Socorro Mission Number 1 Colonia","country":"US","lat":31.6362,"lng":-106.2905,"pop":28637,"capital":false},{"name":"Dodge City","country":"US","lat":37.7528,"lng":-100.0171,"pop":27912,"capital":false},{"name":"Fountain","country":"US","lat":38.6822,"lng":-104.7008,"pop":27767,"capital":false},{"name":"Lafayette","country":"US","lat":39.9936,"lng":-105.0897,"pop":27729,"capital":false},{"name":"Garden City","country":"US","lat":37.9717,"lng":-100.8727,"pop":27005,"capital":false},{"name":"Castlewood","country":"US","lat":39.5847,"lng":-104.9011,"pop":25271,"capital":false},{"name":"Columbine","country":"US","lat":39.5878,"lng":-105.0694,"pop":24280,"capital":false},{"name":"Gallup","country":"US","lat":35.5281,"lng":-108.7426,"pop":23240,"capital":false},{"name":"West Odessa","country":"US","lat":31.8424,"lng":-102.4988,"pop":22707,"capital":false},{"name":"Plainview","country":"US","lat":34.1848,"lng":-101.7068,"pop":20919,"capital":false},{"name":"Liberal","country":"US","lat":37.0431,"lng":-100.921,"pop":20746,"capital":false},{"name":"Louisville","country":"US","lat":39.9778,"lng":-105.1319,"pop":20396,"capital":false},{"name":"Golden","country":"US","lat":39.7555,"lng":-105.2211,"pop":20330,"capital":false},{"name":"Clifton","country":"US","lat":39.0919,"lng":-108.449,"pop":19889,"capital":false},{"name":"Horizon City","country":"US","lat":31.6926,"lng":-106.2075,"pop":19288,"capital":false},{"name":"Montrose","country":"US","lat":38.4783,"lng":-107.8762,"pop":19062,"capital":false},{"name":"Sherrelwood","country":"US","lat":39.8378,"lng":-105.0014,"pop":18287,"capital":false},{"name":"Pampa","country":"US","lat":35.5362,"lng":-100.9599,"pop":18177,"capital":false},{"name":"Durango","country":"US","lat":37.2753,"lng":-107.8801,"pop":18006,"capital":false},{"name":"Douglas","country":"US","lat":31.3446,"lng":-109.5453,"pop":16592,"capital":false},{"name":"Cañon City","country":"US","lat":38.441,"lng":-105.2424,"pop":16400,"capital":false},{"name":"Cimarron Hills","country":"US","lat":38.8586,"lng":-104.6989,"pop":16161,"capital":false},{"name":"Sunland Park","country":"US","lat":31.7965,"lng":-106.58,"pop":15940,"capital":false},{"name":"Greenwood Village","country":"US","lat":39.6172,"lng":-104.9508,"pop":15663,"capital":false},{"name":"Los Lunas","country":"US","lat":34.8062,"lng":-106.7334,"pop":15336,"capital":false},{"name":"Hereford","country":"US","lat":34.8152,"lng":-102.3993,"pop":15021,"capital":false},{"name":"Dumas","country":"US","lat":35.8656,"lng":-101.9732,"pop":15001,"capital":false},{"name":"Canyon","country":"US","lat":34.9803,"lng":-101.9188,"pop":14887,"capital":false},{"name":"Welby","country":"US","lat":39.8367,"lng":-104.9591,"pop":14846,"capital":false},{"name":"Chaparral","country":"US","lat":32.0238,"lng":-106.3857,"pop":14631,"capital":false},{"name":"Deming","country":"US","lat":32.2687,"lng":-107.7586,"pop":14522,"capital":false},{"name":"Levelland","country":"US","lat":33.5873,"lng":-102.378,"pop":13914,"capital":false},{"name":"Andrews","country":"US","lat":32.3187,"lng":-102.5457,"pop":13816,"capital":false},{"name":"Fort Carson","country":"US","lat":38.7375,"lng":-104.7889,"pop":13813,"capital":false},{"name":"Ascensión","country":"MX","lat":31.0921,"lng":-107.9964,"pop":13456,"capital":false},{"name":"Las Vegas","country":"US","lat":35.5939,"lng":-105.2239,"pop":13386,"capital":false},{"name":"Lone Tree","country":"US","lat":39.5517,"lng":-104.8863,"pop":13175,"capital":false},{"name":"Black Forest","country":"US","lat":39.0131,"lng":-104.7008,"pop":13116,"capital":false},{"name":"Superior","country":"US","lat":39.9528,"lng":-105.1686,"pop":12980,"capital":false},{"name":"Borger","country":"US","lat":35.6678,"lng":-101.3974,"pop":12964,"capital":false},{"name":"Fruita","country":"US","lat":39.1589,"lng":-108.729,"pop":12795,"capital":false},{"name":"Federal Heights","country":"US","lat":39.8514,"lng":-104.9986,"pop":12381,"capital":false},{"name":"Artesia","country":"US","lat":32.8423,"lng":-104.4033,"pop":12036,"capital":false},{"name":"Los Alamos","country":"US","lat":35.8881,"lng":-106.307,"pop":12019,"capital":false},{"name":"Portales","country":"US","lat":34.1862,"lng":-103.3344,"pop":11995,"capital":false},{"name":"Guymon","country":"US","lat":36.6828,"lng":-101.4815,"pop":11921,"capital":false},{"name":"Nacozari Viejo","country":"MX","lat":30.4,"lng":-109.65,"pop":11872,"capital":false},{"name":"Lovington","country":"US","lat":32.944,"lng":-103.3485,"pop":11800,"capital":false},{"name":"Ascención","country":"MX","lat":31.1,"lng":-107.9833,"pop":11781,"capital":false},{"name":"Snyder","country":"US","lat":32.7179,"lng":-100.9176,"pop":11768,"capital":false},{"name":"Nacozari de García","country":"MX","lat":30.3746,"lng":-109.688,"pop":11489,"capital":false},{"name":"North Valley","country":"US","lat":35.1734,"lng":-106.6234,"pop":11333,"capital":false},{"name":"Berkley","country":"US","lat":39.8044,"lng":-105.0261,"pop":11207,"capital":false},{"name":"Cherry Creek","country":"US","lat":39.611,"lng":-104.861,"pop":11120,"capital":false},{"name":"Sweetwater","country":"US","lat":32.471,"lng":-100.4059,"pop":10809,"capital":false},{"name":"The Pinery","country":"US","lat":39.4553,"lng":-104.7344,"pop":10517,"capital":false},{"name":"Castle Pines North","country":"US","lat":39.4717,"lng":-104.8948,"pop":10360,"capital":false},{"name":"Edwards","country":"US","lat":39.645,"lng":-106.5942,"pop":10266,"capital":false},{"name":"Española","country":"US","lat":35.9911,"lng":-106.0806,"pop":10224,"capital":false},{"name":"Silver City","country":"US","lat":32.7701,"lng":-108.2803,"pop":10004,"capital":false},{"name":"Glenwood Springs","country":"US","lat":39.5505,"lng":-107.3248,"pop":9906,"capital":false},{"name":"Alamosa","country":"US","lat":37.4695,"lng":-105.87,"pop":9819,"capital":false},{"name":"Brownfield","country":"US","lat":33.1812,"lng":-102.2743,"pop":9736,"capital":false},{"name":"Safford","country":"US","lat":32.834,"lng":-109.7076,"pop":9683,"capital":false},{"name":"Rifle","country":"US","lat":39.5347,"lng":-107.7831,"pop":9563,"capital":false},{"name":"Pecos","country":"US","lat":31.4229,"lng":-103.4932,"pop":9517,"capital":false},{"name":"Lamesa","country":"US","lat":32.7376,"lng":-101.951,"pop":9427,"capital":false},{"name":"Anthony","country":"US","lat":32.004,"lng":-106.6058,"pop":9293,"capital":false},{"name":"Perryton","country":"US","lat":36.4,"lng":-100.8026,"pop":9252,"capital":false},{"name":"Grants","country":"US","lat":35.1476,"lng":-107.8526,"pop":9239,"capital":false},{"name":"Roxborough Park","country":"US","lat":39.4739,"lng":-105.0853,"pop":9099,"capital":false},{"name":"Evergreen","country":"US","lat":39.6333,"lng":-105.3172,"pop":9038,"capital":false},{"name":"San Elizario","country":"US","lat":31.5851,"lng":-106.2728,"pop":8999,"capital":false},{"name":"Stonegate","country":"US","lat":39.5308,"lng":-104.8039,"pop":8962,"capital":false},{"name":"Bernalillo","country":"US","lat":35.3,"lng":-106.5511,"pop":8843,"capital":false},{"name":"Delta","country":"US","lat":38.7422,"lng":-108.069,"pop":8791,"capital":false},{"name":"Woodmoor","country":"US","lat":39.1014,"lng":-104.8475,"pop":8741,"capital":false},{"name":"Socorro","country":"US","lat":34.0584,"lng":-106.8914,"pop":8722,"capital":false},{"name":"Cortez","country":"US","lat":37.3489,"lng":-108.5859,"pop":8715,"capital":false},{"name":"Redlands","country":"US","lat":39.0789,"lng":-108.6356,"pop":8685,"capital":false},{"name":"Fort Stockton","country":"US","lat":30.894,"lng":-102.8793,"pop":8649,"capital":false},{"name":"Fort Bliss","country":"US","lat":31.8136,"lng":-106.4122,"pop":8591,"capital":false},{"name":"Miguel Ahumada","country":"MX","lat":30.6186,"lng":-106.5122,"pop":8575,"capital":false},{"name":"Corrales","country":"US","lat":35.2378,"lng":-106.6067,"pop":8502,"capital":false},{"name":"Dalhart","country":"US","lat":36.0595,"lng":-102.5132,"pop":8370,"capital":false},{"name":"Shiprock","country":"US","lat":36.7856,"lng":-108.687,"pop":8295,"capital":false},{"name":"Fabens","country":"US","lat":31.5023,"lng":-106.1586,"pop":8257,"capital":false},{"name":"Trinidad","country":"US","lat":37.1695,"lng":-104.5005,"pop":8153,"capital":false},{"name":"Bailey","country":"US","lat":39.4055,"lng":-105.4733,"pop":8042,"capital":false},{"name":"Kirtland","country":"US","lat":36.7342,"lng":-108.3598,"pop":7875,"capital":false},{"name":"Ruidoso","country":"US","lat":33.3318,"lng":-105.673,"pop":7739,"capital":false},{"name":"Monahans","country":"US","lat":31.5943,"lng":-102.8926,"pop":7690,"capital":false},{"name":"Derby","country":"US","lat":39.8394,"lng":-104.9186,"pop":7685,"capital":false},{"name":"Fruitvale","country":"US","lat":39.0817,"lng":-108.4968,"pop":7675,"capital":false},{"name":"Lamar","country":"US","lat":38.0872,"lng":-102.6207,"pop":7555,"capital":false},{"name":"Seminole","country":"US","lat":32.719,"lng":-102.6449,"pop":7448,"capital":false},{"name":"Bloomfield","country":"US","lat":36.7111,"lng":-107.9845,"pop":7314,"capital":false},{"name":"Homestead Meadows South","country":"US","lat":31.811,"lng":-106.1643,"pop":7247,"capital":false},{"name":"Woodland Park","country":"US","lat":38.9939,"lng":-105.0569,"pop":7222,"capital":false},{"name":"Applewood","country":"US","lat":39.7578,"lng":-105.1625,"pop":7160,"capital":false},{"name":"Belen","country":"US","lat":34.6628,"lng":-106.7764,"pop":7152,"capital":false},{"name":"La Junta","country":"US","lat":37.985,"lng":-103.5438,"pop":6951,"capital":false},{"name":"Gypsum","country":"US","lat":39.6469,"lng":-106.9517,"pop":6922,"capital":false},{"name":"Stratmoor","country":"US","lat":38.7739,"lng":-104.7797,"pop":6900,"capital":false},{"name":"Aspen","country":"US","lat":39.1911,"lng":-106.8175,"pop":6882,"capital":false},{"name":"Orchard Mesa","country":"US","lat":39.048,"lng":-108.529,"pop":6836,"capital":false},{"name":"Esqueda","country":"MX","lat":30.7275,"lng":-109.5878,"pop":6749,"capital":false},{"name":"Air Force Academy","country":"US","lat":38.9943,"lng":-104.8637,"pop":6680,"capital":false},{"name":"Eagle","country":"US","lat":39.6553,"lng":-106.8286,"pop":6678,"capital":false},{"name":"Carbondale","country":"US","lat":39.4022,"lng":-107.2112,"pop":6670,"capital":false},{"name":"Gleneagle","country":"US","lat":39.0453,"lng":-104.8244,"pop":6611,"capital":false},{"name":"Cherry Hills Village","country":"US","lat":39.6417,"lng":-104.9594,"pop":6539,"capital":false},{"name":"Avon","country":"US","lat":39.6314,"lng":-106.5222,"pop":6505,"capital":false},{"name":"Kermit","country":"US","lat":31.8576,"lng":-103.0927,"pop":6434,"capital":false},{"name":"Monument","country":"US","lat":39.0917,"lng":-104.8728,"pop":6420,"capital":false},{"name":"Canutillo","country":"US","lat":31.9115,"lng":-106.6003,"pop":6321,"capital":false},{"name":"Zuni Pueblo","country":"US","lat":35.0725,"lng":-108.8506,"pop":6302,"capital":false},{"name":"Raton","country":"US","lat":36.9034,"lng":-104.4391,"pop":6187,"capital":false},{"name":"Aztec","country":"US","lat":36.8222,"lng":-107.9928,"pop":6147,"capital":false},{"name":"Eldorado at Santa Fe","country":"US","lat":35.5264,"lng":-105.9347,"pop":6130,"capital":false},{"name":"Twin Lakes","country":"US","lat":39.825,"lng":-105.0047,"pop":6101,"capital":false},{"name":"Childress","country":"US","lat":34.4265,"lng":-100.204,"pop":6101,"capital":false},{"name":"Ulysses","country":"US","lat":37.5814,"lng":-101.3552,"pop":6097,"capital":false},{"name":"Littlefield","country":"US","lat":33.9173,"lng":-102.3249,"pop":6090,"capital":false},{"name":"Truth or Consequences","country":"US","lat":33.1284,"lng":-107.2528,"pop":6079,"capital":false},{"name":"Gunnison","country":"US","lat":38.5458,"lng":-106.9253,"pop":6076,"capital":false},{"name":"Slaton","country":"US","lat":33.4373,"lng":-101.6435,"pop":6072,"capital":false},{"name":"Naco","country":"MX","lat":31.3264,"lng":-109.946,"pop":6064,"capital":false},{"name":"Los Ranchos de Albuquerque","country":"US","lat":35.162,"lng":-106.6428,"pop":6063,"capital":false},{"name":"Sheridan","country":"US","lat":39.6469,"lng":-105.0253,"pop":6039,"capital":false},{"name":"Alpine","country":"US","lat":30.3586,"lng":-103.6621,"pop":5952,"capital":false},{"name":"Lee Acres","country":"US","lat":35.1487,"lng":-106.647,"pop":5858,"capital":false},{"name":"Lee Acres","country":"US","lat":36.6989,"lng":-108.0367,"pop":5858,"capital":false},{"name":"Ejido Benito Juárez","country":"MX","lat":30.1494,"lng":-106.8836,"pop":5778,"capital":false},{"name":"Taos","country":"US","lat":36.4073,"lng":-105.5731,"pop":5740,"capital":false},{"name":"White Rock","country":"US","lat":35.8275,"lng":-106.2039,"pop":5725,"capital":false},{"name":"Puerto Palomas de Villa","country":"MX","lat":31.7778,"lng":-107.6351,"pop":5659,"capital":false},{"name":"Anthony","country":"US","lat":31.9993,"lng":-106.6055,"pop":5517,"capital":false},{"name":"Salida","country":"US","lat":38.5347,"lng":-105.9989,"pop":5467,"capital":false},{"name":"Vail","country":"US","lat":39.6403,"lng":-106.3742,"pop":5461,"capital":false},{"name":"Los Chavez","country":"US","lat":34.7257,"lng":-106.7573,"pop":5446,"capital":false},{"name":"Colby","country":"US","lat":39.3958,"lng":-101.0524,"pop":5417,"capital":false},{"name":"Post","country":"US","lat":33.1912,"lng":-101.379,"pop":5349,"capital":false},{"name":"Manitou Springs","country":"US","lat":38.8597,"lng":-104.9172,"pop":5334,"capital":false},{"name":"Edgewater","country":"US","lat":39.753,"lng":-105.0641,"pop":5302,"capital":false},{"name":"Casas Grandes","country":"MX","lat":30.3775,"lng":-107.952,"pop":5256,"capital":false},{"name":"Dove Valley","country":"US","lat":39.5777,"lng":-104.8294,"pop":5243,"capital":false},{"name":"Moab","country":"US","lat":38.5733,"lng":-109.5498,"pop":5235,"capital":false},{"name":"Bisbee","country":"US","lat":31.4482,"lng":-109.9284,"pop":5208,"capital":false},{"name":"Glendale","country":"US","lat":39.705,"lng":-104.9336,"pop":5198,"capital":false},{"name":"Muleshoe","country":"US","lat":34.2265,"lng":-102.7238,"pop":5185,"capital":false},{"name":"Homestead Meadows North","country":"US","lat":31.8496,"lng":-106.1728,"pop":5124,"capital":false},{"name":"Shaw Heights","country":"US","lat":39.8525,"lng":-105.0431,"pop":5116,"capital":false},{"name":"Tucumcari","country":"US","lat":35.1719,"lng":-103.7269,"pop":5025,"capital":false}]