[{"name":"Temixco","country":"MX","lat":18.8525,"lng":-99.2254,"pop":97788,"capital":false},{"name":"Chimaltenango","country":"GT","lat":14.6588,"lng":-90.8216,"pop":96985,"capital":false},{"name":"Amozoc de Mota","country":"MX","lat":19.0461,"lng":-98.045,"pop":95322,"capital":false},{"name":"Malacatán","country":"GT","lat":14.9113,"lng":-92.0579,"pop":92816,"capital":false},{"name":"Cárdenas","country":"MX","lat":18.0014,"lng":-93.3756,"pop":91558,"capital":false},{"name":"Retalhuleu","country":"GT","lat":14.5358,"lng":-91.6785,"pop":90505,"capital":false},{"name":"Heroica Ciudad de Juchitán de Zaragoza","country":"MX","lat":16.4338,"lng":-95.0218,"pop":88280,"capital":false},{"name":"Atlixco","country":"MX","lat":18.9082,"lng":-98.4361,"pop":86690,"capital":false},{"name":"Paraiso","country":"MX","lat":18.4012,"lng":-93.2141,"pop":86632,"capital":false},{"name":"Los Reyes Acaquilpan","country":"MX","lat":19.3636,"lng":-98.9771,"pop":85359,"capital":false},{"name":"Tlaxcala","country":"MX","lat":19.3178,"lng":-98.2385,"pop":84670,"capital":false},{"name":"Salina Cruz","country":"MX","lat":16.1754,"lng":-95.1942,"pop":84438,"capital":false},{"name":"Tepeji del Río de Ocampo","country":"MX","lat":19.9048,"lng":-99.3438,"pop":80612,"capital":false},{"name":"Santa Catarina Pinula","country":"GT","lat":14.5705,"lng":-90.4992,"pop":80582,"capital":false},{"name":"San José Pinula","country":"GT","lat":14.546,"lng":-90.4129,"pop":79844,"capital":false},{"name":"Huehuetenango","country":"GT","lat":15.321,"lng":-91.47,"pop":79426,"capital":false},{"name":"Santa Cruz del Quiché","country":"GT","lat":15.03,"lng":-91.1488,"pop":78279,"capital":false},{"name":"Mazatenango","country":"GT","lat":14.5341,"lng":-91.5031,"pop":77431,"capital":false},{"name":"Fuentes del Valle","country":"MX","lat":19.6325,"lng":-99.1386,"pop":74087,"capital":false},{"name":"Amatitlán","country":"GT","lat":14.4774,"lng":-90.6349,"pop":71836,"capital":false},{"name":"Santa María Chimalhuacán","country":"MX","lat":19.4216,"lng":-98.9504,"pop":70519,"capital":false},{"name":"San Mateo Atenco","country":"MX","lat":19.2676,"lng":-99.5321,"pop":67890,"capital":false},{"name":"Santo Domingo Tehuantepec","country":"MX","lat":16.3246,"lng":-95.241,"pop":67739,"capital":false},{"name":"Santa Cruz Xoxocotlán","country":"MX","lat":17.0296,"lng":-96.7352,"pop":67086,"capital":false},{"name":"Palín","country":"GT","lat":14.4036,"lng":-90.6966,"pop":65873,"capital":false},{"name":"Tultepec","country":"MX","lat":19.685,"lng":-99.1281,"pop":65338,"capital":false},{"name":"Salamá","country":"GT","lat":15.1021,"lng":-90.3191,"pop":65275,"capital":false},{"name":"San Andrés Tuxtla","country":"MX","lat":18.4487,"lng":-95.2133,"pop":61769,"capital":false},{"name":"San Salvador Tizatlalli","country":"MX","lat":19.2603,"lng":-99.5908,"pop":61367,"capital":false},{"name":"Chicacao","country":"GT","lat":14.543,"lng":-91.3264,"pop":60735,"capital":false},{"name":"Villa Vicente Guerrero","country":"MX","lat":19.1212,"lng":-98.1657,"pop":60001,"capital":false},{"name":"Colonia Nativitas","country":"MX","lat":19.3812,"lng":-99.1368,"pop":60000,"capital":false},{"name":"Comitancillo","country":"GT","lat":15.0894,"lng":-91.7497,"pop":59489,"capital":false},{"name":"Fraijanes","country":"GT","lat":14.4653,"lng":-90.4408,"pop":58922,"capital":false},{"name":"San Pedro Ayampuc","country":"GT","lat":14.7794,"lng":-90.4532,"pop":58609,"capital":false},{"name":"Patzún","country":"GT","lat":14.6819,"lng":-91.014,"pop":58240,"capital":false},{"name":"San Francisco El Alto","country":"GT","lat":14.9449,"lng":-91.4431,"pop":57894,"capital":false},{"name":"San Bernardino Tlaxcalancingo","country":"MX","lat":19.0287,"lng":-98.277,"pop":54517,"capital":false},{"name":"Zinacantepec","country":"MX","lat":19.2843,"lng":-99.7339,"pop":54220,"capital":false},{"name":"Santiago Teyahualco","country":"MX","lat":19.6599,"lng":-99.1249,"pop":53684,"capital":false},{"name":"Coatepec","country":"MX","lat":19.4523,"lng":-96.9615,"pop":53621,"capital":false},{"name":"Ciudad de Huajuapan de León","country":"MX","lat":17.8079,"lng":-97.7796,"pop":53043,"capital":false},{"name":"Huamantla","country":"MX","lat":19.3145,"lng":-97.9252,"pop":51996,"capital":false},{"name":"Ostuncalco","country":"GT","lat":14.869,"lng":-91.6214,"pop":51828,"capital":false},{"name":"Teoloyucan","country":"MX","lat":19.7442,"lng":-99.1811,"pop":51255,"capital":false},{"name":"Acayucan","country":"MX","lat":17.9498,"lng":-94.9139,"pop":50934,"capital":false},{"name":"Taxco de Alarcón","country":"MX","lat":18.5546,"lng":-99.6059,"pop":50399,"capital":false},{"name":"Pijijiapan","country":"MX","lat":15.6862,"lng":-93.2094,"pop":50079,"capital":false},{"name":"Polanco","country":"MX","lat":19.4333,"lng":-99.1992,"pop":50000,"capital":false},{"name":"Apizaco","country":"MX","lat":19.4133,"lng":-98.1436,"pop":49506,"capital":false},{"name":"Emiliano Zapata","country":"MX","lat":18.8407,"lng":-99.1846,"pop":49193,"capital":false},{"name":"Soloma","country":"GT","lat":15.6584,"lng":-91.4299,"pop":49030,"capital":false},{"name":"Santa Ana Chiautempan","country":"MX","lat":19.3066,"lng":-98.1877,"pop":48030,"capital":false},{"name":"Tierra Blanca","country":"MX","lat":18.4477,"lng":-96.3591,"pop":47824,"capital":false},{"name":"Colomba","country":"GT","lat":14.7073,"lng":-91.7317,"pop":47544,"capital":false},{"name":"Barberena","country":"GT","lat":14.3074,"lng":-90.3616,"pop":47093,"capital":false},{"name":"San Marcos","country":"GT","lat":14.9644,"lng":-91.7949,"pop":47063,"capital":false},{"name":"Tlapa de Comonfort","country":"MX","lat":17.5453,"lng":-98.576,"pop":46975,"capital":false},{"name":"Antigua Guatemala","country":"GT","lat":14.5564,"lng":-90.7332,"pop":46054,"capital":false},{"name":"Sololá","country":"GT","lat":14.7707,"lng":-91.1834,"pop":45373,"capital":false},{"name":"Masagua","country":"GT","lat":14.2031,"lng":-90.8481,"pop":45323,"capital":false},{"name":"Chiapa de Corzo","country":"MX","lat":16.7075,"lng":-93.0122,"pop":45077,"capital":false},{"name":"San Buenaventura","country":"MX","lat":19.3025,"lng":-98.8631,"pop":44761,"capital":false},{"name":"Tizayuca","country":"MX","lat":19.8372,"lng":-98.9761,"pop":43250,"capital":false},{"name":"Palenque","country":"MX","lat":17.5091,"lng":-91.9812,"pop":42947,"capital":false},{"name":"Izúcar de Matamoros","country":"MX","lat":18.6016,"lng":-98.4615,"pop":42936,"capital":false},{"name":"Las Choapas","country":"MX","lat":17.9118,"lng":-94.0965,"pop":42693,"capital":false},{"name":"Cintalapa de Figueroa","country":"MX","lat":16.6839,"lng":-93.7181,"pop":42467,"capital":false},{"name":"Zacatelco","country":"MX","lat":19.2158,"lng":-98.2397,"pop":42150,"capital":false},{"name":"Cantel","country":"GT","lat":14.8115,"lng":-91.4554,"pop":42142,"capital":false},{"name":"Ocosingo","country":"MX","lat":16.9063,"lng":-92.0935,"pop":41878,"capital":false},{"name":"Comalcalco","country":"MX","lat":18.265,"lng":-93.2243,"pop":41458,"capital":false},{"name":"Cuilapa","country":"GT","lat":14.2754,"lng":-90.2986,"pop":41359,"capital":false},{"name":"Loma Bonita","country":"MX","lat":18.1077,"lng":-95.8805,"pop":40934,"capital":false},{"name":"Patulul","country":"GT","lat":14.4232,"lng":-91.1605,"pop":40683,"capital":false},{"name":"Río Blanco","country":"MX","lat":18.8304,"lng":-97.156,"pop":40611,"capital":false},{"name":"San Pedro Sacatepéquez","country":"GT","lat":14.9681,"lng":-91.7617,"pop":40021,"capital":false},{"name":"San Andrés Cholula","country":"MX","lat":19.0514,"lng":-98.2953,"pop":39964,"capital":false},{"name":"Nuevo San Carlos","country":"GT","lat":14.593,"lng":-91.6939,"pop":39565,"capital":false},{"name":"Ocozocoautla de Espinosa","country":"MX","lat":16.7612,"lng":-93.3743,"pop":39180,"capital":false},{"name":"Melchor Ocampo","country":"MX","lat":19.7019,"lng":-99.1448,"pop":38599,"capital":false},{"name":"Tepotzotlán","country":"MX","lat":19.7212,"lng":-99.2239,"pop":38119,"capital":false},{"name":"Perote","country":"MX","lat":19.5623,"lng":-97.2423,"pop":37516,"capital":false},{"name":"Villaflores","country":"MX","lat":16.2338,"lng":-93.2701,"pop":37237,"capital":false},{"name":"Jacaltenango","country":"GT","lat":15.6666,"lng":-91.7118,"pop":37171,"capital":false},{"name":"Santa Teresa","country":"MX","lat":19.845,"lng":-99.2333,"pop":36845,"capital":false},{"name":"San Jerónimo Cuatro Vientos","country":"MX","lat":19.2931,"lng":-98.8417,"pop":36778,"capital":false},{"name":"Agua Dulce","country":"MX","lat":18.1391,"lng":-94.1453,"pop":36079,"capital":false},{"name":"Coyotepec","country":"MX","lat":19.7772,"lng":-99.213,"pop":35677,"capital":false},{"name":"Ciudad Mendoza","country":"MX","lat":18.8065,"lng":-97.1787,"pop":35641,"capital":false},{"name":"San Martín Azcatepec","country":"MX","lat":19.6867,"lng":-98.9728,"pop":35390,"capital":false},{"name":"Tlapacoyan","country":"MX","lat":19.9627,"lng":-97.2114,"pop":35338,"capital":false},{"name":"Tonalá","country":"MX","lat":16.0901,"lng":-93.7546,"pop":35322,"capital":false},{"name":"San Pablo Autopan","country":"MX","lat":19.3564,"lng":-99.6572,"pop":35141,"capital":false},{"name":"Yepocapa","country":"GT","lat":14.502,"lng":-90.954,"pop":34948,"capital":false},{"name":"San Miguel Topilejo","country":"MX","lat":19.2026,"lng":-99.1419,"pop":34603,"capital":false},{"name":"Tecpán Guatemala","country":"GT","lat":14.7618,"lng":-90.9925,"pop":34519,"capital":false},{"name":"San Isidro","country":"MX","lat":19.3397,"lng":-98.9506,"pop":33737,"capital":false},{"name":"Zacatlán","country":"MX","lat":19.9355,"lng":-97.9613,"pop":33736,"capital":false},{"name":"Ciudad Vieja","country":"GT","lat":14.524,"lng":-90.7631,"pop":33405,"capital":false},{"name":"Santiago Atitlán","country":"GT","lat":14.6382,"lng":-91.229,"pop":33309,"capital":false},{"name":"Calpulalpan","country":"MX","lat":19.5887,"lng":-98.5697,"pop":33263,"capital":false},{"name":"Jáltipan de Morelos","country":"MX","lat":17.9654,"lng":-94.714,"pop":32778,"capital":false},{"name":"Tenosique","country":"MX","lat":17.4729,"lng":-91.4236,"pop":32579,"capital":false},{"name":"Comalapa","country":"GT","lat":14.7409,"lng":-90.8876,"pop":32312,"capital":false},{"name":"Macuspana","country":"MX","lat":17.7605,"lng":-92.5954,"pop":32225,"capital":false},{"name":"Huixtla","country":"MX","lat":15.1392,"lng":-92.4634,"pop":32033,"capital":false},{"name":"Momostenango","country":"GT","lat":15.0444,"lng":-91.4086,"pop":31739,"capital":false},{"name":"Amecameca","country":"MX","lat":19.1238,"lng":-98.7665,"pop":31687,"capital":false},{"name":"Huatusco","country":"MX","lat":19.1488,"lng":-96.9676,"pop":31305,"capital":false},{"name":"San José Guadalupe Otzacatipan","country":"MX","lat":19.3447,"lng":-99.5919,"pop":31299,"capital":false},{"name":"Chilapa de Álvarez","country":"MX","lat":17.5992,"lng":-99.1739,"pop":31157,"capital":false},{"name":"Champotón","country":"MX","lat":19.3424,"lng":-90.7227,"pop":30881,"capital":false},{"name":"Cosamaloapan","country":"MX","lat":18.3676,"lng":-95.7986,"pop":30577,"capital":false},{"name":"Puerto Escondido","country":"MX","lat":15.8628,"lng":-97.0683,"pop":29903,"capital":false},{"name":"San Miguel Ajusco","country":"MX","lat":19.222,"lng":-99.2024,"pop":29781,"capital":false},{"name":"Pinotepa Nacional","country":"MX","lat":16.3401,"lng":-98.053,"pop":29604,"capital":false},{"name":"Escárcega","country":"MX","lat":18.6089,"lng":-90.7454,"pop":29477,"capital":false},{"name":"Santiago Sacatepéquez","country":"GT","lat":14.6351,"lng":-90.6765,"pop":29238,"capital":false},{"name":"San Sebastián","country":"GT","lat":14.5618,"lng":-91.6486,"pop":29167,"capital":false},{"name":"Jalpatagua","country":"GT","lat":14.1369,"lng":-90.0091,"pop":28832,"capital":false},{"name":"Tecamachalco","country":"MX","lat":18.8835,"lng":-97.7334,"pop":28679,"capital":false},{"name":"Ciudad Sahagun","country":"MX","lat":19.7756,"lng":-98.5747,"pop":28609,"capital":false},{"name":"Sumpango","country":"GT","lat":14.6462,"lng":-90.7343,"pop":28488,"capital":false},{"name":"Metepec","country":"MX","lat":19.2593,"lng":-99.6017,"pop":28205,"capital":false},{"name":"Berriozábal","country":"MX","lat":16.7994,"lng":-93.2722,"pop":28128,"capital":false},{"name":"Ajalpan","country":"MX","lat":18.3791,"lng":-97.2587,"pop":28031,"capital":false},{"name":"Tultitlán de Mariano Escobedo","country":"MX","lat":19.6466,"lng":-99.1679,"pop":28017,"capital":false},{"name":"San Francisco Acuautla","country":"MX","lat":19.3456,"lng":-98.8603,"pop":27960,"capital":false},{"name":"Sanctorum","country":"MX","lat":19.0992,"lng":-98.2542,"pop":27936,"capital":false},{"name":"Nahualá","country":"GT","lat":14.8429,"lng":-91.318,"pop":27690,"capital":false},{"name":"Catemaco","country":"MX","lat":18.4213,"lng":-95.114,"pop":27615,"capital":false},{"name":"Contla","country":"MX","lat":19.3293,"lng":-98.1664,"pop":27610,"capital":false},{"name":"Tepeaca","country":"MX","lat":18.9669,"lng":-97.8998,"pop":27449,"capital":false},{"name":"Huimanguillo","country":"MX","lat":17.835,"lng":-93.389,"pop":27344,"capital":false},{"name":"Moyotzingo","country":"MX","lat":19.2481,"lng":-98.4049,"pop":27137,"capital":false},{"name":"Misantla","country":"MX","lat":19.9299,"lng":-96.8519,"pop":26827,"capital":false},{"name":"Apan","country":"MX","lat":19.7113,"lng":-98.4509,"pop":26642,"capital":false},{"name":"Teapa","country":"MX","lat":17.556,"lng":-92.9479,"pop":26548,"capital":false},{"name":"Río de Teapa","country":"MX","lat":17.7747,"lng":-92.9022,"pop":26500,"capital":false},{"name":"Magdalena Atlicpac","country":"MX","lat":19.3691,"lng":-98.9493,"pop":26429,"capital":false},{"name":"Isla","country":"MX","lat":18.0278,"lng":-95.5295,"pop":26287,"capital":false},{"name":"San Jerónimo","country":"MX","lat":19.2828,"lng":-99.5929,"pop":26281,"capital":false},{"name":"Reforma","country":"MX","lat":17.859,"lng":-93.1538,"pop":26257,"capital":false},{"name":"Ixtaczoquitlán","country":"MX","lat":18.8536,"lng":-97.0623,"pop":26187,"capital":false},{"name":"Ocoyoacac","country":"MX","lat":19.2713,"lng":-99.4579,"pop":26015,"capital":false},{"name":"Acatzingo","country":"MX","lat":18.982,"lng":-97.7836,"pop":25811,"capital":false},{"name":"Valente Diaz","country":"MX","lat":19.1635,"lng":-96.2165,"pop":25700,"capital":false},{"name":"Huejotzingo","country":"MX","lat":19.1589,"lng":-98.4082,"pop":25684,"capital":false},{"name":"Ixtepec","country":"MX","lat":16.5605,"lng":-95.1037,"pop":25381,"capital":false},{"name":"Emiliano Zapata","country":"MX","lat":19.3436,"lng":-98.9747,"pop":25309,"capital":false},{"name":"Nanchital de Lázaro Cárdenas del Río","country":"MX","lat":18.0712,"lng":-94.4076,"pop":25289,"capital":false},{"name":"Cuautlancingo","country":"MX","lat":19.09,"lng":-98.2732,"pop":25104,"capital":false},{"name":"San Andrés Itzapa","country":"GT","lat":14.6222,"lng":-90.8431,"pop":24992,"capital":false},{"name":"San Francisco Cuaxusco","country":"MX","lat":19.2676,"lng":-99.6192,"pop":24900,"capital":false},{"name":"Guastatoya","country":"GT","lat":14.8544,"lng":-90.0699,"pop":24831,"capital":false},{"name":"Zumpango del Río","country":"MX","lat":17.6544,"lng":-99.5272,"pop":24719,"capital":false},{"name":"La Isla","country":"MX","lat":18.6,"lng":-96.15,"pop":24558,"capital":false},{"name":"Arriaga","country":"MX","lat":16.2356,"lng":-93.8997,"pop":24447,"capital":false},{"name":"San Felipe","country":"GT","lat":14.623,"lng":-91.595,"pop":24446,"capital":false},{"name":"San Antonio Tecómitl","country":"MX","lat":19.2178,"lng":-98.9881,"pop":24397,"capital":false},{"name":"San Juan Ixtayopan","country":"MX","lat":19.2319,"lng":-98.9987,"pop":24120,"capital":false},{"name":"Ometepec","country":"MX","lat":16.6901,"lng":-98.408,"pop":24120,"capital":false},{"name":"Zaragoza","country":"GT","lat":14.6497,"lng":-90.8903,"pop":24022,"capital":false},{"name":"La Gomera","country":"GT","lat":14.0821,"lng":-91.0538,"pop":24001,"capital":false},{"name":"Alotenango","country":"GT","lat":14.4859,"lng":-90.8044,"pop":23986,"capital":false},{"name":"Miahuatlán de Porfirio Díaz","country":"MX","lat":16.329,"lng":-96.5961,"pop":23940,"capital":false},{"name":"Ciudad Serdán","country":"MX","lat":18.9886,"lng":-97.4464,"pop":23824,"capital":false},{"name":"Motozintla","country":"MX","lat":15.3662,"lng":-92.2467,"pop":23755,"capital":false},{"name":"Allende","country":"MX","lat":18.154,"lng":-94.3942,"pop":23620,"capital":false},{"name":"Teloloapan","country":"MX","lat":18.3666,"lng":-99.8718,"pop":23549,"capital":false},{"name":"San Martín Cuautlalpan","country":"MX","lat":19.2762,"lng":-98.8317,"pop":23501,"capital":false},{"name":"Teotihuacán de Arista","country":"MX","lat":19.6897,"lng":-98.8608,"pop":23325,"capital":false},{"name":"Nebaj","country":"GT","lat":15.4061,"lng":-91.1468,"pop":23301,"capital":false},{"name":"Jesús del Monte","country":"MX","lat":19.375,"lng":-99.2944,"pop":23150,"capital":false},{"name":"Alvarado","country":"MX","lat":18.7714,"lng":-95.7618,"pop":23128,"capital":false},{"name":"San Jorge Pueblo Nuevo","country":"MX","lat":19.2542,"lng":-99.6278,"pop":23107,"capital":false},{"name":"San Lorenzo Acopilco","country":"MX","lat":19.33,"lng":-99.3272,"pop":23037,"capital":false},{"name":"Cabricán","country":"GT","lat":15.0749,"lng":-91.648,"pop":23033,"capital":false},{"name":"Papalotla","country":"MX","lat":19.1686,"lng":-98.2039,"pop":22969,"capital":false},{"name":"Tixtla de Guerrero","country":"MX","lat":17.5673,"lng":-99.398,"pop":22826,"capital":false},{"name":"Frontera","country":"MX","lat":18.5433,"lng":-92.6453,"pop":22795,"capital":false},{"name":"Atlacomulco de Fabela","country":"MX","lat":19.7992,"lng":-99.875,"pop":22774,"capital":false},{"name":"Lerma de Villada","country":"MX","lat":19.2888,"lng":-99.5116,"pop":22713,"capital":false},{"name":"Tequixquiac","country":"MX","lat":19.9094,"lng":-99.1447,"pop":22676,"capital":false},{"name":"San Mateo Otzacatipan","country":"MX","lat":19.3327,"lng":-99.6034,"pop":22656,"capital":false},{"name":"San Miguel Coatlinchán","country":"MX","lat":19.45,"lng":-98.8727,"pop":22619,"capital":false},{"name":"San Francisco Zapotitlán","country":"GT","lat":14.5894,"lng":-91.5214,"pop":22533,"capital":false},{"name":"Cosoleacaque","country":"MX","lat":17.9991,"lng":-94.6359,"pop":22454,"capital":false},{"name":"Nogales","country":"MX","lat":18.8278,"lng":-97.1631,"pop":22085,"capital":false},{"name":"Reyes Acozac","country":"MX","lat":19.7755,"lng":-98.9808,"pop":21910,"capital":false},{"name":"Playas del Rosario","country":"MX","lat":17.8529,"lng":-92.9324,"pop":21893,"capital":false},{"name":"Santa María de Jesús","country":"GT","lat":14.4945,"lng":-90.7104,"pop":21795,"capital":false},{"name":"Santa María Atzompa","country":"MX","lat":17.1017,"lng":-96.7769,"pop":21788,"capital":false},{"name":"Tenango de Arista","country":"MX","lat":19.1045,"lng":-99.5898,"pop":21765,"capital":false},{"name":"Chiconcuac","country":"MX","lat":19.5594,"lng":-98.8988,"pop":21738,"capital":false},{"name":"Zacatepec","country":"MX","lat":18.6541,"lng":-99.1898,"pop":21586,"capital":false},{"name":"Fortín de las Flores","country":"MX","lat":18.9081,"lng":-97,"pop":21370,"capital":false},{"name":"Patzicía","country":"GT","lat":14.6319,"lng":-90.9266,"pop":21249,"capital":false},{"name":"Puente de Ixtla","country":"MX","lat":18.6147,"lng":-99.3181,"pop":21098,"capital":false},{"name":"San Pedro Totoltepec","country":"MX","lat":19.3111,"lng":-99.572,"pop":21076,"capital":false},{"name":"Xoxocotla","country":"MX","lat":18.6842,"lng":-99.2458,"pop":21074,"capital":false},{"name":"Acajete","country":"MX","lat":19.1115,"lng":-97.9523,"pop":20923,"capital":false},{"name":"San Rafael","country":"MX","lat":19.2096,"lng":-98.7564,"pop":20873,"capital":false},{"name":"Las Margaritas","country":"MX","lat":16.3128,"lng":-91.9822,"pop":20786,"capital":false},{"name":"Capulhuac de Mirafuentes","country":"MX","lat":19.1935,"lng":-99.4658,"pop":20757,"capital":false},{"name":"San Lucas Sacatepéquez","country":"GT","lat":14.6108,"lng":-90.6568,"pop":20723,"capital":false},{"name":"Xonacatlán","country":"MX","lat":19.4051,"lng":-99.5281,"pop":20680,"capital":false},{"name":"San Pablo Jocopilas","country":"GT","lat":14.5888,"lng":-91.4519,"pop":20433,"capital":false},{"name":"San Antonio de la Cal","country":"MX","lat":17.0292,"lng":-96.7009,"pop":20198,"capital":false},{"name":"Emiliano Zapata","country":"MX","lat":17.7406,"lng":-91.7663,"pop":20030,"capital":false},{"name":"Cunduacán","country":"MX","lat":18.0656,"lng":-93.173,"pop":19824,"capital":false},{"name":"Altotonga","country":"MX","lat":19.7661,"lng":-97.2451,"pop":19722,"capital":false},{"name":"San Cristóbal Verapaz","country":"GT","lat":15.3666,"lng":-90.4782,"pop":19664,"capital":false},{"name":"Banderilla","country":"MX","lat":19.5889,"lng":-96.9373,"pop":19649,"capital":false},{"name":"Chignahuapan","country":"MX","lat":19.8387,"lng":-98.0317,"pop":19608,"capital":false},{"name":"San Juan Zitlaltepec","country":"MX","lat":19.8121,"lng":-99.1453,"pop":19600,"capital":false},{"name":"Salcajá","country":"GT","lat":14.8796,"lng":-91.457,"pop":19434,"capital":false},{"name":"Acatlán de Osorio","country":"MX","lat":18.2025,"lng":-98.0486,"pop":19341,"capital":false},{"name":"Xochitepec","country":"MX","lat":18.7808,"lng":-99.2305,"pop":19164,"capital":false},{"name":"José Cardel","country":"MX","lat":19.3681,"lng":-96.3695,"pop":19092,"capital":false},{"name":"Matías Romero Avendaño","country":"MX","lat":16.8774,"lng":-95.0382,"pop":18944,"capital":false},{"name":"Jojutla","country":"MX","lat":18.6147,"lng":-99.1803,"pop":18867,"capital":false},{"name":"Guazacapán","country":"GT","lat":14.0742,"lng":-90.4167,"pop":18855,"capital":false},{"name":"Las Rosas","country":"MX","lat":16.3655,"lng":-92.3706,"pop":18817,"capital":false},{"name":"Santa María Totoltepec","country":"MX","lat":19.3065,"lng":-99.5928,"pop":18779,"capital":false},{"name":"Lerdo de Tejada","country":"MX","lat":18.6294,"lng":-95.5197,"pop":18715,"capital":false},{"name":"Comalapa","country":"MX","lat":15.66,"lng":-92.1411,"pop":18704,"capital":false},{"name":"Puerto San José","country":"GT","lat":13.9222,"lng":-90.8191,"pop":18655,"capital":false},{"name":"Xico","country":"MX","lat":19.4218,"lng":-97.0082,"pop":18652,"capital":false},{"name":"Palencia","country":"GT","lat":14.6672,"lng":-90.3572,"pop":18574,"capital":false},{"name":"Tlaquiltenango","country":"MX","lat":18.6343,"lng":-99.1632,"pop":18334,"capital":false},{"name":"Milpa Alta","country":"MX","lat":19.1925,"lng":-99.0232,"pop":18274,"capital":false},{"name":"Altepexi","country":"MX","lat":18.3703,"lng":-97.2997,"pop":18217,"capital":false},{"name":"Tiquisate","country":"GT","lat":14.2836,"lng":-91.3606,"pop":18189,"capital":false},{"name":"San Andrés Cuexcontitlán","country":"MX","lat":19.3589,"lng":-99.6215,"pop":18005,"capital":false},{"name":"Carlos A. Carrillo","country":"MX","lat":18.3748,"lng":-95.7544,"pop":17989,"capital":false},{"name":"Tres de Mayo","country":"MX","lat":18.8686,"lng":-99.2083,"pop":17966,"capital":false},{"name":"Mapastepec","country":"MX","lat":15.4336,"lng":-92.9004,"pop":17931,"capital":false},{"name":"Jocotenango","country":"GT","lat":14.5781,"lng":-90.738,"pop":17918,"capital":false},{"name":"Santa María Ajoloapan","country":"MX","lat":19.7636,"lng":-98.9591,"pop":17784,"capital":false},{"name":"Don Antonio","country":"MX","lat":19.8744,"lng":-98.9347,"pop":17736,"capital":false},{"name":"Ixtapan de la Sal","country":"MX","lat":18.8437,"lng":-99.6767,"pop":17640,"capital":false},{"name":"Santiago Momoxpan","country":"MX","lat":19.0736,"lng":-98.2669,"pop":17622,"capital":false},{"name":"Heroica Ciudad de Tlaxiaco","country":"MX","lat":17.2687,"lng":-97.6803,"pop":17543,"capital":false},{"name":"Axochiapan","country":"MX","lat":18.5025,"lng":-98.7536,"pop":17508,"capital":false},{"name":"Ciudad de Huitzuco","country":"MX","lat":18.3033,"lng":-99.3338,"pop":17475,"capital":false},{"name":"Huilango","country":"MX","lat":19.6806,"lng":-99.2564,"pop":17399,"capital":false},{"name":"El Asintal","country":"GT","lat":14.5963,"lng":-91.7274,"pop":17388,"capital":false},{"name":"Tres Valles","country":"MX","lat":18.2392,"lng":-96.1357,"pop":17299,"capital":false},{"name":"San Salvador El Seco","country":"MX","lat":19.1333,"lng":-97.6417,"pop":17263,"capital":false},{"name":"Casa Blanca","country":"MX","lat":19.0422,"lng":-98.1189,"pop":17262,"capital":false},{"name":"Palmarito Tochapan","country":"MX","lat":18.9014,"lng":-97.6383,"pop":17213,"capital":false},{"name":"Santa Bárbara","country":"GT","lat":14.4356,"lng":-91.2268,"pop":17172,"capital":false},{"name":"San Salvador Atenco","country":"MX","lat":19.5517,"lng":-98.9187,"pop":17124,"capital":false},{"name":"Chisec","country":"GT","lat":15.8131,"lng":-90.289,"pop":17018,"capital":false},{"name":"Tezoyuca","country":"MX","lat":19.5928,"lng":-98.9108,"pop":16933,"capital":false},{"name":"La Magdalena Tlaltelulco","country":"MX","lat":19.2829,"lng":-98.1961,"pop":16834,"capital":false},{"name":"Yecapixtla","country":"MX","lat":18.8833,"lng":-98.865,"pop":16811,"capital":false},{"name":"Zaragoza","country":"MX","lat":19.771,"lng":-97.5551,"pop":16752,"capital":false},{"name":"Ozumba de Alzate","country":"MX","lat":19.0369,"lng":-98.7952,"pop":16700,"capital":false},{"name":"Santa Rosa Treinta","country":"MX","lat":18.7003,"lng":-99.1836,"pop":16691,"capital":false},{"name":"Los Reyes de Juárez","country":"MX","lat":18.9492,"lng":-97.8038,"pop":16683,"capital":false},{"name":"Suchiapa","country":"MX","lat":16.6247,"lng":-93.0989,"pop":16637,"capital":false},{"name":"Yajalón","country":"MX","lat":17.1729,"lng":-92.3339,"pop":16622,"capital":false},{"name":"Cacahoatán","country":"MX","lat":14.992,"lng":-92.1642,"pop":16572,"capital":false},{"name":"San Francisco Tlalcilalcalpan","country":"MX","lat":19.2947,"lng":-99.7677,"pop":16509,"capital":false},{"name":"La Esperanza","country":"GT","lat":14.8717,"lng":-91.5614,"pop":16461,"capital":false},{"name":"San Antonio Acahualco","country":"MX","lat":19.274,"lng":-99.7717,"pop":16442,"capital":false},{"name":"San Pedro Carchá","country":"GT","lat":15.4775,"lng":-90.311,"pop":16353,"capital":false},{"name":"Ampliación San Mateo","country":"MX","lat":19.6164,"lng":-99.1472,"pop":16250,"capital":false},{"name":"Teopisca","country":"MX","lat":16.5414,"lng":-92.4729,"pop":16240,"capital":false},{"name":"Teolocholco","country":"MX","lat":19.2433,"lng":-98.1908,"pop":16240,"capital":false},{"name":"Santa Ana Xalmimilulco","country":"MX","lat":19.2129,"lng":-98.3821,"pop":16125,"capital":false},{"name":"Tepatlaxco de Hidalgo","country":"MX","lat":19.0807,"lng":-97.9734,"pop":16085,"capital":false},{"name":"Fraccionamiento Ciudad Olmeca","country":"MX","lat":18.1506,"lng":-94.5525,"pop":16074,"capital":false},{"name":"Juchitepec","country":"MX","lat":19.1006,"lng":-98.8788,"pop":16021,"capital":false},{"name":"San Rafael Tlanalapan","country":"MX","lat":19.2917,"lng":-98.4681,"pop":15998,"capital":false},{"name":"Tecámac de Felipe Villanueva","country":"MX","lat":19.7131,"lng":-98.9683,"pop":15911,"capital":false},{"name":"Santiago Tlacotepec","country":"MX","lat":19.2271,"lng":-99.6708,"pop":15853,"capital":false},{"name":"Sanarate","country":"GT","lat":14.7883,"lng":-90.1988,"pop":15843,"capital":false},{"name":"Jalpa de Méndez","country":"MX","lat":18.1768,"lng":-93.0638,"pop":15695,"capital":false},{"name":"El Tejar","country":"GT","lat":14.6468,"lng":-90.7912,"pop":15639,"capital":false},{"name":"Zinacatepec","country":"MX","lat":18.3352,"lng":-97.2462,"pop":15592,"capital":false},{"name":"Tulantongo","country":"MX","lat":19.5316,"lng":-98.8746,"pop":15584,"capital":false},{"name":"Libres","country":"MX","lat":19.4657,"lng":-97.6874,"pop":15536,"capital":false},{"name":"San Pablo Oztotepec","country":"MX","lat":19.1865,"lng":-99.0736,"pop":15507,"capital":false},{"name":"Venustiano Carranza","country":"MX","lat":16.3385,"lng":-92.5632,"pop":15496,"capital":false},{"name":"Santiago Tuxtla","country":"MX","lat":18.4658,"lng":-95.3006,"pop":15459,"capital":false},{"name":"San Mateo Huitzilzingo","country":"MX","lat":19.2291,"lng":-98.925,"pop":15389,"capital":false},{"name":"Ayutla de los Libres","country":"MX","lat":16.9638,"lng":-99.0962,"pop":15370,"capital":false},{"name":"Coscomatepec de Bravo","country":"MX","lat":19.0728,"lng":-97.0469,"pop":15252,"capital":false},{"name":"Tepeapulco","country":"MX","lat":19.7884,"lng":-98.5527,"pop":15244,"capital":false},{"name":"Tecámac","country":"MX","lat":19.7129,"lng":-98.969,"pop":15244,"capital":false},{"name":"Alborada Jaltenco","country":"MX","lat":19.6619,"lng":-99.0689,"pop":15235,"capital":false},{"name":"El Palmar","country":"GT","lat":14.6508,"lng":-91.578,"pop":15167,"capital":false},{"name":"Tetla","country":"MX","lat":19.442,"lng":-98.1032,"pop":15161,"capital":false},{"name":"Rabinal","country":"GT","lat":15.0853,"lng":-90.4925,"pop":15157,"capital":false},{"name":"Crucecita","country":"MX","lat":15.7689,"lng":-96.135,"pop":15130,"capital":false},{"name":"San Andrés Xecul","country":"GT","lat":14.9048,"lng":-91.4831,"pop":15074,"capital":false},{"name":"Xalatlaco","country":"MX","lat":19.1831,"lng":-99.4184,"pop":15043,"capital":false},{"name":"Ocotlán de Morelos","country":"MX","lat":16.7918,"lng":-96.675,"pop":15016,"capital":false},{"name":"Col. Bosques de las Lomas","country":"MX","lat":19.3789,"lng":-99.2659,"pop":15000,"capital":false},{"name":"Oteapan","country":"MX","lat":18.0017,"lng":-94.6661,"pop":14925,"capital":false},{"name":"Santa Ana Nextlalpan","country":"MX","lat":19.7417,"lng":-99.075,"pop":14871,"capital":false},{"name":"San Miguel Canoa","country":"MX","lat":19.1519,"lng":-98.1031,"pop":14863,"capital":false},{"name":"Coronango","country":"MX","lat":19.1209,"lng":-98.3059,"pop":14859,"capital":false},{"name":"Tlaxco","country":"MX","lat":19.6144,"lng":-98.12,"pop":14806,"capital":false},{"name":"Tlalmanalco","country":"MX","lat":19.2052,"lng":-98.8012,"pop":14786,"capital":false},{"name":"Santa Catarina Ixtahuacán","country":"GT","lat":14.798,"lng":-91.3587,"pop":14734,"capital":false},{"name":"Juan Rodríguez Clara","country":"MX","lat":17.9928,"lng":-95.401,"pop":14628,"capital":false},{"name":"Ciudad Hidalgo","country":"MX","lat":14.6802,"lng":-92.1519,"pop":14606,"capital":false},{"name":"Las Amapolas","country":"MX","lat":19.1519,"lng":-96.1978,"pop":14553,"capital":false},{"name":"San Lucas Tolimán","country":"GT","lat":14.5947,"lng":-91.1466,"pop":14545,"capital":false},{"name":"Progreso","country":"MX","lat":18.8801,"lng":-99.1526,"pop":14525,"capital":false},{"name":"Benito Juárez","country":"MX","lat":17.8332,"lng":-92.5302,"pop":14451,"capital":false},{"name":"San Pedro Sacatepéquez","country":"GT","lat":14.6861,"lng":-90.6425,"pop":14315,"capital":false},{"name":"General Miguel Alemán","country":"MX","lat":18.8921,"lng":-96.7966,"pop":14287,"capital":false},{"name":"Palmira","country":"MX","lat":18.8828,"lng":-97.1114,"pop":14256,"capital":false},{"name":"Villa de El Carmen Tequexquitla","country":"MX","lat":19.3243,"lng":-97.6535,"pop":14249,"capital":false},{"name":"Pichucalco","country":"MX","lat":17.51,"lng":-93.1159,"pop":14212,"capital":false},{"name":"Tenancingo de Degollado","country":"MX","lat":18.9614,"lng":-99.5903,"pop":14174,"capital":false},{"name":"Tepoztlán","country":"MX","lat":18.9862,"lng":-99.1005,"pop":14130,"capital":false},{"name":"Zunil","country":"GT","lat":14.7846,"lng":-91.4834,"pop":14118,"capital":false},{"name":"Barillas","country":"GT","lat":15.8036,"lng":-91.3158,"pop":14100,"capital":false},{"name":"Sayula de Alemán","country":"MX","lat":17.8819,"lng":-94.9599,"pop":13980,"capital":false},{"name":"Villa de Zaachila","country":"MX","lat":16.9505,"lng":-96.7493,"pop":13959,"capital":false},{"name":"Miahuatlán","country":"MX","lat":18.5498,"lng":-97.4395,"pop":13909,"capital":false},{"name":"Acala","country":"MX","lat":16.5561,"lng":-92.8077,"pop":13889,"capital":false},{"name":"San Jacinto Amilpas","country":"MX","lat":17.1019,"lng":-96.7623,"pop":13860,"capital":false},{"name":"San Salvador Cuauhtenco","country":"MX","lat":19.1928,"lng":-99.0898,"pop":13856,"capital":false},{"name":"Apaxco de Ocampo","country":"MX","lat":19.9751,"lng":-99.1711,"pop":13836,"capital":false},{"name":"Tlacolula de Matamoros","country":"MX","lat":16.9553,"lng":-96.4776,"pop":13821,"capital":false},{"name":"Vicente Guerrero","country":"MX","lat":16.9331,"lng":-96.7014,"pop":13794,"capital":false},{"name":"Atarasquillo","country":"MX","lat":19.3283,"lng":-99.469,"pop":13769,"capital":false},{"name":"San Miguel Chicaj","country":"GT","lat":15.0947,"lng":-90.3944,"pop":13747,"capital":false},{"name":"Brisas Barra de Suchiate","country":"MX","lat":14.5359,"lng":-92.2241,"pop":13743,"capital":false},{"name":"La Joya","country":"MX","lat":18.8906,"lng":-99.1234,"pop":13715,"capital":false},{"name":"San Pedro Pochutla","country":"MX","lat":15.7456,"lng":-96.4657,"pop":13685,"capital":false},{"name":"Unión Hidalgo","country":"MX","lat":16.4723,"lng":-94.8295,"pop":13683,"capital":false},{"name":"Santa María Xonacatepec","country":"MX","lat":19.0894,"lng":-98.1036,"pop":13673,"capital":false},{"name":"San Pablo","country":"GT","lat":14.9327,"lng":-92.0041,"pop":13668,"capital":false},{"name":"San Antonio Suchitepéquez","country":"GT","lat":14.5394,"lng":-91.4144,"pop":13666,"capital":false},{"name":"Cuitláhuac","country":"MX","lat":18.8143,"lng":-96.7228,"pop":13651,"capital":false},{"name":"San Pedro Tultepec","country":"MX","lat":19.2651,"lng":-99.5093,"pop":13634,"capital":false},{"name":"Paso del Macho","country":"MX","lat":18.971,"lng":-96.7242,"pop":13413,"capital":false},{"name":"La Democracia","country":"GT","lat":14.2292,"lng":-90.9481,"pop":13400,"capital":false},{"name":"Acuitlapilco","country":"MX","lat":19.2733,"lng":-98.2354,"pop":13386,"capital":false},{"name":"San Andrés Mixquic","country":"MX","lat":19.2251,"lng":-98.9641,"pop":13310,"capital":false},{"name":"Jalacingo","country":"MX","lat":19.8033,"lng":-97.3083,"pop":13310,"capital":false},{"name":"Asunción Nochixtlán","country":"MX","lat":17.4586,"lng":-97.2257,"pop":13284,"capital":false},{"name":"San Marcos","country":"MX","lat":16.7977,"lng":-99.3892,"pop":13282,"capital":false},{"name":"San Juan Chamelco","country":"GT","lat":15.4243,"lng":-90.3304,"pop":13264,"capital":false},{"name":"Tepetlixpa","country":"MX","lat":19.0289,"lng":-98.8213,"pop":13239,"capital":false},{"name":"Almecatla","country":"MX","lat":19.1429,"lng":-98.236,"pop":13217,"capital":false},{"name":"San Mateo Ixtatán","country":"GT","lat":15.8319,"lng":-91.4781,"pop":13213,"capital":false},{"name":"Joyabaj","country":"GT","lat":14.9931,"lng":-90.8016,"pop":13164,"capital":false},{"name":"La Joya","country":"MX","lat":18.6667,"lng":-99.4667,"pop":13158,"capital":false},{"name":"San Gregorio Cuautzingo","country":"MX","lat":19.2596,"lng":-98.8574,"pop":13138,"capital":false},{"name":"Santiago Tianguistenco de Galeana","country":"MX","lat":19.1802,"lng":-99.4664,"pop":13106,"capital":false},{"name":"Balancán","country":"MX","lat":17.809,"lng":-91.5368,"pop":13030,"capital":false},{"name":"Veintidós de Febrero","country":"MX","lat":19.6114,"lng":-99.3467,"pop":13021,"capital":false},{"name":"San Sebastián Chimalpa","country":"MX","lat":19.3815,"lng":-98.955,"pop":12951,"capital":false},{"name":"Río Grande","country":"MX","lat":16.0111,"lng":-97.4356,"pop":12943,"capital":false},{"name":"Chiquimulilla","country":"GT","lat":14.0838,"lng":-90.3855,"pop":12842,"capital":false},{"name":"Fraccionamiento Geovillas los Pinos","country":"MX","lat":19.2172,"lng":-96.2264,"pop":12840,"capital":false},{"name":"San Martín de las Pirámides","country":"MX","lat":19.7058,"lng":-98.8355,"pop":12812,"capital":false},{"name":"Juan Morales","country":"MX","lat":18.8114,"lng":-98.9219,"pop":12756,"capital":false},{"name":"Oluta","country":"MX","lat":17.9297,"lng":-94.8966,"pop":12709,"capital":false},{"name":"San Pedro Apatlaco","country":"MX","lat":18.7931,"lng":-98.9597,"pop":12630,"capital":false},{"name":"Pastores","country":"GT","lat":14.5943,"lng":-90.7547,"pop":12621,"capital":false},{"name":"San Antonio la Isla","country":"MX","lat":19.1644,"lng":-99.5668,"pop":12525,"capital":false},{"name":"Santa María Zacatepec","country":"MX","lat":19.1233,"lng":-98.3653,"pop":12466,"capital":false},{"name":"Santa María Huexoculco","country":"MX","lat":19.258,"lng":-98.8205,"pop":12456,"capital":false},{"name":"Bochil","country":"MX","lat":16.9962,"lng":-92.8947,"pop":12404,"capital":false},{"name":"Soledad de Doblado","country":"MX","lat":19.0464,"lng":-96.4214,"pop":12398,"capital":false},{"name":"Lomas de San Sebastián","country":"MX","lat":19.3821,"lng":-98.9332,"pop":12372,"capital":false},{"name":"Cuilápam de Guerrero","country":"MX","lat":16.9963,"lng":-96.78,"pop":12360,"capital":false},{"name":"Santiago Cuautlalpan","country":"MX","lat":19.4323,"lng":-98.9014,"pop":12336,"capital":false},{"name":"Almolonga","country":"GT","lat":14.8159,"lng":-91.4946,"pop":12299,"capital":false},{"name":"Xicohtzinco","country":"MX","lat":19.1737,"lng":-98.2338,"pop":12255,"capital":false},{"name":"San Juan de las Huertas","country":"MX","lat":19.2476,"lng":-99.7583,"pop":12253,"capital":false},{"name":"Santa Lucía Milpas Altas","country":"GT","lat":14.5766,"lng":-90.6763,"pop":12234,"capital":false},{"name":"San Marcos Huixtoco","country":"MX","lat":19.2967,"lng":-98.8637,"pop":12229,"capital":false},{"name":"San Bartolo del Llano","country":"MX","lat":19.5907,"lng":-99.741,"pop":12227,"capital":false},{"name":"La Magdalena Chichicaspa","country":"MX","lat":19.4124,"lng":-99.3256,"pop":12193,"capital":false},{"name":"Ciudad de Nanacamilpa","country":"MX","lat":19.4934,"lng":-98.5366,"pop":12177,"capital":false},{"name":"San Gabriel Chilac","country":"MX","lat":18.326,"lng":-97.347,"pop":12149,"capital":false},{"name":"San Pedro de los Baños","country":"MX","lat":19.6687,"lng":-99.8353,"pop":12149,"capital":false},{"name":"Huixcolotla","country":"MX","lat":18.9207,"lng":-97.7717,"pop":12148,"capital":false},{"name":"Acatenango","country":"GT","lat":14.5545,"lng":-90.9437,"pop":12136,"capital":false},{"name":"El Quetzal","country":"GT","lat":14.7687,"lng":-91.8176,"pop":12122,"capital":false},{"name":"Sacapulas","country":"GT","lat":15.288,"lng":-91.0891,"pop":12088,"capital":false},{"name":"Tepalcingo","country":"MX","lat":18.595,"lng":-98.8454,"pop":12053,"capital":false},{"name":"Ángel R. Cabada","country":"MX","lat":18.596,"lng":-95.4458,"pop":12033,"capital":false},{"name":"Cacalomacan","country":"MX","lat":19.2531,"lng":-99.7062,"pop":12001,"capital":false},{"name":"Flores Costa Cuca","country":"GT","lat":14.6324,"lng":-91.8634,"pop":11984,"capital":false},{"name":"Heroica Villa de San Blas Atempa","country":"MX","lat":16.3261,"lng":-95.2271,"pop":11959,"capital":false},{"name":"Huehuetoca","country":"MX","lat":19.8282,"lng":-99.2037,"pop":11948,"capital":false},{"name":"San Pedro Los Baños","country":"MX","lat":19.6254,"lng":-99.8217,"pop":11886,"capital":false},{"name":"Magdalena Milpas Altas","country":"GT","lat":14.548,"lng":-90.6748,"pop":11856,"capital":false},{"name":"Maltrata","country":"MX","lat":18.8109,"lng":-97.2754,"pop":11842,"capital":false},{"name":"Jilotepec de Molina Enríquez","country":"MX","lat":19.9519,"lng":-99.5328,"pop":11828,"capital":false},{"name":"San Juan y San Pedro Tezompa","country":"MX","lat":19.2068,"lng":-98.9607,"pop":11819,"capital":false},{"name":"Cruz Grande","country":"MX","lat":16.7224,"lng":-99.1236,"pop":11783,"capital":false},{"name":"Córdoba (Santa Leticia)","country":"MX","lat":18.9086,"lng":-96.9789,"pop":11720,"capital":false},{"name":"El Rosario","country":"MX","lat":17.0427,"lng":-96.6921,"pop":11707,"capital":false},{"name":"Chajul","country":"GT","lat":15.4852,"lng":-91.0352,"pop":11657,"capital":false},{"name":"San Francisco Ocotlán","country":"MX","lat":19.1341,"lng":-98.2834,"pop":11636,"capital":false},{"name":"Tenancingo","country":"MX","lat":19.1473,"lng":-98.2013,"pop":11636,"capital":false},{"name":"Tierra Colorada","country":"MX","lat":17.1657,"lng":-99.5279,"pop":11540,"capital":false},{"name":"Nealtican","country":"MX","lat":19.0499,"lng":-98.4272,"pop":11517,"capital":false},{"name":"Chiautla de Tapia","country":"MX","lat":18.3015,"lng":-98.6034,"pop":11511,"capital":false},{"name":"San Pedro Tlaltizapan","country":"MX","lat":19.1997,"lng":-99.4996,"pop":11472,"capital":false},{"name":"San Francisco Tecoxpa","country":"MX","lat":19.1917,"lng":-99.0064,"pop":11456,"capital":false},{"name":"Ciudad Tecún Umán","country":"GT","lat":14.6774,"lng":-92.1404,"pop":11432,"capital":false},{"name":"Progreso Industrial","country":"MX","lat":19.6364,"lng":-99.3569,"pop":11289,"capital":false},{"name":"Nacajuca","country":"MX","lat":18.1696,"lng":-93.0184,"pop":11289,"capital":false},{"name":"San Miguel Xoxtla","country":"MX","lat":19.1676,"lng":-98.3076,"pop":11269,"capital":false},{"name":"Villa Cuauhtémoc","country":"MX","lat":19.4168,"lng":-99.5587,"pop":11241,"capital":false},{"name":"San Pablo Atlazalpan","country":"MX","lat":19.2174,"lng":-98.9076,"pop":11236,"capital":false},{"name":"Anenecuilco","country":"MX","lat":18.7774,"lng":-98.9891,"pop":11227,"capital":false},{"name":"El Tejar","country":"MX","lat":19.075,"lng":-96.1609,"pop":11168,"capital":false},{"name":"Calimaya","country":"MX","lat":19.1632,"lng":-99.6181,"pop":11165,"capital":false},{"name":"Panajachel","country":"GT","lat":14.7419,"lng":-91.1568,"pop":11142,"capital":false},{"name":"San Bartolomé Tlaltelulco","country":"MX","lat":19.2274,"lng":-99.6296,"pop":11141,"capital":false},{"name":"Nueva Concepción","country":"GT","lat":14.2,"lng":-91.3,"pop":11121,"capital":false},{"name":"Chinautla","country":"MX","lat":19.82,"lng":-97.3886,"pop":11096,"capital":false},{"name":"Jaltenco","country":"MX","lat":19.753,"lng":-99.0939,"pop":11093,"capital":false},{"name":"San Matias Tlalancaleca","country":"MX","lat":19.3254,"lng":-98.4986,"pop":11076,"capital":false},{"name":"San Juan Cotzal","country":"GT","lat":15.4337,"lng":-91.0348,"pop":11046,"capital":false},{"name":"San Bartolo Cuautlalpan","country":"MX","lat":19.8151,"lng":-99.0104,"pop":10989,"capital":false},{"name":"Zimatlán de Álvarez","country":"MX","lat":16.8671,"lng":-96.7848,"pop":10986,"capital":false},{"name":"Atlautla","country":"MX","lat":19.0219,"lng":-98.7786,"pop":10967,"capital":false},{"name":"Parrilla II","country":"MX","lat":17.877,"lng":-92.9247,"pop":10967,"capital":false},{"name":"Putla Villa de Guerrero","country":"MX","lat":17.0262,"lng":-97.9284,"pop":10925,"capital":false},{"name":"Atencingo","country":"MX","lat":18.5135,"lng":-98.6054,"pop":10879,"capital":false},{"name":"El Parral","country":"MX","lat":16.3702,"lng":-93.0043,"pop":10865,"capital":false},{"name":"Pomoca","country":"MX","lat":18.0497,"lng":-92.9306,"pop":10864,"capital":false},{"name":"Villa Corzo","country":"MX","lat":16.1846,"lng":-93.268,"pop":10841,"capital":false},{"name":"Cuyotenango","country":"GT","lat":14.5401,"lng":-91.5718,"pop":10825,"capital":false},{"name":"Chahuites","country":"MX","lat":16.2882,"lng":-94.1949,"pop":10763,"capital":false},{"name":"Simojovel de Allende","country":"MX","lat":17.1401,"lng":-92.714,"pop":10762,"capital":false},{"name":"Chocamán","country":"MX","lat":19.0121,"lng":-97.0329,"pop":10727,"capital":false},{"name":"Galeana","country":"MX","lat":18.6381,"lng":-99.2124,"pop":10726,"capital":false},{"name":"Puerto Escondido (Tepeolulco Puerto Escondido)","country":"MX","lat":19.5519,"lng":-99.0981,"pop":10717,"capital":false},{"name":"Santa Catarina Ayotzingo","country":"MX","lat":19.2095,"lng":-98.9298,"pop":10702,"capital":false},{"name":"Chichihualco","country":"MX","lat":17.659,"lng":-99.6762,"pop":10690,"capital":false},{"name":"Cubulco","country":"GT","lat":15.1045,"lng":-90.6287,"pop":10681,"capital":false},{"name":"Santa María Zolotepec","country":"MX","lat":19.4173,"lng":-99.4933,"pop":10656,"capital":false},{"name":"Tecolutilla","country":"MX","lat":18.2825,"lng":-93.3335,"pop":10637,"capital":false},{"name":"Unidad Habitacional José María Morelos y Pavón","country":"MX","lat":18.8203,"lng":-99.2622,"pop":10625,"capital":false},{"name":"San Francisco Telixtlahuaca","country":"MX","lat":17.2963,"lng":-96.9048,"pop":10618,"capital":false},{"name":"Santa Ana Tlacotenco","country":"MX","lat":19.1757,"lng":-98.9979,"pop":10593,"capital":false},{"name":"Nueva Palestina","country":"MX","lat":16.8172,"lng":-91.26,"pop":10588,"capital":false},{"name":"Tlaltizapán","country":"MX","lat":18.6863,"lng":-99.1187,"pop":10563,"capital":false},{"name":"Huautla de Jiménez","country":"MX","lat":18.1315,"lng":-96.8409,"pop":10528,"capital":false},{"name":"Tlaixpan","country":"MX","lat":18.9122,"lng":-97.7382,"pop":10513,"capital":false},{"name":"Jaltenango de la Paz","country":"MX","lat":15.8726,"lng":-92.7247,"pop":10427,"capital":false},{"name":"Profesor Carlos Hank González","country":"MX","lat":19.3722,"lng":-98.9389,"pop":10416,"capital":false},{"name":"Ciudad de Chiautla de Tapia","country":"MX","lat":18.3,"lng":-98.6039,"pop":10320,"capital":false},{"name":"Cuajinicuilapa","country":"MX","lat":16.4735,"lng":-98.4139,"pop":10282,"capital":false},{"name":"Fraccionamiento la Trinidad","country":"MX","lat":19.8292,"lng":-99.0828,"pop":10230,"capital":false},{"name":"Quecholac","country":"MX","lat":18.9547,"lng":-97.6586,"pop":10216,"capital":false},{"name":"Zacatepec","country":"MX","lat":19.2663,"lng":-97.5328,"pop":10204,"capital":false},{"name":"Tetela del Volcán","country":"MX","lat":18.8931,"lng":-98.7297,"pop":10199,"capital":false},{"name":"Xaloztoc","country":"MX","lat":19.4078,"lng":-98.046,"pop":10191,"capital":false},{"name":"Oratorio","country":"GT","lat":14.2281,"lng":-90.1758,"pop":10155,"capital":false},{"name":"Ixhuatlán del Sureste","country":"MX","lat":18.0214,"lng":-94.3886,"pop":10149,"capital":false},{"name":"Nueva Santa Rosa","country":"GT","lat":14.3811,"lng":-90.2761,"pop":10130,"capital":false},{"name":"Santa Cruz Amilpas","country":"MX","lat":17.0583,"lng":-96.6833,"pop":10120,"capital":false},{"name":"San Andrés Ahuashuatepec","country":"MX","lat":19.3783,"lng":-98.1065,"pop":10114,"capital":false},{"name":"Santiago Jamiltepec","country":"MX","lat":16.2814,"lng":-97.8228,"pop":10107,"capital":false},{"name":"Otumba","country":"MX","lat":19.6999,"lng":-98.7564,"pop":10097,"capital":false},{"name":"Santiago Tílapa","country":"MX","lat":19.1895,"lng":-99.4209,"pop":10087,"capital":false},{"name":"Grajales","country":"MX","lat":19.228,"lng":-97.8031,"pop":10054,"capital":false},{"name":"Paseos de San Juan","country":"MX","lat":19.7819,"lng":-99.0175,"pop":10050,"capital":false},{"name":"Pueblo Nuevo","country":"MX","lat":17.16,"lng":-92.899,"pop":10043,"capital":false},{"name":"Guadalupe Victoria","country":"MX","lat":19.2911,"lng":-97.3429,"pop":10035,"capital":false},{"name":"Santiago Yancuitlalpan","country":"MX","lat":19.384,"lng":-99.3047,"pop":10013,"capital":false},{"name":"Nuevo León","country":"GT","lat":15.7937,"lng":-91.0924,"pop":10000,"capital":false},{"name":"San Buenaventura","country":"MX","lat":19.266,"lng":-99.6733,"pop":9991,"capital":false},{"name":"Teocelo","country":"MX","lat":19.3856,"lng":-96.9737,"pop":9967,"capital":false},{"name":"Huitán","country":"GT","lat":15.0492,"lng":-91.6394,"pop":9958,"capital":false},{"name":"Oriental","country":"MX","lat":19.3761,"lng":-97.6205,"pop":9957,"capital":false},{"name":"Boca del Rio","country":"MX","lat":19.1046,"lng":-96.104,"pop":9947,"capital":false},{"name":"Champerico","country":"GT","lat":14.2921,"lng":-91.9134,"pop":9941,"capital":false},{"name":"Miraflores","country":"MX","lat":19.2221,"lng":-98.8074,"pop":9904,"capital":false},{"name":"Jiquipilas","country":"MX","lat":16.6681,"lng":-93.6467,"pop":9894,"capital":false},{"name":"San Marcos Tlacoyalco","country":"MX","lat":18.6739,"lng":-97.6035,"pop":9881,"capital":false},{"name":"San Francisco Tetlanohcan","country":"MX","lat":19.2602,"lng":-98.1637,"pop":9858,"capital":false},{"name":"San Martín Jilotepeque","country":"GT","lat":14.7801,"lng":-90.7926,"pop":9846,"capital":false},{"name":"Chiautla","country":"MX","lat":19.549,"lng":-98.8824,"pop":9839,"capital":false},{"name":"Chahuite","country":"MX","lat":16.3,"lng":-94.1833,"pop":9837,"capital":false},{"name":"Tetlanohcán","country":"MX","lat":19.2603,"lng":-98.1643,"pop":9832,"capital":false},{"name":"Candelaria","country":"MX","lat":18.1869,"lng":-91.0401,"pop":9812,"capital":false},{"name":"Petaquillas","country":"MX","lat":17.4864,"lng":-99.4563,"pop":9801,"capital":false},{"name":"Santiago Cuautlalpan","country":"MX","lat":19.6842,"lng":-99.2887,"pop":9786,"capital":false},{"name":"Brisas de Zicatela","country":"MX","lat":15.8369,"lng":-97.0419,"pop":9771,"capital":false},{"name":"Heroica Ciudad de Ejutla de Crespo","country":"MX","lat":16.5652,"lng":-96.7318,"pop":9748,"capital":false},{"name":"Tlatlauquitepec","country":"MX","lat":19.8477,"lng":-97.4972,"pop":9720,"capital":false},{"name":"Mexicaltzingo","country":"MX","lat":19.2113,"lng":-99.5847,"pop":9693,"capital":false},{"name":"Las Vigas de Ramírez","country":"MX","lat":19.6372,"lng":-97.0982,"pop":9684,"capital":false},{"name":"San Pedro La Laguna","country":"GT","lat":14.693,"lng":-91.272,"pop":9681,"capital":false},{"name":"Mazatecochco","country":"MX","lat":19.1787,"lng":-98.1868,"pop":9671,"capital":false},{"name":"Parrilla","country":"MX","lat":17.913,"lng":-92.9175,"pop":9664,"capital":false},{"name":"Cocoyoc","country":"MX","lat":18.8842,"lng":-98.9819,"pop":9663,"capital":false},{"name":"Texistepec","country":"MX","lat":17.8948,"lng":-94.8171,"pop":9655,"capital":false},{"name":"San Fernando","country":"MX","lat":16.8713,"lng":-93.207,"pop":9651,"capital":false},{"name":"Tequisistlán Primero","country":"MX","lat":19.6,"lng":-98.9569,"pop":9640,"capital":false},{"name":"Zaragoza","country":"MX","lat":17.9578,"lng":-94.6423,"pop":9639,"capital":false},{"name":"Parramos","country":"GT","lat":14.6089,"lng":-90.803,"pop":9613,"capital":false},{"name":"Rafael Delgado","country":"MX","lat":18.8101,"lng":-97.0717,"pop":9594,"capital":false},{"name":"Escuintla","country":"MX","lat":15.3194,"lng":-92.6583,"pop":9570,"capital":false},{"name":"Santiago Juxtlahuaca","country":"MX","lat":17.3346,"lng":-98.0115,"pop":9565,"capital":false},{"name":"Santa Catarina Yecahuizotl","country":"MX","lat":19.3121,"lng":-98.9646,"pop":9563,"capital":false},{"name":"Puerto Madero","country":"MX","lat":14.7208,"lng":-92.4215,"pop":9557,"capital":false},{"name":"Huixquilucan de Degollado","country":"MX","lat":19.3603,"lng":-99.3498,"pop":9554,"capital":false},{"name":"San Felipe Tlalmimilolpan","country":"MX","lat":19.2393,"lng":-99.6421,"pop":9512,"capital":false},{"name":"Villa Guerrero","country":"MX","lat":18.9621,"lng":-99.6406,"pop":9509,"capital":false},{"name":"Almoloya del Río","country":"MX","lat":19.1605,"lng":-99.4874,"pop":9507,"capital":false},{"name":"Jorge Jiménez Cantú","country":"MX","lat":19.3097,"lng":-98.8467,"pop":9475,"capital":false},{"name":"Cocotitlán","country":"MX","lat":19.2334,"lng":-98.866,"pop":9365,"capital":false},{"name":"Villa Zempoala","country":"MX","lat":19.4442,"lng":-96.4077,"pop":9249,"capital":false},{"name":"Zacualpa","country":"GT","lat":15.0268,"lng":-90.8781,"pop":9241,"capital":false},{"name":"Naolinco de Victoria","country":"MX","lat":19.6547,"lng":-96.8732,"pop":9233,"capital":false},{"name":"Magdalena Cuayucatepec","country":"MX","lat":18.5497,"lng":-97.4847,"pop":9227,"capital":false},{"name":"Altamirano","country":"MX","lat":16.7337,"lng":-92.0388,"pop":9200,"capital":false},{"name":"Santa María Ajoloapan","country":"MX","lat":19.9769,"lng":-99.0447,"pop":9185,"capital":false},{"name":"San Cristóbal Cucho","country":"GT","lat":14.9051,"lng":-91.7812,"pop":9152,"capital":false},{"name":"Amatlán de los Reyes","country":"MX","lat":18.8466,"lng":-96.9159,"pop":9123,"capital":false},{"name":"Amaxac de Guerrero","country":"MX","lat":19.3466,"lng":-98.1706,"pop":9114,"capital":false},{"name":"Ex-hacienda de Xalpa","country":"MX","lat":19.8215,"lng":-99.1827,"pop":9105,"capital":false},{"name":"Sayaxché","country":"GT","lat":16.5245,"lng":-90.188,"pop":9100,"capital":false},{"name":"Coatetelco","country":"MX","lat":18.7296,"lng":-99.326,"pop":9094,"capital":false},{"name":"Playa Vicente","country":"MX","lat":17.8311,"lng":-95.8119,"pop":9083,"capital":false},{"name":"La Resurrección","country":"MX","lat":19.1028,"lng":-98.1301,"pop":9065,"capital":false},{"name":"Ciudad de Tlatlauquitepec","country":"MX","lat":19.8528,"lng":-97.4953,"pop":9047,"capital":false},{"name":"La Trinitaria","country":"MX","lat":16.1189,"lng":-92.0519,"pop":9042,"capital":false},{"name":"Tactic","country":"GT","lat":15.3222,"lng":-90.3545,"pop":8999,"capital":false},{"name":"San Hipólito","country":"MX","lat":18.9407,"lng":-97.8732,"pop":8999,"capital":false},{"name":"Santa María Jalapa del Marqués","country":"MX","lat":16.4399,"lng":-95.4437,"pop":8996,"capital":false},{"name":"Samayac","country":"GT","lat":14.5808,"lng":-91.4613,"pop":8994,"capital":false},{"name":"Calixtlahuaca","country":"MX","lat":19.3365,"lng":-99.6892,"pop":8993,"capital":false},{"name":"Fraccionamiento Lomas de Ahuatlán","country":"MX","lat":18.9544,"lng":-99.2572,"pop":8990,"capital":false},{"name":"San Mateo Xoloc","country":"MX","lat":19.7065,"lng":-99.2482,"pop":8958,"capital":false},{"name":"San Francisco Chimalpa","country":"MX","lat":19.4428,"lng":-99.344,"pop":8953,"capital":false},{"name":"Atzacan","country":"MX","lat":18.9072,"lng":-97.0831,"pop":8947,"capital":false},{"name":"San Pedro Cholula","country":"MX","lat":19.2644,"lng":-99.4864,"pop":8941,"capital":false},{"name":"Concepción Huista","country":"GT","lat":15.6238,"lng":-91.6652,"pop":8925,"capital":false},{"name":"Lomas de Barrillas","country":"MX","lat":18.1481,"lng":-94.5264,"pop":8915,"capital":false},{"name":"Tlacotepec","country":"MX","lat":18.6819,"lng":-97.656,"pop":8908,"capital":false},{"name":"Tlalixtac de Cabrera","country":"MX","lat":17.0707,"lng":-96.6466,"pop":8881,"capital":false},{"name":"Xaltepec","country":"MX","lat":18.8816,"lng":-97.6082,"pop":8865,"capital":false},{"name":"El Tumbador","country":"GT","lat":14.8638,"lng":-91.9342,"pop":8856,"capital":false},{"name":"Coatepec","country":"MX","lat":19.3849,"lng":-98.8455,"pop":8841,"capital":false},{"name":"Tamulté de las Sabanas","country":"MX","lat":18.1605,"lng":-92.7837,"pop":8824,"capital":false},{"name":"La Venta","country":"MX","lat":18.098,"lng":-94.0452,"pop":8821,"capital":false},{"name":"San Pedro Chochula","country":"MX","lat":19.2636,"lng":-99.4859,"pop":8798,"capital":false},{"name":"Santo Domingo Xenacoj","country":"GT","lat":14.6806,"lng":-90.7001,"pop":8791,"capital":false},{"name":"San Pablo Huixtepec","country":"MX","lat":16.8215,"lng":-96.7815,"pop":8786,"capital":false},{"name":"Villa del Carbón","country":"MX","lat":19.7288,"lng":-99.4636,"pop":8778,"capital":false},{"name":"San Isidro Buen Suceso","country":"MX","lat":19.1549,"lng":-98.1049,"pop":8769,"capital":false},{"name":"Piedras Negras","country":"MX","lat":18.7694,"lng":-96.1732,"pop":8767,"capital":false},{"name":"Santiaguito Tlalcilalcalli","country":"MX","lat":19.3403,"lng":-99.7272,"pop":8761,"capital":false},{"name":"Emiliano Zapata","country":"MX","lat":19.6549,"lng":-98.545,"pop":8722,"capital":false},{"name":"Seybaplaya","country":"MX","lat":19.6397,"lng":-90.6864,"pop":8711,"capital":false},{"name":"El Cerrillo Vista Hermosa","country":"MX","lat":19.3234,"lng":-99.5425,"pop":8699,"capital":false},{"name":"San Raimundo","country":"GT","lat":14.7646,"lng":-90.5949,"pop":8689,"capital":false},{"name":"La Libertad","country":"GT","lat":16.7885,"lng":-90.117,"pop":8646,"capital":false},{"name":"Colonia Santa Bárbara","country":"MX","lat":19.5019,"lng":-96.8782,"pop":8617,"capital":false},{"name":"Bosque de Saloya","country":"MX","lat":18.0161,"lng":-92.9581,"pop":8600,"capital":false},{"name":"Santa María Rayón","country":"MX","lat":19.1481,"lng":-99.5797,"pop":8590,"capital":false},{"name":"San Lucas el Grande","country":"MX","lat":19.3058,"lng":-98.4783,"pop":8546,"capital":false},{"name":"Colonia Rincón Viejo","country":"MX","lat":16.8868,"lng":-95.0473,"pop":8540,"capital":false},{"name":"Jilotzingo","country":"MX","lat":19.8689,"lng":-99.0619,"pop":8523,"capital":false},{"name":"Cuacnopalan","country":"MX","lat":18.8176,"lng":-97.5112,"pop":8516,"capital":false},{"name":"San Andrés Azumiatla","country":"MX","lat":18.9042,"lng":-98.2528,"pop":8509,"capital":false},{"name":"Chiantla","country":"GT","lat":15.3548,"lng":-91.4581,"pop":8465,"capital":false},{"name":"San Gaspar Tlahuelilpan","country":"MX","lat":19.2429,"lng":-99.5457,"pop":8456,"capital":false},{"name":"Pajapan","country":"MX","lat":18.2627,"lng":-94.6917,"pop":8434,"capital":false},{"name":"San Miguel Dueñas","country":"GT","lat":14.5224,"lng":-90.7994,"pop":8424,"capital":false},{"name":"Mundo Nuevo","country":"MX","lat":18.0876,"lng":-94.3888,"pop":8420,"capital":false},{"name":"San Juan Tilapa","country":"MX","lat":19.2202,"lng":-99.6601,"pop":8420,"capital":false},{"name":"Santa Rita Tlahuapan","country":"MX","lat":19.3321,"lng":-98.5769,"pop":8412,"capital":false},{"name":"Cunén","country":"GT","lat":15.3363,"lng":-91.0278,"pop":8400,"capital":false},{"name":"Cuapiaxtla","country":"MX","lat":19.2959,"lng":-97.7688,"pop":8398,"capital":false},{"name":"San Pedro Buenavista","country":"MX","lat":16.0833,"lng":-93.1167,"pop":8390,"capital":false},{"name":"Zacapoaxtla","country":"MX","lat":19.8727,"lng":-97.589,"pop":8384,"capital":false},{"name":"Ex-Rancho San Dimas","country":"MX","lat":19.1739,"lng":-99.5653,"pop":8371,"capital":false},{"name":"Jacarandas","country":"MX","lat":19.4956,"lng":-96.8528,"pop":8351,"capital":false},{"name":"El Pino","country":"MX","lat":19.3514,"lng":-98.9483,"pop":8332,"capital":false},{"name":"Alpuyeca","country":"MX","lat":18.7401,"lng":-99.2594,"pop":8330,"capital":false},{"name":"Cosolapa","country":"MX","lat":18.6007,"lng":-96.6836,"pop":8320,"capital":false},{"name":"Tepetitla","country":"MX","lat":19.2653,"lng":-98.3764,"pop":8316,"capital":false},{"name":"San Pedro Atocpan","country":"MX","lat":19.2016,"lng":-99.0496,"pop":8283,"capital":false},{"name":"Lerma","country":"MX","lat":19.804,"lng":-90.6009,"pop":8281,"capital":false},{"name":"San Luis Acatlán","country":"MX","lat":16.809,"lng":-98.7333,"pop":8276,"capital":false},{"name":"San Juan Xiutetelco","country":"MX","lat":19.7956,"lng":-97.3258,"pop":8251,"capital":false},{"name":"Jalapilla","country":"MX","lat":18.8256,"lng":-97.0888,"pop":8245,"capital":false},{"name":"San Juan Tepulco","country":"MX","lat":19.1171,"lng":-97.9885,"pop":8232,"capital":false},{"name":"San Miguel Totocuitlapilco","country":"MX","lat":19.2289,"lng":-99.5942,"pop":8207,"capital":false},{"name":"San José las Palmas","country":"MX","lat":19.3672,"lng":-98.9337,"pop":8203,"capital":false},{"name":"Vicente Guerrero","country":"MX","lat":18.3893,"lng":-92.8955,"pop":8188,"capital":false},{"name":"Unión y Progreso","country":"MX","lat":18.8728,"lng":-97.1192,"pop":8181,"capital":false},{"name":"Rinconada","country":"MX","lat":19.3565,"lng":-96.568,"pop":8173,"capital":false},{"name":"San Pablo Villa de Mitla","country":"MX","lat":16.9217,"lng":-96.3629,"pop":8167,"capital":false},{"name":"Pajapita","country":"GT","lat":14.7215,"lng":-92.0352,"pop":8164,"capital":false},{"name":"Copoya","country":"MX","lat":16.7119,"lng":-93.1209,"pop":8160,"capital":false},{"name":"Tatahuicapan","country":"MX","lat":18.2462,"lng":-94.7612,"pop":8159,"capital":false},{"name":"Moyuta","country":"GT","lat":14.0386,"lng":-90.0808,"pop":8145,"capital":false},{"name":"Jonacatepec","country":"MX","lat":18.6808,"lng":-98.8034,"pop":8123,"capital":false},{"name":"Isla Soyaltepec","country":"MX","lat":18.2011,"lng":-96.4832,"pop":8116,"capital":false},{"name":"Nuevo Progreso","country":"GT","lat":14.7917,"lng":-91.9195,"pop":8113,"capital":false},{"name":"San Jerónimo","country":"GT","lat":15.0603,"lng":-90.2405,"pop":8093,"capital":false},{"name":"Tenextepango","country":"MX","lat":18.7289,"lng":-98.9578,"pop":8083,"capital":false},{"name":"Concepción Chiquirichapa","country":"GT","lat":14.8551,"lng":-91.6236,"pop":8080,"capital":false},{"name":"El Pueblito","country":"MX","lat":18.8864,"lng":-96.9695,"pop":8078,"capital":false},{"name":"Tacotalpa","country":"MX","lat":17.5964,"lng":-92.826,"pop":8071,"capital":false},{"name":"Santa Cruz Atizapán","country":"MX","lat":19.1769,"lng":-99.4885,"pop":8062,"capital":false},{"name":"Malinalco","country":"MX","lat":18.9485,"lng":-99.4962,"pop":8045,"capital":false},{"name":"Ejido San Lorenzo Cuauhtenco","country":"MX","lat":19.3014,"lng":-99.7503,"pop":8024,"capital":false},{"name":"Miahuatlán","country":"MX","lat":18.2916,"lng":-97.2879,"pop":8016,"capital":false},{"name":"Santo Domingo de Guzmán","country":"MX","lat":19.5931,"lng":-99.7797,"pop":8008,"capital":false},{"name":"Santa Catarina Ayometla","country":"MX","lat":19.1983,"lng":-98.2136,"pop":7992,"capital":false},{"name":"Tlayacapan","country":"MX","lat":18.9556,"lng":-98.9811,"pop":7989,"capital":false},{"name":"Revolución Mexicana","country":"MX","lat":16.1716,"lng":-93.0767,"pop":7989,"capital":false},{"name":"San Miguel Vindho","country":"MX","lat":19.9945,"lng":-99.3178,"pop":7988,"capital":false},{"name":"San Bartolo","country":"MX","lat":19.8329,"lng":-99.1927,"pop":7951,"capital":false},{"name":"Atlatlahucan","country":"MX","lat":18.9341,"lng":-98.8982,"pop":7941,"capital":false},{"name":"Santo Tomás Chiconautla","country":"MX","lat":19.6389,"lng":-99.0075,"pop":7844,"capital":false},{"name":"Esperanza","country":"MX","lat":18.8585,"lng":-97.3764,"pop":7833,"capital":false},{"name":"Santa Cruz Balanyá","country":"GT","lat":14.6852,"lng":-90.9191,"pop":7825,"capital":false},{"name":"Medellín y Madero Segunda Sección","country":"MX","lat":18.1135,"lng":-92.854,"pop":7825,"capital":false},{"name":"El Espinal","country":"MX","lat":16.4857,"lng":-95.0401,"pop":7823,"capital":false},{"name":"San Antonio Aguas Calientes","country":"GT","lat":14.5468,"lng":-90.7805,"pop":7811,"capital":false},{"name":"San Antonio La Paz","country":"GT","lat":14.7589,"lng":-90.2848,"pop":7781,"capital":false},{"name":"Hacienda Blanca","country":"MX","lat":17.1399,"lng":-96.7759,"pop":7758,"capital":false},{"name":"Huehuetán","country":"MX","lat":15.0193,"lng":-92.3831,"pop":7755,"capital":false},{"name":"Santiago Alseseca","country":"MX","lat":18.8451,"lng":-97.7072,"pop":7744,"capital":false},{"name":"Casillas","country":"GT","lat":14.4192,"lng":-90.2433,"pop":7698,"capital":false},{"name":"Cuichapa","country":"MX","lat":17.9389,"lng":-94.28,"pop":7697,"capital":false},{"name":"La Selva","country":"MX","lat":18.0233,"lng":-92.9631,"pop":7690,"capital":false},{"name":"La Concordia","country":"MX","lat":16.118,"lng":-92.6909,"pop":7641,"capital":false},{"name":"Santa María del Tule","country":"MX","lat":17.0468,"lng":-96.6363,"pop":7636,"capital":false},{"name":"El Espinal","country":"MX","lat":16.3686,"lng":-94.1045,"pop":7616,"capital":false},{"name":"Santa María Xadani","country":"MX","lat":16.3617,"lng":-95.0185,"pop":7613,"capital":false},{"name":"Coatepec","country":"MX","lat":19.1374,"lng":-99.4295,"pop":7604,"capital":false},{"name":"Santiago Acatlán","country":"MX","lat":18.9933,"lng":-97.9337,"pop":7601,"capital":false},{"name":"Tlacotalpan","country":"MX","lat":18.6133,"lng":-95.6589,"pop":7600,"capital":false},{"name":"Teotitlán de Flores Magón","country":"MX","lat":18.1307,"lng":-97.0695,"pop":7598,"capital":false},{"name":"Jocotitlán","country":"MX","lat":19.7099,"lng":-99.7887,"pop":7575,"capital":false},{"name":"Tlachichuca","country":"MX","lat":19.1149,"lng":-97.4191,"pop":7574,"capital":false},{"name":"El Naranjito","country":"MX","lat":18.0016,"lng":-94.6079,"pop":7574,"capital":false},{"name":"Río Bravo","country":"GT","lat":14.4004,"lng":-91.3171,"pop":7568,"capital":false},{"name":"San Lorenzo Tlacotepec","country":"MX","lat":19.8125,"lng":-99.9122,"pop":7566,"capital":false},{"name":"San Gaspar Tonatico","country":"MX","lat":18.8067,"lng":-99.6692,"pop":7565,"capital":false},{"name":"San Miguel Sigüilá","country":"GT","lat":14.8955,"lng":-91.6146,"pop":7551,"capital":false},{"name":"Cuautlapán","country":"MX","lat":18.8775,"lng":-97.0229,"pop":7549,"capital":false},{"name":"Chinameca","country":"MX","lat":18.022,"lng":-94.6794,"pop":7547,"capital":false},{"name":"Mataquescuintla","country":"GT","lat":14.5292,"lng":-90.1842,"pop":7539,"capital":false},{"name":"Tuzamapan","country":"MX","lat":19.4036,"lng":-96.8635,"pop":7522,"capital":false},{"name":"Tlanalapa","country":"MX","lat":19.8187,"lng":-98.604,"pop":7518,"capital":false},{"name":"Acacoyagua","country":"MX","lat":15.3425,"lng":-92.6758,"pop":7515,"capital":false},{"name":"San Lorenzo Chiautzingo","country":"MX","lat":19.2043,"lng":-98.4675,"pop":7477,"capital":false},{"name":"Paso de Ovejas","country":"MX","lat":19.2845,"lng":-96.4404,"pop":7468,"capital":false},{"name":"Santa Cruz Cuauhtenco","country":"MX","lat":19.2491,"lng":-99.7294,"pop":7460,"capital":false},{"name":"Tapilula","country":"MX","lat":17.2493,"lng":-93.0168,"pop":7441,"capital":false},{"name":"San Pedro Tapanatepec","country":"MX","lat":16.3711,"lng":-94.1931,"pop":7441,"capital":false},{"name":"San Francisco Zacacalco","country":"MX","lat":19.9288,"lng":-98.9828,"pop":7420,"capital":false},{"name":"Barrio de México","country":"MX","lat":19.2825,"lng":-99.8283,"pop":7414,"capital":false},{"name":"Santa María Huatulco","country":"MX","lat":15.8329,"lng":-96.3208,"pop":7409,"capital":false},{"name":"Zimatepec","country":"MX","lat":19.4213,"lng":-98.1646,"pop":7378,"capital":false},{"name":"Montecillo","country":"MX","lat":19.4571,"lng":-98.9083,"pop":7371,"capital":false},{"name":"Chilón","country":"MX","lat":17.106,"lng":-92.273,"pop":7368,"capital":false},{"name":"Panotla","country":"MX","lat":19.3162,"lng":-98.2701,"pop":7356,"capital":false},{"name":"San Lorenzo Cacaotepec","country":"MX","lat":17.1277,"lng":-96.8024,"pop":7351,"capital":false},{"name":"Chontalpa","country":"MX","lat":17.6653,"lng":-93.4809,"pop":7336,"capital":false},{"name":"Emiliano Zapata (Santo Domingo)","country":"MX","lat":19.5797,"lng":-99.7881,"pop":7331,"capital":false},{"name":"Santa María Ixtiyucán","country":"MX","lat":19.1869,"lng":-97.8109,"pop":7298,"capital":false},{"name":"Sabancuy","country":"MX","lat":18.9708,"lng":-91.1787,"pop":7286,"capital":false},{"name":"Juárez","country":"MX","lat":17.6075,"lng":-93.1925,"pop":7286,"capital":false},{"name":"Villa de Etla","country":"MX","lat":17.2062,"lng":-96.7989,"pop":7285,"capital":false},{"name":"Independencia","country":"MX","lat":18.8772,"lng":-99.1224,"pop":7282,"capital":false},{"name":"Santiago Suchilquitongo","country":"MX","lat":17.2476,"lng":-96.8738,"pop":7276,"capital":false},{"name":"Benemérito de las Américas","country":"MX","lat":16.5154,"lng":-90.6534,"pop":7259,"capital":false},{"name":"San Marcos de León","country":"MX","lat":19.4226,"lng":-96.9642,"pop":7256,"capital":false},{"name":"Santo Domingo Zanatepec","country":"MX","lat":16.4831,"lng":-94.3475,"pop":7249,"capital":false},{"name":"Coatepec Harinas","country":"MX","lat":18.8949,"lng":-99.7215,"pop":7243,"capital":false},{"name":"Atizapán","country":"MX","lat":19.25,"lng":-99.55,"pop":7243,"capital":false},{"name":"Miacatlán","country":"MX","lat":18.762,"lng":-99.3594,"pop":7212,"capital":false},{"name":"La Concepción de los Baños","country":"MX","lat":19.6825,"lng":-99.861,"pop":7207,"capital":false},{"name":"Asunción Ixtaltepec","country":"MX","lat":16.5033,"lng":-95.0604,"pop":7203,"capital":false},{"name":"Villa Comaltitlán","country":"MX","lat":15.2129,"lng":-92.576,"pop":7201,"capital":false},{"name":"Santa Anita Huiloac","country":"MX","lat":19.3884,"lng":-98.1436,"pop":7183,"capital":false},{"name":"Xocotla","country":"MX","lat":19.0148,"lng":-97.1007,"pop":7168,"capital":false},{"name":"Tila","country":"MX","lat":17.3003,"lng":-92.4259,"pop":7164,"capital":false},{"name":"Vicente Camalote","country":"MX","lat":18.5139,"lng":-96.5282,"pop":7164,"capital":false},{"name":"San Vicente Pacaya","country":"GT","lat":14.4147,"lng":-90.6361,"pop":7162,"capital":false},{"name":"San Andrés Calpan","country":"MX","lat":19.1036,"lng":-98.4619,"pop":7161,"capital":false},{"name":"Chuarrancho","country":"GT","lat":14.8179,"lng":-90.5157,"pop":7149,"capital":false},{"name":"Actipan de Morelos","country":"MX","lat":18.96,"lng":-97.799,"pop":7144,"capital":false},{"name":"Cuapiaxtla de Madero","country":"MX","lat":18.9154,"lng":-97.8238,"pop":7139,"capital":false},{"name":"San Francisco Pujiltic","country":"MX","lat":16.2792,"lng":-92.4532,"pop":7137,"capital":false},{"name":"Buenavista de Cuéllar","country":"MX","lat":18.4596,"lng":-99.4087,"pop":7131,"capital":false},{"name":"Ixtlahuaca de Rayón","country":"MX","lat":19.5689,"lng":-99.7669,"pop":7114,"capital":false},{"name":"Zacamulpa","country":"MX","lat":19.3557,"lng":-99.3314,"pop":7097,"capital":false},{"name":"Chichicapa","country":"MX","lat":18.2612,"lng":-93.1816,"pop":7091,"capital":false},{"name":"Santo Tomás La Unión","country":"GT","lat":14.6322,"lng":-91.4107,"pop":7081,"capital":false},{"name":"Chiconcuac","country":"MX","lat":18.7828,"lng":-99.2072,"pop":7071,"capital":false},{"name":"San Miguel Tlaixpan","country":"MX","lat":19.5096,"lng":-98.8108,"pop":7064,"capital":false},{"name":"Ecatzingo de Hidalgo","country":"MX","lat":18.9551,"lng":-98.752,"pop":7058,"capital":false},{"name":"San Pedro Arriba","country":"MX","lat":19.4864,"lng":-99.5625,"pop":7040,"capital":false},{"name":"Acultzingo","country":"MX","lat":18.7189,"lng":-97.3037,"pop":7040,"capital":false},{"name":"Apaxtla de Castrejón","country":"MX","lat":18.1313,"lng":-99.9326,"pop":7037,"capital":false},{"name":"Tuxtla Chico","country":"MX","lat":14.9395,"lng":-92.1666,"pop":7026,"capital":false},{"name":"Apetatitlán Antonio Carbajal","country":"MX","lat":19.3362,"lng":-98.1791,"pop":7026,"capital":false},{"name":"Jolalpan","country":"MX","lat":18.325,"lng":-98.8449,"pop":7022,"capital":false},{"name":"Chanal","country":"MX","lat":16.6575,"lng":-92.2575,"pop":7008,"capital":false},{"name":"Totolac","country":"MX","lat":19.3258,"lng":-98.2583,"pop":6989,"capital":false},{"name":"Santa María Chiquimula","country":"GT","lat":15.0299,"lng":-91.3292,"pop":6980,"capital":false},{"name":"Xaltianguis","country":"MX","lat":17.0983,"lng":-99.7156,"pop":6965,"capital":false},{"name":"Zacapechpan","country":"MX","lat":19.0544,"lng":-98.3511,"pop":6959,"capital":false},{"name":"San Francisco Tepeolulco","country":"MX","lat":19.8329,"lng":-99.9883,"pop":6954,"capital":false},{"name":"Oaxtepec","country":"MX","lat":18.9183,"lng":-98.9564,"pop":6939,"capital":false},{"name":"San Agustin de las Juntas","country":"MX","lat":17.0121,"lng":-96.7118,"pop":6923,"capital":false},{"name":"Ignacio Zaragoza","country":"MX","lat":19.2923,"lng":-97.9212,"pop":6916,"capital":false},{"name":"Monte Blanco","country":"MX","lat":18.9663,"lng":-97.0168,"pop":6911,"capital":false},{"name":"Copalillo","country":"MX","lat":18.0343,"lng":-99.0412,"pop":6910,"capital":false},{"name":"Yehualtepec","country":"MX","lat":18.7952,"lng":-97.6616,"pop":6903,"capital":false},{"name":"Jonuta","country":"MX","lat":18.0898,"lng":-92.1381,"pop":6899,"capital":false},{"name":"Pantelhó","country":"MX","lat":17.0052,"lng":-92.4706,"pop":6888,"capital":false},{"name":"El Ocotito","country":"MX","lat":17.246,"lng":-99.5152,"pop":6882,"capital":false},{"name":"Zongolica","country":"MX","lat":18.6667,"lng":-96.9971,"pop":6874,"capital":false},{"name":"Coacotla","country":"MX","lat":17.9358,"lng":-94.6642,"pop":6873,"capital":false},{"name":"Villanueva","country":"MX","lat":19.0608,"lng":-97.7193,"pop":6866,"capital":false},{"name":"Tlacotepec","country":"MX","lat":17.7898,"lng":-99.9796,"pop":6848,"capital":false},{"name":"Santa Ana Nopalucan","country":"MX","lat":19.2981,"lng":-98.3332,"pop":6848,"capital":false},{"name":"Mazatán","country":"MX","lat":14.8631,"lng":-92.4494,"pop":6838,"capital":false},{"name":"Tolcayuca","country":"MX","lat":19.9581,"lng":-98.9194,"pop":6836,"capital":false},{"name":"Coacoatzintla","country":"MX","lat":19.6516,"lng":-96.9404,"pop":6832,"capital":false},{"name":"San Carlos Sija","country":"GT","lat":14.9844,"lng":-91.5491,"pop":6831,"capital":false},{"name":"San Antonio Mihuacán","country":"MX","lat":19.1533,"lng":-98.3047,"pop":6826,"capital":false},{"name":"Raudales Malpaso","country":"MX","lat":17.1883,"lng":-93.6058,"pop":6817,"capital":false},{"name":"Zempoala","country":"MX","lat":19.9159,"lng":-98.666,"pop":6798,"capital":false},{"name":"San Nicolás Tolentino","country":"MX","lat":19.3589,"lng":-99.5717,"pop":6798,"capital":false},{"name":"Nopalucán","country":"MX","lat":19.2184,"lng":-97.8227,"pop":6789,"capital":false},{"name":"Tesechoacan","country":"MX","lat":18.1375,"lng":-95.6583,"pop":6783,"capital":false},{"name":"Tecamachalco","country":"MX","lat":19.3599,"lng":-98.9596,"pop":6780,"capital":false},{"name":"Ciudad Ayala","country":"MX","lat":18.7669,"lng":-98.9822,"pop":6777,"capital":false},{"name":"Petalcingo","country":"MX","lat":17.2272,"lng":-92.4151,"pop":6775,"capital":false},{"name":"San Joaquín Coapango","country":"MX","lat":19.5404,"lng":-98.8274,"pop":6774,"capital":false},{"name":"Tonanitla","country":"MX","lat":19.6879,"lng":-99.0534,"pop":6774,"capital":false},{"name":"Santa María Jajalpa","country":"MX","lat":19.1117,"lng":-99.5358,"pop":6755,"capital":false},{"name":"Villa Azueta","country":"MX","lat":18.0742,"lng":-95.7122,"pop":6754,"capital":false},{"name":"San Juan Tehuixtitlán","country":"MX","lat":19.0543,"lng":-98.7672,"pop":6743,"capital":false},{"name":"Ixtenco","country":"MX","lat":19.2515,"lng":-97.8941,"pop":6741,"capital":false},{"name":"Río Viejo Primera Sección","country":"MX","lat":17.9391,"lng":-92.9802,"pop":6726,"capital":false},{"name":"Jesús María Garza","country":"MX","lat":16.3967,"lng":-93.2937,"pop":6724,"capital":false},{"name":"Santa Cruz del Monte","country":"MX","lat":19.767,"lng":-99.2287,"pop":6703,"capital":false},{"name":"Arenal","country":"MX","lat":19.3811,"lng":-98.9428,"pop":6700,"capital":false},{"name":"Santa Ana Ixtlahuatzingo (Santa Ana)","country":"MX","lat":18.9706,"lng":-99.6236,"pop":6697,"capital":false},{"name":"San Juan Huactzinco","country":"MX","lat":19.2334,"lng":-98.2526,"pop":6687,"capital":false},{"name":"Oxchuc","country":"MX","lat":16.7866,"lng":-92.3444,"pop":6675,"capital":false},{"name":"Altamirano","country":"MX","lat":16.8833,"lng":-92.15,"pop":6672,"capital":false},{"name":"Uspantán","country":"GT","lat":15.3467,"lng":-90.8705,"pop":6664,"capital":false},{"name":"San Cristóbal Nexquipayac","country":"MX","lat":19.5801,"lng":-98.9305,"pop":6661,"capital":false},{"name":"Ixhuatlán del Café","country":"MX","lat":19.0512,"lng":-96.9839,"pop":6649,"capital":false},{"name":"San Sebastián de Aparicio","country":"MX","lat":19.1033,"lng":-98.1608,"pop":6644,"capital":false},{"name":"Fraccionamiento Colinas del Sol","country":"MX","lat":19.3722,"lng":-99.7403,"pop":6640,"capital":false},{"name":"Santa María la Alta","country":"MX","lat":18.5998,"lng":-97.6581,"pop":6626,"capital":false},{"name":"Santa Ana Jilotzingo","country":"MX","lat":19.4562,"lng":-99.4884,"pop":6625,"capital":false},{"name":"San Jerónimo Coyula","country":"MX","lat":18.8944,"lng":-98.5171,"pop":6622,"capital":false},{"name":"Copala","country":"MX","lat":16.6077,"lng":-98.9782,"pop":6619,"capital":false},{"name":"Tochtepec","country":"MX","lat":18.8393,"lng":-97.8228,"pop":6615,"capital":false},{"name":"Lomas Verdes","country":"MX","lat":19.5045,"lng":-96.889,"pop":6583,"capital":false},{"name":"Temascal","country":"MX","lat":18.2419,"lng":-96.4031,"pop":6566,"capital":false},{"name":"La Cabecera","country":"MX","lat":19.3561,"lng":-99.7481,"pop":6559,"capital":false},{"name":"Marquelia","country":"MX","lat":16.5834,"lng":-98.8169,"pop":6553,"capital":false},{"name":"Copainalá","country":"MX","lat":17.0933,"lng":-93.2106,"pop":6550,"capital":false},{"name":"Soltepec","country":"MX","lat":19.1211,"lng":-97.7086,"pop":6547,"capital":false},{"name":"Santa María Magdalena Ocotitlán","country":"MX","lat":19.2371,"lng":-99.6242,"pop":6547,"capital":false},{"name":"Chautla","country":"MX","lat":18.9657,"lng":-98.1529,"pop":6540,"capital":false},{"name":"Tequisistlán","country":"MX","lat":19.5964,"lng":-98.941,"pop":6532,"capital":false},{"name":"Villa Mariano Matamoros","country":"MX","lat":19.3266,"lng":-98.3783,"pop":6527,"capital":false},{"name":"San Jerónimo Amanalco","country":"MX","lat":19.5179,"lng":-98.7567,"pop":6519,"capital":false},{"name":"Taxisco","country":"GT","lat":14.0672,"lng":-90.4679,"pop":6518,"capital":false},{"name":"Macultepec","country":"MX","lat":18.1433,"lng":-92.8596,"pop":6485,"capital":false},{"name":"Hueyapan","country":"MX","lat":18.8897,"lng":-98.682,"pop":6478,"capital":false},{"name":"Tlapanaloya","country":"MX","lat":19.9362,"lng":-99.0966,"pop":6466,"capital":false},{"name":"Vida Mejor I","country":"MX","lat":14.8697,"lng":-92.3078,"pop":6460,"capital":false},{"name":"Atempan","country":"MX","lat":19.8395,"lng":-97.4585,"pop":6457,"capital":false},{"name":"La Libertad","country":"GT","lat":15.5142,"lng":-91.8694,"pop":6439,"capital":false},{"name":"Tacaná","country":"GT","lat":15.2406,"lng":-92.0672,"pop":6438,"capital":false},{"name":"La Magdalena Tetela Morelos","country":"MX","lat":19.0492,"lng":-97.9413,"pop":6421,"capital":false},{"name":"San Bartolo Tlaxihuicalco","country":"MX","lat":19.7309,"lng":-99.1597,"pop":6404,"capital":false},{"name":"La Constitución Toltepec","country":"MX","lat":19.3486,"lng":-99.5492,"pop":6402,"capital":false},{"name":"San José Acatempa","country":"GT","lat":14.2653,"lng":-90.1269,"pop":6367,"capital":false},{"name":"Ayapango","country":"MX","lat":19.1269,"lng":-98.7999,"pop":6361,"capital":false},{"name":"Vista Hermosa","country":"MX","lat":19.5162,"lng":-99.2233,"pop":6344,"capital":false},{"name":"San Juan Cancuc","country":"MX","lat":16.8928,"lng":-92.3697,"pop":6327,"capital":false},{"name":"Temascalapa","country":"MX","lat":19.8277,"lng":-98.9017,"pop":6314,"capital":false},{"name":"Estación Huehuetán","country":"MX","lat":15.0109,"lng":-92.4066,"pop":6314,"capital":false},{"name":"Tehuixtla","country":"MX","lat":18.5594,"lng":-99.2712,"pop":6311,"capital":false},{"name":"Kilómetro 30","country":"MX","lat":16.9978,"lng":-99.78,"pop":6301,"capital":false},{"name":"Coxcatlán","country":"MX","lat":18.2671,"lng":-97.1508,"pop":6300,"capital":false},{"name":"Tepecoacuilco de Trujano","country":"MX","lat":18.2875,"lng":-99.4642,"pop":6298,"capital":false},{"name":"San Bartolomé Atlatlahuca","country":"MX","lat":19.0696,"lng":-99.6098,"pop":6293,"capital":false},{"name":"San Lucas Ojitlán","country":"MX","lat":18.0577,"lng":-96.3982,"pop":6289,"capital":false},{"name":"Zitlaltépec","country":"MX","lat":19.2039,"lng":-97.9072,"pop":6280,"capital":false},{"name":"Texcalac","country":"MX","lat":19.4233,"lng":-98.0866,"pop":6279,"capital":false},{"name":"Santo Domingo Suchitepéquez","country":"GT","lat":14.479,"lng":-91.4833,"pop":6270,"capital":false},{"name":"San Matías Cuijingo","country":"MX","lat":19.0849,"lng":-98.8531,"pop":6263,"capital":false},{"name":"San Bartolomé Milpas Altas","country":"GT","lat":14.6069,"lng":-90.6781,"pop":6261,"capital":false},{"name":"Santa María Nativitas","country":"MX","lat":19.2114,"lng":-99.6294,"pop":6258,"capital":false},{"name":"Santa Cruz Naranjo","country":"GT","lat":14.3881,"lng":-90.3697,"pop":6254,"capital":false},{"name":"Tlamacazapa","country":"MX","lat":18.4965,"lng":-99.5004,"pop":6234,"capital":false},{"name":"Salitrillo","country":"MX","lat":19.8294,"lng":-99.2159,"pop":6231,"capital":false},{"name":"Hueyapán","country":"MX","lat":19.8828,"lng":-97.4454,"pop":6227,"capital":false},{"name":"Santa Catarina Juquila","country":"MX","lat":16.2382,"lng":-97.2916,"pop":6220,"capital":false},{"name":"Isla Aguada","country":"MX","lat":18.7868,"lng":-91.4901,"pop":6204,"capital":false},{"name":"Totolapan","country":"MX","lat":18.9849,"lng":-98.9207,"pop":6198,"capital":false},{"name":"Acapetahua","country":"MX","lat":15.282,"lng":-92.6895,"pop":6194,"capital":false},{"name":"Conjunto Urbano la Loma I","country":"MX","lat":19.3264,"lng":-99.7319,"pop":6192,"capital":false},{"name":"San Pablo La Laguna","country":"GT","lat":14.7209,"lng":-91.2724,"pop":6186,"capital":false},{"name":"San Felipe Jalapa de Díaz","country":"MX","lat":18.0712,"lng":-96.5356,"pop":6174,"capital":false},{"name":"San Juan Tuxco","country":"MX","lat":19.2594,"lng":-98.4517,"pop":6170,"capital":false},{"name":"Cabezas","country":"MX","lat":19.3717,"lng":-96.3828,"pop":6167,"capital":false},{"name":"Teotlaltzingo","country":"MX","lat":19.2309,"lng":-98.5008,"pop":6166,"capital":false},{"name":"Bajos del Ejido","country":"MX","lat":16.9609,"lng":-99.9717,"pop":6165,"capital":false},{"name":"San Agustín Tlaxco","country":"MX","lat":19.0563,"lng":-97.9916,"pop":6163,"capital":false},{"name":"Tres Marías","country":"MX","lat":19.0549,"lng":-99.243,"pop":6160,"capital":false},{"name":"Atoyatempan","country":"MX","lat":18.8193,"lng":-97.9139,"pop":6154,"capital":false},{"name":"Santa María Citendejé","country":"MX","lat":19.7819,"lng":-99.9286,"pop":6136,"capital":false},{"name":"Paredón","country":"MX","lat":16.0508,"lng":-93.8667,"pop":6126,"capital":false},{"name":"Tepetlaoxtoc de Hidalgo","country":"MX","lat":19.5744,"lng":-98.8183,"pop":6123,"capital":false},{"name":"San Esteban Tizatlán","country":"MX","lat":19.3391,"lng":-98.2137,"pop":6114,"capital":false},{"name":"Guadalupe Victoria","country":"MX","lat":19.5547,"lng":-96.9606,"pop":6114,"capital":false},{"name":"San Luis Apizaquito","country":"MX","lat":19.4252,"lng":-98.1171,"pop":6099,"capital":false},{"name":"Juan Díaz Covarrubias","country":"MX","lat":18.1596,"lng":-95.1867,"pop":6091,"capital":false},{"name":"Ixtapa","country":"MX","lat":16.8031,"lng":-92.9053,"pop":6086,"capital":false},{"name":"Luis Gil Pérez","country":"MX","lat":17.8757,"lng":-93.0716,"pop":6083,"capital":false},{"name":"Mecayapan","country":"MX","lat":18.22,"lng":-94.8379,"pop":6068,"capital":false},{"name":"El Cóporo","country":"MX","lat":19.2831,"lng":-99.8353,"pop":6068,"capital":false},{"name":"Zitlala","country":"MX","lat":17.6905,"lng":-99.1864,"pop":6065,"capital":false},{"name":"Huamuxtitlán","country":"MX","lat":17.8045,"lng":-98.5642,"pop":6063,"capital":false},{"name":"San Gabriel Tetzoyocán","country":"MX","lat":18.7573,"lng":-97.7032,"pop":6060,"capital":false},{"name":"Fraccionamiento Arboledas San Ramón","country":"MX","lat":19.0942,"lng":-96.1567,"pop":6050,"capital":false},{"name":"Acatlán de Pérez Figueroa","country":"MX","lat":18.5388,"lng":-96.6051,"pop":6040,"capital":false},{"name":"Concepción Tutuapa","country":"GT","lat":15.2394,"lng":-91.8446,"pop":6006,"capital":false},{"name":"Chapultepec","country":"MX","lat":19.2022,"lng":-99.5618,"pop":6004,"capital":false},{"name":"Antón Lizardo","country":"MX","lat":19.0596,"lng":-95.9927,"pop":6003,"capital":false},{"name":"Atliaca","country":"MX","lat":17.6517,"lng":-99.3747,"pop":5997,"capital":false},{"name":"Tlaltenango","country":"MX","lat":19.1717,"lng":-98.3407,"pop":5995,"capital":false},{"name":"San José Poaquil","country":"GT","lat":14.8181,"lng":-90.9125,"pop":5987,"capital":false},{"name":"Santa Rosa de Lima","country":"GT","lat":14.3881,"lng":-90.2956,"pop":5984,"capital":false},{"name":"Villa Alta","country":"MX","lat":19.2926,"lng":-98.4011,"pop":5974,"capital":false},{"name":"Chicomuselo","country":"MX","lat":15.7417,"lng":-92.2858,"pop":5938,"capital":false},{"name":"San Antonio Buenavista","country":"MX","lat":19.2608,"lng":-99.7119,"pop":5937,"capital":false},{"name":"San Marcos Yachihuacaltepec","country":"MX","lat":19.3232,"lng":-99.6791,"pop":5917,"capital":false},{"name":"Tenango del Aire","country":"MX","lat":19.1577,"lng":-98.8569,"pop":5915,"capital":false},{"name":"San Sebastián","country":"MX","lat":19.7843,"lng":-99.0556,"pop":5904,"capital":false},{"name":"Rayón","country":"MX","lat":17.2011,"lng":-93.0108,"pop":5895,"capital":false},{"name":"Belén","country":"MX","lat":17.787,"lng":-92.613,"pop":5892,"capital":false},{"name":"San José Tetel","country":"MX","lat":19.4331,"lng":-98.1595,"pop":5884,"capital":false},{"name":"Santiago Acutzilapan","country":"MX","lat":19.7864,"lng":-99.7657,"pop":5866,"capital":false},{"name":"Domingo Arenas","country":"MX","lat":19.14,"lng":-98.4568,"pop":5864,"capital":false},{"name":"Santa Cruz Verapaz","country":"GT","lat":15.3734,"lng":-90.4286,"pop":5843,"capital":false},{"name":"Soconusco","country":"MX","lat":17.9632,"lng":-94.881,"pop":5825,"capital":false},{"name":"Pemex","country":"MX","lat":17.883,"lng":-92.4795,"pop":5822,"capital":false},{"name":"Granjas Ampliación Santa Rosa","country":"MX","lat":19.5928,"lng":-98.9667,"pop":5821,"capital":false},{"name":"Acambay","country":"MX","lat":19.9552,"lng":-99.8443,"pop":5807,"capital":false},{"name":"San Miguel Tenochtitlán","country":"MX","lat":19.7603,"lng":-99.9225,"pop":5805,"capital":false},{"name":"Temoac","country":"MX","lat":18.7722,"lng":-98.7775,"pop":5799,"capital":false},{"name":"Quinto Barrio (Ejido Cahuacán)","country":"MX","lat":19.6222,"lng":-99.4181,"pop":5795,"capital":false},{"name":"Olinalá","country":"MX","lat":17.7786,"lng":-98.7394,"pop":5792,"capital":false},{"name":"Santa Ana Tlachiahualpa","country":"MX","lat":19.7687,"lng":-98.9088,"pop":5781,"capital":false},{"name":"Río Frío de Juárez","country":"MX","lat":19.3534,"lng":-98.6706,"pop":5774,"capital":false},{"name":"Huapinol","country":"MX","lat":17.9229,"lng":-92.9109,"pop":5768,"capital":false},{"name":"San Miguel Contla","country":"MX","lat":19.3611,"lng":-98.1325,"pop":5761,"capital":false},{"name":"Concepción Jolalpan","country":"MX","lat":19.584,"lng":-98.8464,"pop":5761,"capital":false},{"name":"San José Xicohténcatl","country":"MX","lat":19.3544,"lng":-97.8308,"pop":5761,"capital":false},{"name":"San Lorenzo Oyamel","country":"MX","lat":19.4336,"lng":-99.5776,"pop":5753,"capital":false},{"name":"San Mateo del Mar","country":"MX","lat":16.2111,"lng":-94.9818,"pop":5734,"capital":false},{"name":"Cuanalá","country":"MX","lat":19.1092,"lng":-98.3279,"pop":5728,"capital":false},{"name":"Villa Emilio Carranza","country":"MX","lat":19.9702,"lng":-96.6116,"pop":5727,"capital":false},{"name":"Chietla","country":"MX","lat":18.5203,"lng":-98.5789,"pop":5726,"capital":false},{"name":"Quechultenango","country":"MX","lat":17.4143,"lng":-99.2422,"pop":5720,"capital":false},{"name":"Álvaro Obregón","country":"MX","lat":14.9223,"lng":-92.3781,"pop":5717,"capital":false},{"name":"Lomas de Altavista","country":"MX","lat":19.3614,"lng":-98.9447,"pop":5704,"capital":false},{"name":"San Luis Tecuhautitlán","country":"MX","lat":19.7674,"lng":-98.8887,"pop":5694,"capital":false},{"name":"Pinotepa de Don Luis","country":"MX","lat":16.4276,"lng":-97.9767,"pop":5692,"capital":false},{"name":"San Nicolás de los Ranchos","country":"MX","lat":19.0714,"lng":-98.486,"pop":5685,"capital":false},{"name":"San Miguel Panixtlahuaca","country":"MX","lat":16.2601,"lng":-97.3771,"pop":5682,"capital":false},{"name":"Benito Juárez","country":"MX","lat":19.5859,"lng":-98.4283,"pop":5674,"capital":false},{"name":"San Antonio Huista","country":"GT","lat":15.6501,"lng":-91.7716,"pop":5669,"capital":false},{"name":"San Bernardino","country":"MX","lat":19.4767,"lng":-98.8963,"pop":5667,"capital":false},{"name":"La Curva","country":"MX","lat":17.8682,"lng":-92.4883,"pop":5651,"capital":false},{"name":"Ayapa","country":"MX","lat":18.2232,"lng":-93.1121,"pop":5640,"capital":false},{"name":"La Lima","country":"MX","lat":17.9106,"lng":-92.9339,"pop":5638,"capital":false},{"name":"Temamatla","country":"MX","lat":19.2031,"lng":-98.8692,"pop":5633,"capital":false},{"name":"El Triunfo","country":"MX","lat":17.9226,"lng":-91.1706,"pop":5627,"capital":false},{"name":"Santa Catarina del Monte","country":"MX","lat":19.484,"lng":-98.7724,"pop":5599,"capital":false},{"name":"Yanga","country":"MX","lat":18.8329,"lng":-96.7984,"pop":5598,"capital":false},{"name":"Teontepec","country":"MX","lat":18.4922,"lng":-97.5296,"pop":5593,"capital":false},{"name":"Chanal","country":"MX","lat":16.7167,"lng":-92.4,"pop":5592,"capital":false},{"name":"Rincón Chamula","country":"MX","lat":17.2081,"lng":-92.939,"pop":5592,"capital":false},{"name":"San Pedro Abajo","country":"MX","lat":19.4809,"lng":-99.567,"pop":5581,"capital":false},{"name":"Aguacatán","country":"GT","lat":15.3422,"lng":-91.3114,"pop":5572,"capital":false},{"name":"Acolman de Netzahualcóyotl","country":"MX","lat":19.6398,"lng":-98.9078,"pop":5571,"capital":false},{"name":"San Pedro Zictepec","country":"MX","lat":19.0366,"lng":-99.5777,"pop":5571,"capital":false},{"name":"Tocatlán","country":"MX","lat":19.3886,"lng":-98.0274,"pop":5564,"capital":false},{"name":"San Juan Colorado","country":"MX","lat":16.4607,"lng":-97.9543,"pop":5561,"capital":false},{"name":"Tlatenchi","country":"MX","lat":18.5964,"lng":-99.1864,"pop":5555,"capital":false},{"name":"Pedro Amaro","country":"MX","lat":18.5964,"lng":-99.1731,"pop":5551,"capital":false},{"name":"San Mateo","country":"GT","lat":14.858,"lng":-91.59,"pop":5534,"capital":false},{"name":"Santa Rosalía","country":"MX","lat":18.0885,"lng":-93.3581,"pop":5528,"capital":false},{"name":"Santa Maria Coatepec","country":"MX","lat":19.1092,"lng":-97.5925,"pop":5524,"capital":false},{"name":"San Pablo Huitzo","country":"MX","lat":17.2774,"lng":-96.8853,"pop":5519,"capital":false},{"name":"La Candelaria Tlapala","country":"MX","lat":19.2404,"lng":-98.8477,"pop":5506,"capital":false},{"name":"San Bernardino","country":"GT","lat":14.5424,"lng":-91.4581,"pop":5501,"capital":false},{"name":"San Juan Bautista Valle Nacional","country":"MX","lat":17.7754,"lng":-96.3039,"pop":5488,"capital":false},{"name":"El Triunfo","country":"MX","lat":16.202,"lng":-91.8592,"pop":5478,"capital":false},{"name":"San Miguel Totoltepec","country":"MX","lat":19.324,"lng":-99.5778,"pop":5471,"capital":false},{"name":"San Dionisio Ocotepec","country":"MX","lat":16.7969,"lng":-96.3958,"pop":5459,"capital":false},{"name":"Tehuitzingo","country":"MX","lat":18.3319,"lng":-98.2759,"pop":5456,"capital":false},{"name":"Los Arcos","country":"MX","lat":18.8872,"lng":-99.0242,"pop":5446,"capital":false},{"name":"Santo Domingo Petapa","country":"MX","lat":16.8182,"lng":-95.1395,"pop":5429,"capital":false},{"name":"Bajos de Chila","country":"MX","lat":15.9231,"lng":-97.1209,"pop":5425,"capital":false},{"name":"Peñuela","country":"MX","lat":18.8642,"lng":-96.8945,"pop":5421,"capital":false},{"name":"San Francisco Ixhuatan","country":"MX","lat":16.3511,"lng":-94.484,"pop":5408,"capital":false},{"name":"Miguel Hidalgo","country":"MX","lat":18.2548,"lng":-93.3059,"pop":5397,"capital":false},{"name":"Zaragoza","country":"MX","lat":19.1483,"lng":-99.644,"pop":5393,"capital":false},{"name":"Calera Chica","country":"MX","lat":18.8583,"lng":-99.1819,"pop":5392,"capital":false},{"name":"San Andrés Ocotlán","country":"MX","lat":19.193,"lng":-99.5861,"pop":5388,"capital":false},{"name":"San Miguel Ameyalco","country":"MX","lat":19.3068,"lng":-99.4588,"pop":5387,"capital":false},{"name":"San Lorenzo Tlalmimilolpan","country":"MX","lat":19.6673,"lng":-98.8722,"pop":5386,"capital":false},{"name":"San Sebastián Xolalpa","country":"MX","lat":19.6765,"lng":-98.8453,"pop":5383,"capital":false},{"name":"San José Teacalco","country":"MX","lat":19.3356,"lng":-98.0645,"pop":5381,"capital":false},{"name":"Tezonapa","country":"MX","lat":18.6071,"lng":-96.6842,"pop":5376,"capital":false},{"name":"Purulhá","country":"GT","lat":15.2357,"lng":-90.2357,"pop":5370,"capital":false},{"name":"Amacuzac","country":"MX","lat":18.5986,"lng":-99.3694,"pop":5368,"capital":false},{"name":"San Benito Xaltocan","country":"MX","lat":19.4059,"lng":-98.1668,"pop":5367,"capital":false},{"name":"Chapulco","country":"MX","lat":18.6259,"lng":-97.4047,"pop":5358,"capital":false},{"name":"San Antonino Castillo Velasco","country":"MX","lat":16.8014,"lng":-96.6826,"pop":5354,"capital":false},{"name":"San Pablo Tecalco","country":"MX","lat":19.6731,"lng":-98.9584,"pop":5344,"capital":false},{"name":"Hueytamalco","country":"MX","lat":19.9403,"lng":-97.2885,"pop":5335,"capital":false},{"name":"El Rincón Citlaltépetl","country":"MX","lat":19.1556,"lng":-97.8944,"pop":5326,"capital":false},{"name":"Mazatlán","country":"MX","lat":17.4362,"lng":-99.4648,"pop":5316,"capital":false},{"name":"San Pedro Tlanixco","country":"MX","lat":19.0626,"lng":-99.6524,"pop":5307,"capital":false},{"name":"Santa Clara La Laguna","country":"GT","lat":14.7151,"lng":-91.3035,"pop":5306,"capital":false},{"name":"Acamixtla","country":"MX","lat":18.5651,"lng":-99.566,"pop":5301,"capital":false},{"name":"Santa María Ixtulco","country":"MX","lat":19.3253,"lng":-98.2084,"pop":5293,"capital":false},{"name":"Amayuca","country":"MX","lat":18.7241,"lng":-98.7981,"pop":5287,"capital":false},{"name":"Manlio Fabio Altamirano","country":"MX","lat":19.0943,"lng":-96.3335,"pop":5283,"capital":false},{"name":"Santa María Magdalena Cahuacán","country":"MX","lat":19.638,"lng":-99.4135,"pop":5279,"capital":false},{"name":"Tequexquináhuac","country":"MX","lat":19.4776,"lng":-98.8248,"pop":5279,"capital":false},{"name":"San Mateo Atarasquíllo","country":"MX","lat":19.323,"lng":-99.4616,"pop":5273,"capital":false},{"name":"Pilcaya","country":"MX","lat":18.7469,"lng":-99.675,"pop":5270,"capital":false},{"name":"Mochitlán","country":"MX","lat":17.4719,"lng":-99.3705,"pop":5269,"capital":false},{"name":"Úrsulo Galván","country":"MX","lat":19.4053,"lng":-96.3609,"pop":5259,"capital":false},{"name":"San Mateo Ixtacalco","country":"MX","lat":19.6992,"lng":-99.1716,"pop":5258,"capital":false},{"name":"Tulcingo de Valle","country":"MX","lat":18.0437,"lng":-98.4407,"pop":5249,"capital":false},{"name":"Xochimanca","country":"MX","lat":19.4905,"lng":-98.8243,"pop":5239,"capital":false},{"name":"Aldama","country":"MX","lat":18.2412,"lng":-93.351,"pop":5237,"capital":false},{"name":"Chilón","country":"MX","lat":17.2333,"lng":-92.4167,"pop":5228,"capital":false},{"name":"Jicaltepec Autopan","country":"MX","lat":19.3717,"lng":-99.6408,"pop":5228,"capital":false},{"name":"Tezontepec","country":"MX","lat":19.8806,"lng":-98.8197,"pop":5214,"capital":false},{"name":"San José el Vidrio","country":"MX","lat":19.6533,"lng":-99.3842,"pop":5204,"capital":false},{"name":"Santos Reyes Nopala","country":"MX","lat":16.1069,"lng":-97.1443,"pop":5201,"capital":false},{"name":"Salto de Agua","country":"MX","lat":17.5544,"lng":-92.3403,"pop":5199,"capital":false},{"name":"Paso del Toro","country":"MX","lat":19.0313,"lng":-96.1358,"pop":5197,"capital":false},{"name":"Chiná","country":"MX","lat":19.7691,"lng":-90.4951,"pop":5194,"capital":false},{"name":"Arbolada los Sauces","country":"MX","lat":19.8158,"lng":-99.0442,"pop":5190,"capital":false},{"name":"Tianguismanalco","country":"MX","lat":18.9762,"lng":-98.4486,"pop":5187,"capital":false},{"name":"Atoluca","country":"MX","lat":19.855,"lng":-97.3536,"pop":5187,"capital":false},{"name":"Santa Gertrudis","country":"MX","lat":19.7333,"lng":-99.3667,"pop":5185,"capital":false},{"name":"Frontera Corozal","country":"MX","lat":16.8147,"lng":-90.8835,"pop":5184,"capital":false},{"name":"Quintín Arauz","country":"MX","lat":18.3672,"lng":-93.2142,"pop":5178,"capital":false},{"name":"Hueyotlipan","country":"MX","lat":18.8915,"lng":-97.8657,"pop":5176,"capital":false},{"name":"Tecali","country":"MX","lat":18.9006,"lng":-97.9706,"pop":5156,"capital":false},{"name":"San Bartolo Oxtotitlán","country":"MX","lat":19.619,"lng":-99.6135,"pop":5155,"capital":false},{"name":"El Bosque","country":"MX","lat":17.0625,"lng":-92.721,"pop":5155,"capital":false},{"name":"El Castillo","country":"MX","lat":19.5472,"lng":-96.8651,"pop":5154,"capital":false},{"name":"Anacleto Canabal 2da. Sección","country":"MX","lat":17.9756,"lng":-93.0242,"pop":5153,"capital":false},{"name":"Huitzila","country":"MX","lat":19.8114,"lng":-98.9558,"pop":5151,"capital":false},{"name":"San Juan Coajomulco","country":"MX","lat":19.7531,"lng":-99.9686,"pop":5137,"capital":false},{"name":"La Pastoría","country":"MX","lat":19.5431,"lng":-98.9111,"pop":5135,"capital":false},{"name":"Soteapan","country":"MX","lat":18.2339,"lng":-94.873,"pop":5118,"capital":false},{"name":"Santa Catarina","country":"MX","lat":19.6366,"lng":-98.9265,"pop":5116,"capital":false},{"name":"Tzimol","country":"MX","lat":16.1794,"lng":-92.1854,"pop":5112,"capital":false},{"name":"San Andrés Villa Seca","country":"GT","lat":14.578,"lng":-91.5854,"pop":5102,"capital":false},{"name":"San Bartolo","country":"MX","lat":19.6553,"lng":-98.9022,"pop":5099,"capital":false},{"name":"Xochitlan Todos Santos","country":"MX","lat":18.704,"lng":-97.7761,"pop":5097,"capital":false},{"name":"Tlacotepec","country":"MX","lat":18.8144,"lng":-98.7451,"pop":5087,"capital":false},{"name":"Xocotlán","country":"MX","lat":19.5163,"lng":-98.8463,"pop":5082,"capital":false},{"name":"Venustiano Carranza","country":"MX","lat":16.1902,"lng":-91.9275,"pop":5081,"capital":false},{"name":"Bachajón","country":"MX","lat":17.0396,"lng":-92.1899,"pop":5063,"capital":false},{"name":"Chalchihuapan","country":"MX","lat":18.9718,"lng":-98.337,"pop":5061,"capital":false},{"name":"San Damián Texoloc","country":"MX","lat":19.2783,"lng":-98.2854,"pop":5033,"capital":false},{"name":"Tamazulapam Villa del Progreso","country":"MX","lat":17.6771,"lng":-97.5731,"pop":5028,"capital":false},{"name":"San Bartolomé Coatepec","country":"MX","lat":19.3978,"lng":-99.3121,"pop":5021,"capital":false},{"name":"Ex-Hacienda Santa Inés","country":"MX","lat":19.7067,"lng":-99.0725,"pop":5013,"capital":false},{"name":"Comoapan","country":"MX","lat":18.4069,"lng":-95.1746,"pop":5009,"capital":false},{"name":"San Lorenzo Axocomanitla","country":"MX","lat":19.2239,"lng":-98.2486,"pop":5007,"capital":false},{"name":"San Martín Caltenco","country":"MX","lat":18.8849,"lng":-97.8189,"pop":5003,"capital":false},{"name":"Jaltepec","country":"MX","lat":19.7296,"lng":-98.6346,"pop":5001,"capital":false},{"name":"Tres Palos","country":"MX","lat":16.8296,"lng":-99.7781,"pop":5001,"capital":false}]