[{"name":"Santa Cruz de Yojoa","country":"HN","lat":14.9809,"lng":-87.8909,"pop":97848,"capital":false},{"name":"Estelí","country":"NI","lat":13.0929,"lng":-86.3559,"pop":96422,"capital":false},{"name":"Granada","country":"NI","lat":11.9306,"lng":-85.9537,"pop":89409,"capital":false},{"name":"Ciudad Choluteca","country":"HN","lat":13.3057,"lng":-87.1788,"pop":75872,"capital":false},{"name":"Panzos","country":"GT","lat":15.3986,"lng":-89.6415,"pop":71846,"capital":false},{"name":"Delgado","country":"SV","lat":13.7217,"lng":-89.1687,"pop":71594,"capital":false},{"name":"Belize City","country":"BZ","lat":17.4995,"lng":-88.1976,"pop":65222,"capital":false},{"name":"San Pedro de Copán","country":"HN","lat":14.6167,"lng":-88.8667,"pop":63829,"capital":false},{"name":"Mateare","country":"NI","lat":12.2351,"lng":-86.4281,"pop":61234,"capital":false},{"name":"Zacapa","country":"GT","lat":14.9687,"lng":-89.5273,"pop":60424,"capital":false},{"name":"Sonsonate","country":"SV","lat":13.7173,"lng":-89.723,"pop":59468,"capital":false},{"name":"Comayagua","country":"HN","lat":14.4558,"lng":-87.6397,"pop":58784,"capital":false},{"name":"San Andrés","country":"CO","lat":12.5786,"lng":-81.6997,"pop":58257,"capital":false},{"name":"Omoa","country":"HN","lat":15.776,"lng":-88.0383,"pop":58172,"capital":false},{"name":"Jinotega","country":"NI","lat":13.091,"lng":-86.0023,"pop":55000,"capital":false},{"name":"San Marcos","country":"SV","lat":13.6611,"lng":-89.1825,"pop":54615,"capital":false},{"name":"El Viejo","country":"NI","lat":12.6635,"lng":-87.1666,"pop":53504,"capital":false},{"name":"Nueva Guinea","country":"NI","lat":11.6876,"lng":-84.4562,"pop":52929,"capital":false},{"name":"Usulután","country":"SV","lat":13.3447,"lng":-88.4399,"pop":51910,"capital":false},{"name":"El Negrito","country":"HN","lat":15.3167,"lng":-87.7,"pop":50550,"capital":false},{"name":"Tipitapa","country":"NI","lat":12.1973,"lng":-86.0971,"pop":50000,"capital":false},{"name":"Juigalpa","country":"NI","lat":12.1059,"lng":-85.3655,"pop":50000,"capital":false},{"name":"Ciudad Sandino","country":"NI","lat":12.1589,"lng":-86.3442,"pop":50000,"capital":false},{"name":"Cojutepeque","country":"SV","lat":13.7197,"lng":-88.9331,"pop":48411,"capital":false},{"name":"Asunción Mita","country":"GT","lat":14.3337,"lng":-89.7109,"pop":48297,"capital":false},{"name":"Sonaguera","country":"HN","lat":15.6333,"lng":-86.3333,"pop":48087,"capital":false},{"name":"Quimistán","country":"HN","lat":15.3475,"lng":-88.4052,"pop":47993,"capital":false},{"name":"Alajuela","country":"CR","lat":10.0172,"lng":-84.2127,"pop":47494,"capital":false},{"name":"La Lima","country":"HN","lat":15.4333,"lng":-87.9167,"pop":45955,"capital":false},{"name":"Liberia","country":"CR","lat":10.6352,"lng":-85.4378,"pop":45380,"capital":false},{"name":"Bluefields","country":"NI","lat":12.0129,"lng":-83.7645,"pop":44373,"capital":false},{"name":"Cuscatancingo","country":"SV","lat":13.727,"lng":-89.1816,"pop":44369,"capital":false},{"name":"Teupasenti","country":"HN","lat":14.2167,"lng":-86.7,"pop":43477,"capital":false},{"name":"San Vicente","country":"SV","lat":13.6411,"lng":-88.7846,"pop":41504,"capital":false},{"name":"Zacatecoluca","country":"SV","lat":13.5087,"lng":-88.8702,"pop":39613,"capital":false},{"name":"San Martín","country":"SV","lat":13.7833,"lng":-88.9167,"pop":39361,"capital":false},{"name":"Ilopango","country":"SV","lat":13.7017,"lng":-89.1094,"pop":38890,"capital":false},{"name":"Lepaera","country":"HN","lat":14.7788,"lng":-88.5902,"pop":37876,"capital":false},{"name":"Diriamba","country":"NI","lat":11.8581,"lng":-86.2392,"pop":35008,"capital":false},{"name":"Macuelizo","country":"HN","lat":15.3128,"lng":-88.5411,"pop":34401,"capital":false},{"name":"Victoria","country":"HN","lat":14.9376,"lng":-87.3935,"pop":34215,"capital":false},{"name":"Ahuachapán","country":"SV","lat":13.924,"lng":-89.8434,"pop":34102,"capital":false},{"name":"Ocotal","country":"NI","lat":13.6322,"lng":-86.474,"pop":33928,"capital":false},{"name":"Sabá","country":"HN","lat":15.4667,"lng":-86.25,"pop":33879,"capital":false},{"name":"Antiguo Cuscatlán","country":"SV","lat":13.6649,"lng":-89.2532,"pop":33767,"capital":false},{"name":"Juticalpa","country":"HN","lat":14.6644,"lng":-86.2225,"pop":33686,"capital":false},{"name":"Puerto Cabezas","country":"NI","lat":14.0351,"lng":-83.3888,"pop":33635,"capital":false},{"name":"Chichigalpa","country":"NI","lat":12.5704,"lng":-87.028,"pop":33137,"capital":false},{"name":"Villa de San Antonio","country":"HN","lat":14.3259,"lng":-87.6135,"pop":32419,"capital":false},{"name":"Chalchuapa","country":"SV","lat":13.9867,"lng":-89.6811,"pop":32282,"capital":false},{"name":"Villanueva","country":"HN","lat":15.3148,"lng":-87.9938,"pop":31571,"capital":false},{"name":"San José","country":"CR","lat":10.9519,"lng":-85.1357,"pop":31430,"capital":false},{"name":"San Benito","country":"GT","lat":16.9168,"lng":-89.919,"pop":30764,"capital":false},{"name":"Dulce Nombre de Culmí","country":"HN","lat":15.1,"lng":-85.5333,"pop":30543,"capital":false},{"name":"El Rosario","country":"HN","lat":14.5791,"lng":-87.7268,"pop":30042,"capital":false},{"name":"Rivas","country":"NI","lat":11.4398,"lng":-85.8275,"pop":30000,"capital":false},{"name":"San Rafael del Sur","country":"NI","lat":11.8485,"lng":-86.4384,"pop":29836,"capital":false},{"name":"Jinotepe","country":"NI","lat":11.8483,"lng":-86.1992,"pop":29507,"capital":false},{"name":"Tela","country":"HN","lat":15.7743,"lng":-87.4673,"pop":29325,"capital":false},{"name":"Boaco","country":"NI","lat":12.4726,"lng":-85.6596,"pop":29046,"capital":false},{"name":"Quezaltepeque","country":"SV","lat":13.8312,"lng":-89.2722,"pop":28886,"capital":false},{"name":"Santa Rosa de Copán","country":"HN","lat":14.7739,"lng":-88.7756,"pop":27753,"capital":false},{"name":"Quesada","country":"CR","lat":10.3266,"lng":-84.432,"pop":27310,"capital":false},{"name":"Potrerillos","country":"HN","lat":15.2301,"lng":-87.9639,"pop":26954,"capital":false},{"name":"La Unión","country":"SV","lat":13.3392,"lng":-87.8433,"pop":26807,"capital":false},{"name":"La Iguala","country":"HN","lat":14.6167,"lng":-88.4667,"pop":26805,"capital":false},{"name":"Nagarote","country":"NI","lat":12.2659,"lng":-86.5647,"pop":26270,"capital":false},{"name":"Mercedes Norte","country":"CR","lat":10.0061,"lng":-84.1302,"pop":26007,"capital":false},{"name":"Felipe Carrillo Puerto","country":"MX","lat":19.5775,"lng":-88.0453,"pop":25744,"capital":false},{"name":"Ayutuxtepeque","country":"SV","lat":13.7354,"lng":-89.2022,"pop":25426,"capital":false},{"name":"Arizona","country":"HN","lat":15.6333,"lng":-87.3167,"pop":25320,"capital":false},{"name":"San Francisco de Yojoa","country":"HN","lat":15.0144,"lng":-87.9716,"pop":24740,"capital":false},{"name":"San Luis Jilotepeque","country":"GT","lat":14.6472,"lng":-89.7246,"pop":24679,"capital":false},{"name":"Marcovia","country":"HN","lat":13.2881,"lng":-87.3097,"pop":24646,"capital":false},{"name":"San Luis","country":"HN","lat":15.1269,"lng":-88.4393,"pop":24606,"capital":false},{"name":"Jalapa","country":"NI","lat":13.9222,"lng":-86.1235,"pop":24037,"capital":false},{"name":"Sabanagrande","country":"HN","lat":13.8078,"lng":-87.2592,"pop":23943,"capital":false},{"name":"La Paz Centro","country":"NI","lat":12.34,"lng":-86.6753,"pop":23481,"capital":false},{"name":"San Marcos","country":"NI","lat":11.9095,"lng":-86.2035,"pop":23347,"capital":false},{"name":"San Antonio de Cortés","country":"HN","lat":15.1161,"lng":-88.0407,"pop":22884,"capital":false},{"name":"Acajutla","country":"SV","lat":13.5928,"lng":-89.8275,"pop":22763,"capital":false},{"name":"Gualaco","country":"HN","lat":15.0252,"lng":-86.0708,"pop":22327,"capital":false},{"name":"San Lorenzo","country":"HN","lat":13.4242,"lng":-87.4472,"pop":22289,"capital":false},{"name":"Yamaranguila","country":"HN","lat":14.2833,"lng":-88.242,"pop":21633,"capital":false},{"name":"Santa Rita","country":"HN","lat":15.2,"lng":-87.8833,"pop":21536,"capital":false},{"name":"Masatepe","country":"NI","lat":11.9145,"lng":-86.1446,"pop":21452,"capital":false},{"name":"Aguilares","country":"SV","lat":13.9572,"lng":-89.1897,"pop":21445,"capital":false},{"name":"San Ignacio","country":"BZ","lat":17.1588,"lng":-89.0696,"pop":21229,"capital":false},{"name":"Iriona","country":"HN","lat":15.9678,"lng":-85.0932,"pop":21207,"capital":false},{"name":"Esquías","country":"HN","lat":14.7439,"lng":-87.3712,"pop":21009,"capital":false},{"name":"Langue","country":"HN","lat":13.6208,"lng":-87.6525,"pop":20944,"capital":false},{"name":"Nandaime","country":"NI","lat":11.757,"lng":-86.0529,"pop":20810,"capital":false},{"name":"Esquipulas","country":"GT","lat":14.5657,"lng":-89.3517,"pop":20674,"capital":false},{"name":"El Estor","country":"GT","lat":15.5322,"lng":-89.3311,"pop":20489,"capital":false},{"name":"Flores","country":"GT","lat":16.9226,"lng":-89.8994,"pop":20464,"capital":false},{"name":"Rama","country":"NI","lat":12.1596,"lng":-84.2195,"pop":20456,"capital":false},{"name":"Sensuntepeque","country":"SV","lat":13.8758,"lng":-88.6273,"pop":20386,"capital":false},{"name":"Cofradía","country":"HN","lat":15.4,"lng":-88.15,"pop":20353,"capital":false},{"name":"Somoto","country":"NI","lat":13.4841,"lng":-86.5823,"pop":20316,"capital":false},{"name":"Cañas","country":"CR","lat":10.4311,"lng":-85.0982,"pop":20306,"capital":false},{"name":"Azacualpa","country":"HN","lat":14.7122,"lng":-88.0901,"pop":20210,"capital":false},{"name":"Yorito","country":"HN","lat":15.0667,"lng":-87.2833,"pop":19824,"capital":false},{"name":"Chalatenango","country":"SV","lat":14.0414,"lng":-88.9395,"pop":19364,"capital":false},{"name":"Gualán","country":"GT","lat":15.1195,"lng":-89.3572,"pop":19354,"capital":false},{"name":"Izalco","country":"SV","lat":13.7447,"lng":-89.6731,"pop":19197,"capital":false},{"name":"Corinto","country":"NI","lat":12.4825,"lng":-87.173,"pop":19183,"capital":false},{"name":"Corquín","country":"HN","lat":14.5667,"lng":-88.8667,"pop":19145,"capital":false},{"name":"Metapán","country":"SV","lat":14.3333,"lng":-89.45,"pop":19143,"capital":false},{"name":"San Rafael Oriente","country":"SV","lat":13.3833,"lng":-88.35,"pop":19095,"capital":false},{"name":"Guápiles","country":"CR","lat":10.2168,"lng":-83.7848,"pop":19092,"capital":false},{"name":"Puerto El Triunfo","country":"SV","lat":13.2833,"lng":-88.55,"pop":19074,"capital":false},{"name":"Morales","country":"GT","lat":15.4723,"lng":-88.8407,"pop":18994,"capital":false},{"name":"San José de Colinas","country":"HN","lat":15.041,"lng":-88.3019,"pop":18791,"capital":false},{"name":"El Paraíso","country":"HN","lat":13.8667,"lng":-86.55,"pop":18779,"capital":false},{"name":"Colomoncagua","country":"HN","lat":13.95,"lng":-88.2833,"pop":18484,"capital":false},{"name":"Siquirres","country":"CR","lat":10.0975,"lng":-83.5066,"pop":18231,"capital":false},{"name":"Sulaco","country":"HN","lat":14.9167,"lng":-87.2667,"pop":18161,"capital":false},{"name":"Lívingston","country":"GT","lat":15.8283,"lng":-88.7504,"pop":17923,"capital":false},{"name":"Atima","country":"HN","lat":14.9325,"lng":-88.4896,"pop":17648,"capital":false},{"name":"La Paz","country":"HN","lat":14.3212,"lng":-87.6759,"pop":17555,"capital":false},{"name":"San Pedro","country":"BZ","lat":17.916,"lng":-87.9659,"pop":17429,"capital":false},{"name":"Poptún","country":"GT","lat":16.3311,"lng":-89.4169,"pop":17320,"capital":false},{"name":"Morocelí","country":"HN","lat":14.1167,"lng":-86.8667,"pop":17153,"capital":false},{"name":"Río Blanco","country":"NI","lat":12.9344,"lng":-85.2235,"pop":17018,"capital":false},{"name":"La Libertad","country":"SV","lat":13.4883,"lng":-89.3222,"pop":16855,"capital":false},{"name":"Cucuyagua","country":"HN","lat":14.6478,"lng":-88.8738,"pop":16707,"capital":false},{"name":"Camoapa","country":"NI","lat":12.3838,"lng":-85.5128,"pop":16653,"capital":false},{"name":"El Crucero","country":"NI","lat":11.9901,"lng":-86.3095,"pop":16469,"capital":false},{"name":"San Francisco","country":"SV","lat":13.6941,"lng":-88.1041,"pop":16152,"capital":false},{"name":"San Juan de Flores","country":"HN","lat":14.2667,"lng":-87.0333,"pop":16070,"capital":false},{"name":"Siuna","country":"NI","lat":13.7332,"lng":-84.7772,"pop":16056,"capital":false},{"name":"Belén Gualcho","country":"HN","lat":14.4833,"lng":-88.8,"pop":15983,"capital":false},{"name":"Yoro","country":"HN","lat":15.1382,"lng":-87.1284,"pop":15774,"capital":false},{"name":"Erandique","country":"HN","lat":14.2379,"lng":-88.4645,"pop":15633,"capital":false},{"name":"Sonzacate","country":"SV","lat":13.7342,"lng":-89.7147,"pop":15446,"capital":false},{"name":"Somotillo","country":"NI","lat":13.0439,"lng":-86.9051,"pop":15385,"capital":false},{"name":"West Bay","country":"KY","lat":19.382,"lng":-81.3928,"pop":15335,"capital":false},{"name":"Nicoya","country":"CR","lat":10.1504,"lng":-85.4509,"pop":15313,"capital":false},{"name":"Orange Walk","country":"BZ","lat":18.0812,"lng":-88.5633,"pop":15298,"capital":false},{"name":"Santa Bárbara","country":"HN","lat":14.9222,"lng":-88.2376,"pop":15119,"capital":false},{"name":"Santiago de María","country":"SV","lat":13.4833,"lng":-88.4667,"pop":15032,"capital":false},{"name":"Armenia","country":"SV","lat":13.7436,"lng":-89.4989,"pop":14997,"capital":false},{"name":"Guajiquiro","country":"HN","lat":14.1167,"lng":-87.8333,"pop":14959,"capital":false},{"name":"Bodden Town","country":"KY","lat":19.2765,"lng":-81.2542,"pop":14845,"capital":false},{"name":"Santo Tomás","country":"NI","lat":12.0694,"lng":-85.0906,"pop":14809,"capital":false},{"name":"La Entrada","country":"HN","lat":15.0638,"lng":-88.7463,"pop":14739,"capital":false},{"name":"San Manuel de Colohete","country":"HN","lat":14.45,"lng":-88.6667,"pop":14583,"capital":false},{"name":"Santo Tomás","country":"SV","lat":13.6408,"lng":-89.1333,"pop":14581,"capital":false},{"name":"Limón","country":"HN","lat":15.8667,"lng":-85.5,"pop":14421,"capital":false},{"name":"Goascorán","country":"HN","lat":13.5833,"lng":-87.6167,"pop":14342,"capital":false},{"name":"Piraera","country":"HN","lat":14.0667,"lng":-88.4667,"pop":14124,"capital":false},{"name":"Nacaome","country":"HN","lat":13.5392,"lng":-87.4891,"pop":13929,"capital":false},{"name":"Intibucá","country":"HN","lat":14.3123,"lng":-88.1761,"pop":13741,"capital":false},{"name":"Quilalí","country":"NI","lat":13.567,"lng":-86.026,"pop":13590,"capital":false},{"name":"San Andrés","country":"HN","lat":14.2167,"lng":-88.55,"pop":13585,"capital":false},{"name":"Monjas","country":"GT","lat":14.5031,"lng":-89.8725,"pop":13541,"capital":false},{"name":"Talanga","country":"HN","lat":14.4,"lng":-87.0833,"pop":13492,"capital":false},{"name":"San Carlos","country":"NI","lat":11.1271,"lng":-84.7779,"pop":13451,"capital":false},{"name":"Minas de Oro","country":"HN","lat":14.7961,"lng":-87.3465,"pop":13341,"capital":false},{"name":"Ciudad Darío","country":"NI","lat":12.7314,"lng":-86.124,"pop":13318,"capital":false},{"name":"Santa Rosa de Lima","country":"SV","lat":13.6247,"lng":-87.8936,"pop":13249,"capital":false},{"name":"Brus Laguna","country":"HN","lat":15.75,"lng":-84.4833,"pop":13224,"capital":false},{"name":"Ticuantepe","country":"NI","lat":12.0226,"lng":-86.2049,"pop":13209,"capital":false},{"name":"Guayape","country":"HN","lat":14.7167,"lng":-86.8333,"pop":12907,"capital":false},{"name":"Guaimaca","country":"HN","lat":14.5333,"lng":-86.8167,"pop":12899,"capital":false},{"name":"Santa Rita","country":"HN","lat":15.1667,"lng":-87.2833,"pop":12869,"capital":false},{"name":"Amapala","country":"HN","lat":13.2922,"lng":-87.6539,"pop":12743,"capital":false},{"name":"Channel Land","country":"KY","lat":19.3437,"lng":-81.2176,"pop":12623,"capital":false},{"name":"Meámbar","country":"HN","lat":14.7833,"lng":-87.7667,"pop":12522,"capital":false},{"name":"Midland Acres","country":"KY","lat":19.2986,"lng":-81.2206,"pop":12410,"capital":false},{"name":"Santa Cruz","country":"CR","lat":10.2605,"lng":-85.5851,"pop":12281,"capital":false},{"name":"San Josecito","country":"CR","lat":10.0127,"lng":-84.1075,"pop":12195,"capital":false},{"name":"Yocón","country":"HN","lat":15.0167,"lng":-86.7,"pop":12182,"capital":false},{"name":"Petoa","country":"HN","lat":15.2694,"lng":-88.2888,"pop":12135,"capital":false},{"name":"Senahú","country":"GT","lat":15.4164,"lng":-89.8221,"pop":12084,"capital":false},{"name":"La Guata","country":"HN","lat":15.0833,"lng":-86.3833,"pop":12084,"capital":false},{"name":"The Mountain","country":"KY","lat":19.3309,"lng":-81.199,"pop":12028,"capital":false},{"name":"Further Ground","country":"KY","lat":19.3415,"lng":-81.199,"pop":12028,"capital":false},{"name":"El Sauce","country":"NI","lat":12.8869,"lng":-86.539,"pop":11898,"capital":false},{"name":"Naranjo","country":"CR","lat":10.0987,"lng":-84.3782,"pop":11853,"capital":false},{"name":"Turín","country":"SV","lat":13.9664,"lng":-89.7661,"pop":11829,"capital":false},{"name":"José María Morelos","country":"MX","lat":19.7489,"lng":-88.7087,"pop":11750,"capital":false},{"name":"Zaragoza","country":"SV","lat":13.5894,"lng":-89.2889,"pop":11749,"capital":false},{"name":"Sensenti","country":"HN","lat":14.4938,"lng":-88.9376,"pop":11668,"capital":false},{"name":"Manto","country":"HN","lat":14.9167,"lng":-86.3833,"pop":11641,"capital":false},{"name":"Gualcince","country":"HN","lat":14.1167,"lng":-88.55,"pop":11564,"capital":false},{"name":"Atescatempa","country":"GT","lat":14.1755,"lng":-89.7418,"pop":11543,"capital":false},{"name":"Bacalar","country":"MX","lat":18.6811,"lng":-88.3933,"pop":11513,"capital":false},{"name":"Melchor de Mencos","country":"GT","lat":17.0661,"lng":-89.1523,"pop":11457,"capital":false},{"name":"Ajuterique","country":"HN","lat":14.383,"lng":-87.7096,"pop":11356,"capital":false},{"name":"Berlín","country":"SV","lat":13.5,"lng":-88.5333,"pop":11313,"capital":false},{"name":"North Sound Estates","country":"KY","lat":19.293,"lng":-81.3024,"pop":11249,"capital":false},{"name":"Breakers","country":"KY","lat":19.2961,"lng":-81.1984,"pop":11247,"capital":false},{"name":"Morazán","country":"HN","lat":15.3167,"lng":-87.6,"pop":11076,"capital":false},{"name":"Frank Sound","country":"KY","lat":19.3024,"lng":-81.1819,"pop":11007,"capital":false},{"name":"Condega","country":"NI","lat":13.365,"lng":-86.3985,"pop":11000,"capital":false},{"name":"Guazapa","country":"SV","lat":13.8769,"lng":-89.1731,"pop":10995,"capital":false},{"name":"San Sebastián","country":"HN","lat":14.25,"lng":-88.5,"pop":10857,"capital":false},{"name":"Santa Catarina Mita","country":"GT","lat":14.4513,"lng":-89.7428,"pop":10817,"capital":false},{"name":"Villa de San Francisco","country":"HN","lat":14.1667,"lng":-86.9667,"pop":10816,"capital":false},{"name":"Esquipulas del Norte","country":"HN","lat":15.3,"lng":-86.5333,"pop":10781,"capital":false},{"name":"Whitehall Estates","country":"KY","lat":19.3131,"lng":-81.3821,"pop":10768,"capital":false},{"name":"Santa María del Real","country":"HN","lat":14.7667,"lng":-85.95,"pop":10767,"capital":false},{"name":"San Ramón","country":"CR","lat":10.088,"lng":-84.4702,"pop":10765,"capital":false},{"name":"Liure","country":"HN","lat":13.5358,"lng":-87.0919,"pop":10760,"capital":false},{"name":"Talgua","country":"HN","lat":14.7,"lng":-88.7,"pop":10744,"capital":false},{"name":"Dolores","country":"GT","lat":16.5118,"lng":-89.417,"pop":10604,"capital":false},{"name":"Jucuapa","country":"SV","lat":13.5167,"lng":-88.3833,"pop":10601,"capital":false},{"name":"Acoyapa","country":"NI","lat":11.9703,"lng":-85.1711,"pop":10563,"capital":false},{"name":"San Pedro Zacapa","country":"HN","lat":14.7565,"lng":-88.1137,"pop":10535,"capital":false},{"name":"Matiguás","country":"NI","lat":12.8373,"lng":-85.4622,"pop":10523,"capital":false},{"name":"Pedro","country":"KY","lat":19.2758,"lng":-81.2749,"pop":10394,"capital":false},{"name":"North Ward","country":"KY","lat":19.2844,"lng":-81.2705,"pop":10394,"capital":false},{"name":"San Agustín Acasaguastlán","country":"GT","lat":14.945,"lng":-89.9697,"pop":10335,"capital":false},{"name":"Lower Valley","country":"KY","lat":19.2804,"lng":-81.2843,"pop":10125,"capital":false},{"name":"Diriomo","country":"NI","lat":11.8763,"lng":-86.0518,"pop":10113,"capital":false},{"name":"Ciudad Arce","country":"SV","lat":13.8403,"lng":-89.4472,"pop":10095,"capital":false},{"name":"Marcala","country":"HN","lat":14.1566,"lng":-88.0347,"pop":10054,"capital":false},{"name":"Nueva Concepción","country":"SV","lat":14.1333,"lng":-89.3,"pop":9990,"capital":false},{"name":"Driftwood Village","country":"KY","lat":19.3534,"lng":-81.2465,"pop":9987,"capital":false},{"name":"Brinkleys","country":"KY","lat":19.3491,"lng":-81.2409,"pop":9987,"capital":false},{"name":"Hutland","country":"KY","lat":19.3492,"lng":-81.2135,"pop":9959,"capital":false},{"name":"Juayúa","country":"SV","lat":13.8414,"lng":-89.7456,"pop":9936,"capital":false},{"name":"Dangriga","country":"BZ","lat":16.9697,"lng":-88.2331,"pop":9927,"capital":false},{"name":"Río Segundo","country":"CR","lat":10.2398,"lng":-84.3171,"pop":9853,"capital":false},{"name":"San Francisco del Valle","country":"HN","lat":14.4354,"lng":-88.9561,"pop":9839,"capital":false},{"name":"La Labor","country":"HN","lat":14.4863,"lng":-89.0027,"pop":9838,"capital":false},{"name":"Corozal","country":"BZ","lat":18.3938,"lng":-88.3885,"pop":9815,"capital":false},{"name":"San Francisco de Coray","country":"HN","lat":13.6614,"lng":-87.5328,"pop":9742,"capital":false},{"name":"San Juan de Opoa","country":"HN","lat":14.779,"lng":-88.6964,"pop":9709,"capital":false},{"name":"Old Man Bay","country":"KY","lat":19.3442,"lng":-81.1765,"pop":9682,"capital":false},{"name":"Jocón","country":"HN","lat":15.2833,"lng":-86.9667,"pop":9659,"capital":false},{"name":"Trujillo","country":"HN","lat":15.9174,"lng":-85.9526,"pop":9646,"capital":false},{"name":"Santa Ana","country":"GT","lat":16.8058,"lng":-89.8271,"pop":9523,"capital":false},{"name":"Santiago Nonualco","country":"SV","lat":13.5167,"lng":-88.95,"pop":9490,"capital":false},{"name":"El Tránsito","country":"SV","lat":13.35,"lng":-88.35,"pop":9485,"capital":false},{"name":"Atiquizaya","country":"SV","lat":13.9769,"lng":-89.7525,"pop":9476,"capital":false},{"name":"Savannah Acres","country":"KY","lat":19.2802,"lng":-81.3,"pop":9409,"capital":false},{"name":"Newlands","country":"KY","lat":19.2854,"lng":-81.302,"pop":9409,"capital":false},{"name":"Alauca","country":"HN","lat":13.85,"lng":-86.6833,"pop":9273,"capital":false},{"name":"Baracoa","country":"HN","lat":15.7758,"lng":-87.8525,"pop":9202,"capital":false},{"name":"Yarula","country":"HN","lat":14.1167,"lng":-88.0833,"pop":9185,"capital":false},{"name":"San Francisco","country":"HN","lat":14.1167,"lng":-88.3667,"pop":9146,"capital":false},{"name":"Sinuapa","country":"HN","lat":14.4431,"lng":-89.1859,"pop":9145,"capital":false},{"name":"Ally Land","country":"KY","lat":19.341,"lng":-81.1194,"pop":9140,"capital":false},{"name":"San Antonio del Monte","country":"SV","lat":13.7164,"lng":-89.7383,"pop":9135,"capital":false},{"name":"Jiquilisco","country":"SV","lat":13.3167,"lng":-88.5833,"pop":9129,"capital":false},{"name":"Cayman Palms","country":"KY","lat":19.2776,"lng":-81.2699,"pop":9043,"capital":false},{"name":"Concepción del Norte","country":"HN","lat":15.1667,"lng":-88.1333,"pop":8989,"capital":false},{"name":"Estanzuela","country":"GT","lat":14.9978,"lng":-89.5728,"pop":8937,"capital":false},{"name":"El Congo","country":"SV","lat":13.9089,"lng":-89.4958,"pop":8905,"capital":false},{"name":"San Rafael","country":"CR","lat":10.0182,"lng":-84.0946,"pop":8887,"capital":false},{"name":"San Marcos de Colón","country":"HN","lat":13.4333,"lng":-86.8,"pop":8821,"capital":false},{"name":"Güinope","country":"HN","lat":13.8833,"lng":-86.9333,"pop":8794,"capital":false},{"name":"Nueva Ocotepeque","country":"HN","lat":14.4338,"lng":-89.1828,"pop":8780,"capital":false},{"name":"Telica","country":"NI","lat":12.522,"lng":-86.8594,"pop":8776,"capital":false},{"name":"Pimienta Vieja","country":"HN","lat":15.2333,"lng":-87.9667,"pop":8761,"capital":false},{"name":"Savannah","country":"KY","lat":19.2806,"lng":-81.2987,"pop":8735,"capital":false},{"name":"Saint James","country":"KY","lat":19.2671,"lng":-81.2889,"pop":8735,"capital":false},{"name":"San Lorenzo","country":"NI","lat":12.3783,"lng":-85.6665,"pop":8694,"capital":false},{"name":"Chinameca","country":"SV","lat":13.5,"lng":-88.35,"pop":8646,"capital":false},{"name":"Omega Gardens","country":"KY","lat":19.2924,"lng":-81.3267,"pop":8589,"capital":false},{"name":"Santa Elena","country":"BZ","lat":17.1614,"lng":-89.0546,"pop":8587,"capital":false},{"name":"Pease Bay","country":"KY","lat":19.2878,"lng":-81.2417,"pop":8558,"capital":false},{"name":"Belford Estates","country":"KY","lat":19.2847,"lng":-81.2464,"pop":8558,"capital":false},{"name":"Guarita","country":"HN","lat":14.1833,"lng":-88.8167,"pop":8509,"capital":false},{"name":"Ciudad Barrios","country":"SV","lat":13.7667,"lng":-88.2667,"pop":8491,"capital":false},{"name":"Jocotán","country":"GT","lat":14.8207,"lng":-89.3899,"pop":8387,"capital":false},{"name":"Chinacla","country":"HN","lat":14.1667,"lng":-88,"pop":8096,"capital":false},{"name":"Nuevo Celilac","country":"HN","lat":14.9833,"lng":-88.3333,"pop":8086,"capital":false},{"name":"South End","country":"NI","lat":12.17,"lng":-83.041,"pop":8011,"capital":false},{"name":"Prospect Park","country":"KY","lat":19.2807,"lng":-81.3302,"pop":7933,"capital":false},{"name":"Gracias","country":"HN","lat":14.5907,"lng":-88.5861,"pop":7909,"capital":false},{"name":"Bocana de Paiwas","country":"NI","lat":12.7857,"lng":-85.1227,"pop":7872,"capital":false},{"name":"San José de Comayagua","country":"HN","lat":14.7333,"lng":-88.0333,"pop":7856,"capital":false},{"name":"Las Praderas","country":"NI","lat":13.348,"lng":-85.944,"pop":7836,"capital":false},{"name":"Villa Sandino","country":"NI","lat":12.0483,"lng":-84.9936,"pop":7799,"capital":false},{"name":"Concepción de Ataco","country":"SV","lat":13.8703,"lng":-89.8486,"pop":7797,"capital":false},{"name":"San Juan del Sur","country":"NI","lat":11.2529,"lng":-85.8705,"pop":7790,"capital":false},{"name":"Niquinohomo","country":"NI","lat":11.9052,"lng":-86.0945,"pop":7732,"capital":false},{"name":"San Juan","country":"CR","lat":10.1025,"lng":-84.3169,"pop":7729,"capital":false},{"name":"Larreynaga","country":"NI","lat":12.6761,"lng":-86.5712,"pop":7703,"capital":false},{"name":"Puerto Morazán","country":"NI","lat":12.8508,"lng":-87.172,"pop":7671,"capital":false},{"name":"Ladyville","country":"BZ","lat":17.5543,"lng":-88.29,"pop":7655,"capital":false},{"name":"Spotts","country":"KY","lat":19.2742,"lng":-81.3126,"pop":7609,"capital":false},{"name":"Agua Blanca Sur","country":"HN","lat":15.25,"lng":-87.8833,"pop":7592,"capital":false},{"name":"Opatoro","country":"HN","lat":14.0833,"lng":-87.9,"pop":7572,"capital":false},{"name":"Tropical Gardens","country":"KY","lat":19.2912,"lng":-81.3489,"pop":7534,"capital":false},{"name":"Red Bay Estate","country":"KY","lat":19.2872,"lng":-81.3412,"pop":7534,"capital":false},{"name":"Coxen Hole","country":"HN","lat":16.3155,"lng":-86.5397,"pop":7514,"capital":false},{"name":"Las Vegas, Santa Barbara","country":"HN","lat":14.8765,"lng":-88.0747,"pop":7487,"capital":false},{"name":"Chahal","country":"GT","lat":15.7912,"lng":-89.6052,"pop":7465,"capital":false},{"name":"Nahuizalco","country":"SV","lat":13.7775,"lng":-89.7367,"pop":7358,"capital":false},{"name":"El Progreso","country":"GT","lat":14.356,"lng":-89.8485,"pop":7350,"capital":false},{"name":"San Sebastián","country":"SV","lat":13.7333,"lng":-88.8333,"pop":7333,"capital":false},{"name":"Tilarán","country":"CR","lat":10.467,"lng":-84.9677,"pop":7301,"capital":false},{"name":"Hopelchén","country":"MX","lat":19.7471,"lng":-89.8441,"pop":7295,"capital":false},{"name":"San Andrés","country":"GT","lat":16.9686,"lng":-89.9118,"pop":7235,"capital":false},{"name":"El Triunfo","country":"HN","lat":13.1167,"lng":-87,"pop":7182,"capital":false},{"name":"Aramecina","country":"HN","lat":13.7422,"lng":-87.7103,"pop":7173,"capital":false},{"name":"San Pedro de Tutule","country":"HN","lat":14.2515,"lng":-87.8541,"pop":7165,"capital":false},{"name":"Benque Viejo el Carmen","country":"BZ","lat":17.075,"lng":-89.1392,"pop":7160,"capital":false},{"name":"San Jorge","country":"NI","lat":11.4558,"lng":-85.8031,"pop":7158,"capital":false},{"name":"San Juan Opico","country":"SV","lat":13.8761,"lng":-89.3597,"pop":7127,"capital":false},{"name":"Lamaní","country":"HN","lat":14.1963,"lng":-87.6213,"pop":7117,"capital":false},{"name":"Santa Cruz","country":"HN","lat":14.0167,"lng":-88.3833,"pop":7089,"capital":false},{"name":"Nindirí","country":"NI","lat":12.0032,"lng":-86.1205,"pop":7073,"capital":false},{"name":"Dolores","country":"NI","lat":11.8562,"lng":-86.2158,"pop":7065,"capital":false},{"name":"Trinidad de Copán","country":"HN","lat":14.9457,"lng":-88.7422,"pop":7031,"capital":false},{"name":"Guácimo","country":"CR","lat":10.2129,"lng":-83.6879,"pop":7022,"capital":false},{"name":"San Francisco de Ojuera","country":"HN","lat":14.75,"lng":-88.1833,"pop":7000,"capital":false},{"name":"Jesús de Otoro","country":"HN","lat":14.4878,"lng":-87.9818,"pop":6988,"capital":false},{"name":"Wiwilí","country":"NI","lat":13.6268,"lng":-85.8254,"pop":6955,"capital":false},{"name":"La Concepción","country":"NI","lat":11.9371,"lng":-86.1898,"pop":6946,"capital":false},{"name":"Nandasmo","country":"NI","lat":11.9241,"lng":-86.1207,"pop":6934,"capital":false},{"name":"La Alianza","country":"HN","lat":13.5122,"lng":-87.7244,"pop":6923,"capital":false},{"name":"Prospect","country":"KY","lat":19.2797,"lng":-81.3328,"pop":6912,"capital":false},{"name":"Camasca","country":"HN","lat":13.9968,"lng":-88.3797,"pop":6873,"capital":false},{"name":"Maraita","country":"HN","lat":13.8842,"lng":-87.0397,"pop":6809,"capital":false},{"name":"Pearl City","country":"NI","lat":12.3429,"lng":-83.6712,"pop":6809,"capital":false},{"name":"San Luis","country":"GT","lat":16.1989,"lng":-89.4403,"pop":6776,"capital":false},{"name":"Monjarás","country":"HN","lat":13.2006,"lng":-87.3742,"pop":6772,"capital":false},{"name":"Panchimalco","country":"SV","lat":13.6128,"lng":-89.18,"pop":6764,"capital":false},{"name":"Rock Hole","country":"KY","lat":19.2998,"lng":-81.3781,"pop":6763,"capital":false},{"name":"Breezy Castle","country":"KY","lat":19.2961,"lng":-81.3607,"pop":6763,"capital":false},{"name":"Dolores","country":"HN","lat":14.8746,"lng":-88.8164,"pop":6652,"capital":false},{"name":"Campamento","country":"HN","lat":14.55,"lng":-86.65,"pop":6560,"capital":false},{"name":"Miramar","country":"CR","lat":10.0925,"lng":-84.7298,"pop":6540,"capital":false},{"name":"Waslala","country":"NI","lat":13.335,"lng":-85.37,"pop":6498,"capital":false},{"name":"Tomalá","country":"HN","lat":14.2265,"lng":-88.784,"pop":6495,"capital":false},{"name":"Gun Bay","country":"KY","lat":19.3108,"lng":-81.092,"pop":6483,"capital":false},{"name":"Nuevo Cuscatlán","country":"SV","lat":13.6486,"lng":-89.2653,"pop":6469,"capital":false},{"name":"Half Moon Bay","country":"KY","lat":19.2969,"lng":-81.151,"pop":6408,"capital":false},{"name":"Teculután","country":"GT","lat":14.989,"lng":-89.7194,"pop":6407,"capital":false},{"name":"Waspán","country":"NI","lat":14.7419,"lng":-83.9717,"pop":6403,"capital":false},{"name":"Posoltega","country":"NI","lat":12.5442,"lng":-86.9798,"pop":6403,"capital":false},{"name":"Chirilagua","country":"SV","lat":13.2203,"lng":-88.1386,"pop":6393,"capital":false},{"name":"San Manuel","country":"HN","lat":15.3314,"lng":-87.9211,"pop":6389,"capital":false},{"name":"Tamarindo","country":"CR","lat":10.2991,"lng":-85.8411,"pop":6375,"capital":false},{"name":"Copán Ruinas","country":"HN","lat":14.8394,"lng":-89.1558,"pop":6336,"capital":false},{"name":"Mezapa","country":"HN","lat":15.5833,"lng":-87.65,"pop":6324,"capital":false},{"name":"Olocuilta","country":"SV","lat":13.5697,"lng":-89.1172,"pop":6324,"capital":false},{"name":"Bonanza","country":"NI","lat":14.0289,"lng":-84.591,"pop":6315,"capital":false},{"name":"Candelaria de La Frontera","country":"SV","lat":14.1167,"lng":-89.65,"pop":6301,"capital":false},{"name":"Dog City","country":"KY","lat":19.308,"lng":-81.3822,"pop":6273,"capital":false},{"name":"Bella Vista","country":"BZ","lat":16.5095,"lng":-88.5317,"pop":6259,"capital":false},{"name":"Las Trojes","country":"HN","lat":14.0667,"lng":-85.9833,"pop":6253,"capital":false},{"name":"Tonacatepeque","country":"SV","lat":13.7811,"lng":-89.1186,"pop":6245,"capital":false},{"name":"El Realejo","country":"NI","lat":12.5433,"lng":-87.1652,"pop":6208,"capital":false},{"name":"Oropolí","country":"HN","lat":13.8167,"lng":-86.8167,"pop":6013,"capital":false},{"name":"Lucerna","country":"HN","lat":14.5582,"lng":-88.9345,"pop":6009,"capital":false},{"name":"Río Hondo","country":"GT","lat":15.0451,"lng":-89.5852,"pop":5997,"capital":false},{"name":"Azacualpa","country":"HN","lat":15.3436,"lng":-88.5523,"pop":5949,"capital":false},{"name":"Half Way Pond","country":"KY","lat":19.2869,"lng":-81.3721,"pop":5927,"capital":false},{"name":"Blakes","country":"KY","lat":19.3034,"lng":-81.0975,"pop":5900,"capital":false},{"name":"Santa Elena","country":"SV","lat":13.3833,"lng":-88.4167,"pop":5887,"capital":false},{"name":"Trial Farm","country":"BZ","lat":18.1012,"lng":-88.5658,"pop":5850,"capital":false},{"name":"Santo Domingo","country":"NI","lat":12.2644,"lng":-85.0823,"pop":5827,"capital":false},{"name":"Nueva Guadalupe","country":"SV","lat":13.5333,"lng":-88.35,"pop":5798,"capital":false},{"name":"Apastepeque","country":"SV","lat":13.6667,"lng":-88.7833,"pop":5785,"capital":false},{"name":"Lejamaní","country":"HN","lat":14.3668,"lng":-87.7072,"pop":5781,"capital":false},{"name":"Coatepeque","country":"SV","lat":13.9286,"lng":-89.5042,"pop":5773,"capital":false},{"name":"Santo Domingo","country":"CR","lat":10.0639,"lng":-84.155,"pop":5745,"capital":false},{"name":"San Juan Pueblo","country":"HN","lat":15.5833,"lng":-87.2333,"pop":5735,"capital":false},{"name":"Suchitoto","country":"SV","lat":13.9381,"lng":-89.0278,"pop":5735,"capital":false},{"name":"El Rosario","country":"SV","lat":13.4978,"lng":-89.0297,"pop":5620,"capital":false},{"name":"Alubarén","country":"HN","lat":13.7961,"lng":-87.4689,"pop":5558,"capital":false},{"name":"Guanaja","country":"HN","lat":16.4419,"lng":-85.8872,"pop":5538,"capital":false},{"name":"High Rock Estates","country":"KY","lat":19.2987,"lng":-81.1465,"pop":5500,"capital":false},{"name":"High Rock","country":"KY","lat":19.2947,"lng":-81.1319,"pop":5500,"capital":false},{"name":"Morolica","country":"HN","lat":13.5667,"lng":-86.9,"pop":5472,"capital":false},{"name":"San Rafael del Norte","country":"NI","lat":13.2125,"lng":-86.1109,"pop":5458,"capital":false},{"name":"Santa Rosa de Aguán","country":"HN","lat":15.95,"lng":-85.7167,"pop":5432,"capital":false},{"name":"Belén","country":"NI","lat":11.503,"lng":-85.8893,"pop":5415,"capital":false},{"name":"San Francisco de la Paz","country":"HN","lat":14.9,"lng":-86.2,"pop":5411,"capital":false},{"name":"Punta Gorda","country":"BZ","lat":16.0984,"lng":-88.8097,"pop":5406,"capital":false},{"name":"Los Copeles","country":"NI","lat":12.2087,"lng":-85.3124,"pop":5406,"capital":false},{"name":"San Marcos","country":"HN","lat":14.4079,"lng":-88.9553,"pop":5346,"capital":false},{"name":"Florida","country":"HN","lat":15.0269,"lng":-88.8357,"pop":5340,"capital":false},{"name":"Calderitas","country":"MX","lat":18.5556,"lng":-88.2552,"pop":5326,"capital":false},{"name":"La Esperanza","country":"HN","lat":14.3016,"lng":-88.1672,"pop":5318,"capital":false},{"name":"Ipala","country":"GT","lat":14.6199,"lng":-89.6194,"pop":5283,"capital":false},{"name":"Guatajiagua","country":"SV","lat":13.6667,"lng":-88.2,"pop":5273,"capital":false},{"name":"Pocora","country":"CR","lat":10.172,"lng":-83.6026,"pop":5248,"capital":false},{"name":"Potosí","country":"NI","lat":11.4942,"lng":-85.8568,"pop":5222,"capital":false},{"name":"Villa El Carmen","country":"NI","lat":11.9801,"lng":-86.5057,"pop":5219,"capital":false},{"name":"Upper Land","country":"KY","lat":19.3626,"lng":-81.387,"pop":5195,"capital":false},{"name":"Tisma","country":"NI","lat":12.0819,"lng":-86.0174,"pop":5182,"capital":false},{"name":"Rosario de Mora","country":"SV","lat":13.5753,"lng":-89.2089,"pop":5178,"capital":false},{"name":"San Alejo","country":"SV","lat":13.4314,"lng":-87.9631,"pop":5149,"capital":false},{"name":"Tacuba","country":"SV","lat":13.9011,"lng":-89.9297,"pop":5055,"capital":false},{"name":"Cuyamel","country":"HN","lat":15.6651,"lng":-88.1948,"pop":5022,"capital":false},{"name":"Puerto Lempira","country":"HN","lat":15.2657,"lng":-83.7744,"pop":5000,"capital":false},{"name":"Yuscarán","country":"HN","lat":13.9444,"lng":-86.8524,"pop":2371,"capital":false},{"name":"North Side","country":"KY","lat":19.3514,"lng":-81.2085,"pop":1902,"capital":false},{"name":"East End","country":"KY","lat":19.3,"lng":-81.1167,"pop":1846,"capital":false},{"name":"Little Cayman","country":"KY","lat":19.6611,"lng":-80.1098,"pop":0,"capital":false}]